{"version": 0.6, "generator": "Overpass API 0.7.62.4 2390de5a", "osm3s": {"timestamp_osm_base": "2024-12-10T21:58:26Z", "copyright": "The data included in this document is from www.openstreetmap.org. The data is made available under ODbL."}, "elements": [{"type": "node", "id": 1404221505, "lat": 3.4971, "lon": 41.751202, "tags": {"name": "Dermo", "pcode": "NA-3704-N28-001", "place": "village", "source": "UNDP - 1997"}}, {"type": "node", "id": 1404221868, "lat": 3.58059, "lon": 41.84246, "tags": {"name": "Gomor Cad 1", "pcode": "NA-3704-L30-003", "place": "village", "source": "UNDP - 2006"}}, {"type": "node", "id": 1404221994, "lat": 3.71242, "lon": 41.72423, "tags": {"name": "Hareri Hosle 1", "pcode": "NA-3704-G27-001", "place": "village", "source": "UNDP - 2006"}}, {"type": "node", "id": 1404222031, "lat": 3.71478, "lon": 41.83544, "tags": {"name": "Dhufees", "pcode": "NA-3704-G30-001", "place": "village", "source": "UNDP - 2006"}}, {"type": "node", "id": 1404222054, "lat": 3.793, "lon": 41.79086, "tags": {"name": "Haartacad", "pcode": "NA-3704-E29-001", "place": "village", "source": "UNDP - 2006"}}, {"type": "node", "id": 1404222857, "lat": 3.84029, "lon": 41.8316, "tags": {"name": "Washaqo", "pcode": "NA-3704-D30-002", "place": "village", "source": "UNDP - 2006"}}, {"type": "node", "id": 1404223181, "lat": 3.67474, "lon": 41.71094, "tags": {"name": "Dhusuqle", "pcode": "NA-3704-H27-001", "place": "village", "source": "UNDP - 2006"}}, {"type": "node", "id": 1404223458, "lat": 3.60061, "lon": 41.73687, "tags": {"name": "Bilcille", "pcode": "NA-3704-K28-001", "place": "village", "source": "UNDP - 2006"}}, {"type": "node", "id": 1404223466, "lat": 3.56869, "lon": 41.80668, "tags": {"name": "Tuulo Barako", "pcode": "NA-3704-L29-001", "place": "village", "source": "UNDP - 2006"}}, {"type": "node", "id": 1404223474, "lat": 3.50101, "lon": 41.79055, "tags": {"name": "Qooriyow", "pcode": "NA-3704-M29-001", "place": "village", "source": "UNDP - 2006"}}, {"type": "node", "id": 1404224449, "lat": 3.60228, "lon": 41.73424, "tags": {"name": "Hareri Dulal", "pcode": "NA-3704-K28-002", "place": "village", "source": "UNDP - 2006"}}, {"type": "node", "id": 1404224798, "lat": 3.70002, "lon": 41.83071, "tags": {"name": "Haad Fuul", "pcode": "NA-3704-H30-002", "place": "village", "source": "UNDP - 2006"}}, {"type": "node", "id": 1404225041, "lat": 3.64437, "lon": 41.76244, "tags": {"name": "Cag Wilif", "pcode": "NA-3704-J28-001", "place": "village", "source": "UNDP - 2006"}}, {"type": "node", "id": 1404225629, "lat": 3.5711, "lon": 41.649502, "tags": {"name": "El Uaro", "pcode": "NA-3704-L26-001", "place": "village", "source": "UNDP - 1997"}}, {"type": "node", "id": 1404226093, "lat": 3.6869, "lon": 41.72064, "tags": {"name": "Hareri Hoosle 2", "pcode": "NA-3704-H27-002", "place": "village", "source": "UNDP - 2006"}}, {"type": "node", "id": 1404226452, "lat": 3.65819, "lon": 41.80588, "tags": {"name": "Hareriga Ali Ato", "pcode": "NA-3704-J29-001", "place": "village", "source": "UNDP - 2006"}}, {"type": "node", "id": 1404226590, "lat": 3.7785, "lon": 41.80771, "tags": {"name": "Tuulo Ciid", "pcode": "NA-3704-F29-001", "place": "village", "source": "UNDP - 2006"}}, {"type": "node", "id": 1404227486, "lat": 3.4528, "lon": 41.628399, "tags": {"name": "Gubbet Uasasa", "pcode": "NA-3704-P25-001", "place": "village", "source": "UNDP - 1997"}}, {"type": "node", "id": 1404228886, "lat": 3.56079, "lon": 41.77965, "tags": {"name": "Waro-Cadcad", "pcode": "NA-3704-L29-002", "place": "village", "source": "UNDP - 2006"}}, {"type": "node", "id": 1404230409, "lat": 3.62898, "lon": 41.69468, "tags": {"name": "Bulo Haji", "pcode": "NA-3704-J27-002", "place": "village", "source": "UNDP - 2006"}}, {"type": "node", "id": 1404230437, "lat": 3.8501, "lon": 41.831902, "tags": {"name": "Gebia", "pcode": "NA-3704-D30-001", "place": "village", "source": "UNDP - 1997"}}, {"type": "node", "id": 1404231113, "lat": 3.46289, "lon": 41.7186, "tags": {"name": "Tooblow", "pcode": "NA-3704-N27-001", "place": "village", "source": "UNDP - 2006"}}, {"type": "node", "id": 1404231204, "lat": 3.5687, "lon": 41.82114, "tags": {"alt_name": "Gadoon Dhowe; Gadoon Dhawe", "name": "Gaddoondhowe", "pcode": "NA-3704-L30-002", "place": "village", "source": "UNDP - 2006, FSAU"}}, {"type": "node", "id": 1404231282, "lat": 3.81609, "lon": 41.82478, "tags": {"name": "Dhuufley", "pcode": "NA-3704-E30-002", "place": "village", "source": "UNDP - 2006"}}, {"type": "node", "id": 1404231519, "lat": 3.61511, "lon": 41.74846, "tags": {"name": "Ciiraaley", "pcode": "NA-3704-K28-003", "place": "village", "source": "UNDP - 2006"}}, {"type": "node", "id": 1404231743, "lat": 3.63088, "lon": 41.71228, "tags": {"name": "Hananley", "pcode": "NA-3704-J27-001", "place": "village", "source": "UNDP - 2006"}}, {"type": "node", "id": 1404233115, "lat": 3.72859, "lon": 41.74322, "tags": {"name": "Dhabaney", "pcode": "NA-3704-G28-001", "place": "village", "source": "UNDP - 2006"}}, {"type": "node", "id": 1404233150, "lat": 3.79993, "lon": 41.81952, "tags": {"name": "Haykacad", "pcode": "NA-3704-E30-001", "place": "village", "source": "UNDP - 2006"}}, {"type": "node", "id": 1404233267, "lat": 3.68174, "lon": 41.82231, "tags": {"name": "Xaydibi", "pcode": "NA-3704-H30-001", "place": "village", "source": "UNDP - 2006"}}]}