{"version": 0.6, "generator": "Overpass API 0.7.62.4 2390de5a", "osm3s": {"timestamp_osm_base": "2024-12-13T10:05:30Z", "copyright": "The data included in this document is from www.openstreetmap.org. The data is made available under ODbL."}, "elements": [{"type": "node", "id": 319311022, "lat": 7.2438769, "lon": 37.9049922, "tags": {"name": "\u12f1\u122b\u121c / Durame", "name:am": "\u12f1\u122b\u121c", "name:en": "Durame", "name:fr": "Durame", "note": "Translation source: http://translator.abyssinica.com/.", "place": "town", "source": "landsat", "wikidata": "Q3041503"}}, {"type": "node", "id": 1149030682, "lat": 7.18819, "lon": 37.9548, "tags": {"name": "Mazoriya", "place": "village", "source": "300TDI"}}, {"type": "node", "id": 1150882636, "lat": 7.31667, "lon": 37.75, "tags": {"is_in:country": "Ethiopia", "is_in:country_code": "ET", "name": "Kufena Bota", "place": "locality", "source": "GeoDatabase"}}, {"type": "node", "id": 1150883174, "lat": 7.23333, "lon": 37.58333, "tags": {"is_in:country": "Ethiopia", "is_in:country_code": "ET", "name": "Maissai", "place": "locality", "source": "GeoDatabase"}}, {"type": "node", "id": 1150883828, "lat": 7.45, "lon": 37.83333, "tags": {"is_in:country": "Ethiopia", "is_in:country_code": "ET", "name": "Marduncho Bota", "place": "locality", "source": "GeoDatabase"}}, {"type": "node", "id": 1150885819, "lat": 7.36667, "lon": 37.78333, "tags": {"is_in:country": "Ethiopia", "is_in:country_code": "ET", "name": "Wagebesa Bota", "place": "locality", "source": "GeoDatabase"}}, {"type": "node", "id": 1150885974, "lat": 7.35, "lon": 37.88333, "tags": {"is_in:country": "Ethiopia", "is_in:country_code": "ET", "name": "Omeshera Bota", "place": "locality", "source": "GeoDatabase"}}, {"type": "node", "id": 1150889723, "lat": 7.28333, "lon": 37.81666, "tags": {"is_in:country": "Ethiopia", "is_in:country_code": "ET", "name": "Uotanna", "place": "locality", "source": "GeoDatabase"}}, {"type": "node", "id": 1150890126, "lat": 7.16667, "lon": 37.75, "tags": {"is_in:country": "Ethiopia", "is_in:country_code": "ET", "name": "Deneba Bota", "place": "locality", "source": "GeoDatabase"}}, {"type": "node", "id": 1150896414, "lat": 7.23333, "lon": 37.7, "tags": {"is_in:country": "Ethiopia", "is_in:country_code": "ET", "name": "Hololamo Bota", "place": "locality", "source": "GeoDatabase"}}, {"type": "node", "id": 1150897770, "lat": 7.1964404, "lon": 37.6639481, "tags": {"name": "Hadero", "place": "town", "source": "GeoDatabase"}}, {"type": "node", "id": 1150902171, "lat": 7.2, "lon": 37.53333, "tags": {"is_in:country": "Ethiopia", "is_in:country_code": "ET", "name": "Tambaro", "place": "locality", "source": "GeoDatabase"}}, {"type": "node", "id": 1150907468, "lat": 7.26667, "lon": 37.66667, "tags": {"is_in:country": "Ethiopia", "is_in:country_code": "ET", "name": "Turduna Terara", "place": "locality", "source": "GeoDatabase"}}, {"type": "node", "id": 1150909566, "lat": 7.33333, "lon": 37.9, "tags": {"is_in:country": "Ethiopia", "is_in:country_code": "ET", "name": "Funt'O", "place": "locality", "source": "GeoDatabase"}}, {"type": "node", "id": 1150912518, "lat": 7.38333, "lon": 38.0, "tags": {"is_in:country": "Ethiopia", "is_in:country_code": "ET", "name": "Megeri Kidane Mihret Bete", "place": "locality", "source": "GeoDatabase"}}, {"type": "node", "id": 1150918642, "lat": 7.33333, "lon": 37.83333, "tags": {"is_in:country": "Ethiopia", "is_in:country_code": "ET", "name": "Monti Cambatta", "place": "locality", "source": "GeoDatabase"}}, {"type": "node", "id": 1150933835, "lat": 7.25, "lon": 37.86667, "tags": {"is_in:country": "Ethiopia", "is_in:country_code": "ET", "name": "Ambericho Bota", "place": "locality", "source": "GeoDatabase"}}, {"type": "node", "id": 1150939595, "lat": 7.18333, "lon": 37.58333, "tags": {"is_in:country": "Ethiopia", "is_in:country_code": "ET", "name": "Godiccio", "place": "locality", "source": "GeoDatabase"}}, {"type": "node", "id": 1150946501, "lat": 7.23333, "lon": 37.73333, "tags": {"is_in:country": "Ethiopia", "is_in:country_code": "ET", "name": "Mino", "place": "locality", "source": "GeoDatabase"}}, {"type": "node", "id": 1150949601, "lat": 7.23333, "lon": 37.95, "tags": {"is_in:country": "Ethiopia", "is_in:country_code": "ET", "name": "T'Eza Bota", "place": "locality", "source": "GeoDatabase"}}, {"type": "node", "id": 1150956650, "lat": 7.41667, "lon": 37.85, "tags": {"is_in:country": "Ethiopia", "is_in:country_code": "ET", "name": "Gueramo Uatara", "place": "locality", "source": "GeoDatabase"}}, {"type": "node", "id": 1150958514, "lat": 7.2, "lon": 37.75, "tags": {"is_in:country": "Ethiopia", "is_in:country_code": "ET", "name": "Maddine", "place": "locality", "source": "GeoDatabase"}}, {"type": "node", "id": 1150960672, "lat": 7.3489865, "lon": 37.8627044, "tags": {"name": "\u12a0\u1295\u130b\u132b Angacha", "name:en": "Angacha", "name:fr": "Angacha", "place": "town", "source": "GeoDatabase"}}, {"type": "node", "id": 1150972295, "lat": 7.43333, "lon": 37.88333, "tags": {"is_in:country": "Ethiopia", "is_in:country_code": "ET", "name": "Uatara", "place": "locality", "source": "GeoDatabase"}}, {"type": "node", "id": 1150972509, "lat": 7.15, "lon": 37.7, "tags": {"is_in:country": "Ethiopia", "is_in:country_code": "ET", "name": "Villagio Bottego", "place": "locality", "source": "GeoDatabase"}}, {"type": "node", "id": 1151002339, "lat": 7.25, "lon": 37.53333, "tags": {"is_in:country": "Ethiopia", "is_in:country_code": "ET", "name": "Osciot", "place": "locality", "source": "GeoDatabase"}}, {"type": "node", "id": 1151003437, "lat": 7.21667, "lon": 37.63333, "tags": {"is_in:country": "Ethiopia", "is_in:country_code": "ET", "name": "Mugunja", "place": "locality", "source": "GeoDatabase"}}, {"type": "node", "id": 1234353232, "lat": 7.3530559, "lon": 37.7830839, "tags": {"alt_name": "Doyo Gena", "name": "Doyogena", "place": "town", "wikidata": "Q116504901"}}, {"type": "node", "id": 1234353482, "lat": 7.3074535, "lon": 37.7895684, "tags": {"name": "Serera", "place": "town"}}, {"type": "node", "id": 1234353568, "lat": 7.1867949, "lon": 37.7149903, "tags": {"name": "Masora", "place": "village"}}, {"type": "node", "id": 1234353601, "lat": 7.4301319, "lon": 37.8150524, "tags": {"name": "Mare", "place": "town"}}, {"type": "node", "id": 1234353749, "lat": 7.2849723, "lon": 37.7480263, "tags": {"name": "Hobicheba", "place": "town"}}, {"type": "node", "id": 2282596817, "lat": 7.3455237, "lon": 37.9513135, "tags": {"name": "Denboya", "place": "town", "population": "20000"}}, {"type": "node", "id": 3370921999, "lat": 7.4030076, "lon": 37.8509212, "tags": {"place": "village"}}, {"type": "node", "id": 3371004654, "lat": 7.2061627, "lon": 37.7768912, "tags": {"name": "\u123a\u1295\u123a\u127e/ Shinshicho", "name:am": "\u123a\u1295\u123a\u127e", "name:en": "Shinshicho", "name:fr": "Shinshicho", "place": "town", "wikidata": "Q3482296"}}, {"type": "node", "id": 4614142578, "lat": 7.2117438, "lon": 37.9834336, "tags": {"name": "Adilo", "place": "village"}}, {"type": "node", "id": 11716457187, "lat": 7.1564074, "lon": 37.7003923, "tags": {"name": "Achura", "name:wal": "Achuura", "place": "town"}}]}