{"version": 0.6, "generator": "Overpass API 0.7.62.4 2390de5a", "osm3s": {"timestamp_osm_base": "2024-12-11T09:21:15Z", "copyright": "The data included in this document is from www.openstreetmap.org. The data is made available under ODbL."}, "elements": [{"type": "node", "id": 1150883397, "lat": 10.7, "lon": 40.0, "tags": {"is_in:country": "Ethiopia", "is_in:country_code": "ET", "name": "Dodota", "place": "locality", "source": "GeoDatabase"}}, {"type": "node", "id": 1150892008, "lat": 10.55, "lon": 40.0, "tags": {"is_in:country": "Ethiopia", "is_in:country_code": "ET", "name": "Shonke", "place": "locality", "source": "GeoDatabase"}}, {"type": "node", "id": 1150897413, "lat": 10.71667, "lon": 39.96667, "tags": {"is_in:country": "Ethiopia", "is_in:country_code": "ET", "name": "Dugudu", "place": "locality", "source": "GeoDatabase"}}, {"type": "node", "id": 1150903221, "lat": 10.73333, "lon": 40.0, "tags": {"is_in:country": "Ethiopia", "is_in:country_code": "ET", "name": "Gurarsa", "place": "locality", "source": "GeoDatabase"}}, {"type": "node", "id": 1150903439, "lat": 10.51667, "lon": 39.95, "tags": {"is_in:country": "Ethiopia", "is_in:country_code": "ET", "name": "Jara", "place": "locality", "source": "GeoDatabase"}}, {"type": "node", "id": 1150921593, "lat": 10.58333, "lon": 40.0, "tags": {"is_in:country": "Ethiopia", "is_in:country_code": "ET", "name": "Jorit", "place": "locality", "source": "GeoDatabase"}}, {"type": "node", "id": 1150926631, "lat": 10.46667, "lon": 39.96667, "tags": {"is_in:country": "Ethiopia", "is_in:country_code": "ET", "name": "Derensa", "place": "locality", "source": "GeoDatabase"}}, {"type": "node", "id": 1150928325, "lat": 10.66667, "lon": 40.03333, "tags": {"is_in:country": "Ethiopia", "is_in:country_code": "ET", "name": "Gora", "place": "locality", "source": "GeoDatabase"}}, {"type": "node", "id": 1150944005, "lat": 10.51667, "lon": 39.96667, "tags": {"is_in:country": "Ethiopia", "is_in:country_code": "ET", "name": "Degaga", "place": "locality", "source": "GeoDatabase"}}, {"type": "node", "id": 1150958059, "lat": 10.73333, "lon": 40.05, "tags": {"is_in:country": "Ethiopia", "is_in:country_code": "ET", "name": "Bora", "place": "locality", "source": "GeoDatabase"}}, {"type": "node", "id": 1150963504, "lat": 10.5854176, "lon": 40.018712, "tags": {"is_in:country": "Ethiopia", "is_in:country_code": "ET", "name": "Art'Uma", "place": "locality", "source": "GeoDatabase"}}, {"type": "node", "id": 1150974817, "lat": 10.48333, "lon": 40.01667, "tags": {"is_in:country": "Ethiopia", "is_in:country_code": "ET", "name": "Urse", "place": "locality", "source": "GeoDatabase"}}, {"type": "node", "id": 2206470636, "lat": 10.685396, "lon": 40.043543, "tags": {"name": "Borajo", "place": "village"}}, {"type": "node", "id": 2461402422, "lat": 10.4694745, "lon": 39.9841939, "tags": {"place": "village"}}, {"type": "node", "id": 2461402426, "lat": 10.4797797, "lon": 40.0391307, "tags": {"place": "village"}}, {"type": "node", "id": 3258255797, "lat": 10.6184471, "lon": 39.9729439, "tags": {"place": "village"}}, {"type": "node", "id": 3258255856, "lat": 10.6345387, "lon": 39.9846342, "tags": {"place": "hamlet"}}, {"type": "node", "id": 3258255857, "lat": 10.6709851, "lon": 39.9900082, "tags": {"place": "hamlet"}}, {"type": "node", "id": 3258255858, "lat": 10.6923422, "lon": 39.9816604, "tags": {"place": "hamlet"}}, {"type": "node", "id": 3258255859, "lat": 10.7039655, "lon": 39.9800513, "tags": {"place": "hamlet"}}, {"type": "node", "id": 3258258182, "lat": 10.7225898, "lon": 39.9676519, "tags": {"place": "hamlet"}}, {"type": "node", "id": 3258267172, "lat": 10.7367636, "lon": 39.9914635, "tags": {"place": "hamlet"}}, {"type": "node", "id": 3258271342, "lat": 10.6026499, "lon": 40.1048183, "tags": {"place": "hamlet"}}, {"type": "node", "id": 3258271343, "lat": 10.5916519, "lon": 40.0421415, "tags": {"place": "hamlet"}}, {"type": "node", "id": 3258271344, "lat": 10.5749305, "lon": 40.011666, "tags": {"place": "hamlet"}}]}