{"version": 0.6, "generator": "Overpass API 0.7.62.4 2390de5a", "osm3s": {"timestamp_osm_base": "2024-12-10T21:59:30Z", "copyright": "The data included in this document is from www.openstreetmap.org. The data is made available under ODbL."}, "elements": [{"type": "node", "id": 1404221582, "lat": 2.06726, "lon": 42.225431, "tags": {"name": "Baarta Faniyo", "pcode": "NA-3805-Y05-002", "place": "village", "source": "UNDP - 1997"}}, {"type": "node", "id": 1404221607, "lat": 1.9430841, "lon": 42.2701154, "tags": {"name": "Gaaguure", "pcode": "NA-3809-B06-002", "place": "village", "source": "UNDP - 2006, UNDP - 1997"}}, {"type": "node", "id": 1404221846, "lat": 2.09558, "lon": 42.244171, "tags": {"name": "Abaayle", "pcode": "NA-3805-X06-001", "place": "village", "source": "UNDP - 1997"}}, {"type": "node", "id": 1404221905, "lat": 2.00487, "lon": 42.170448, "tags": {"name": "Waaba", "pcode": "NA-3805-Z04-001", "place": "locality", "source": "UNDP - 1997"}}, {"type": "node", "id": 1404223600, "lat": 1.99401, "lon": 42.24715, "tags": {"name": "Qasalow", "pcode": "NA-3809-A06-006", "place": "village", "source": "UNDP - 1997"}}, {"type": "node", "id": 1404224622, "lat": 2.063041, "lon": 42.2110091, "tags": {"name": "Madhakali", "pcode": "NA-3805-Y05-001", "place": "village", "source": "UNDP - 2006, UNDP - 1997"}}, {"type": "node", "id": 1404225003, "lat": 1.97811, "lon": 42.228088, "tags": {"name": "Arosurre", "pcode": "NA-3809-A06-003", "place": "village", "source": "UNDP - 1997"}}, {"type": "node", "id": 1404225733, "lat": 1.91978, "lon": 42.26479, "tags": {"name": "Daanyeere", "pcode": "NA-3809-B06-001", "place": "locality", "source": "UNDP - 1997"}}, {"type": "node", "id": 1404225946, "lat": 2.10591, "lon": 42.259258, "tags": {"name": "Baarta Faanye", "pcode": "NA-3805-X06-003", "place": "village", "source": "UNDP - 1997"}}, {"type": "node", "id": 1404229817, "lat": 2.103538, "lon": 42.257802, "tags": {"name": "Mal Malkuus", "pcode": "NA-3805-X06-002", "place": "locality", "source": "UNDP - 2006"}}, {"type": "node", "id": 1404230540, "lat": 2.05415, "lon": 42.269402, "tags": {"name": "Hilfato", "pcode": "NA-3805-Y06-001", "place": "isolated_dwelling", "source": "UNDP - 1997"}}, {"type": "node", "id": 1404233788, "lat": 1.6714, "lon": 41.978901, "tags": {"name": "Ghesso", "pcode": "NA-3712-H33-001", "place": "village", "source": "UNDP - 1997"}}, {"type": "node", "id": 11173904597, "lat": 1.8556837, "lon": 42.2547322, "tags": {"place": "hamlet"}}, {"type": "node", "id": 11174493669, "lat": 1.8934182, "lon": 42.2582084, "tags": {"place": "hamlet"}}, {"type": "node", "id": 11174493867, "lat": 1.878666, "lon": 42.2810635, "tags": {"place": "hamlet"}}, {"type": "node", "id": 11176466520, "lat": 1.9900885, "lon": 42.2511327, "tags": {"place": "village"}}, {"type": "node", "id": 11766000004, "lat": 2.0268819, "lon": 42.2624195, "tags": {"place": "hamlet"}}]}