{"version": 0.6, "generator": "Overpass API 0.7.62.4 2390de5a", "osm3s": {"timestamp_osm_base": "2024-12-11T09:21:15Z", "copyright": "The data included in this document is from www.openstreetmap.org. The data is made available under ODbL."}, "elements": [{"type": "node", "id": 1150883192, "lat": 11.01667, "lon": 40.05, "tags": {"is_in:country": "Ethiopia", "is_in:country_code": "ET", "name": "Kedar Amba", "place": "locality", "source": "GeoDatabase"}}, {"type": "node", "id": 1150884312, "lat": 10.83333, "lon": 40.16667, "tags": {"is_in:country": "Ethiopia", "is_in:country_code": "ET", "name": "Dewe", "place": "locality", "source": "GeoDatabase"}}, {"type": "node", "id": 1150884726, "lat": 10.9, "lon": 40.03333, "tags": {"is_in:country": "Ethiopia", "is_in:country_code": "ET", "name": "Senk'Ele", "place": "locality", "source": "GeoDatabase"}}, {"type": "node", "id": 1150886937, "lat": 10.93333, "lon": 40.05, "tags": {"is_in:country": "Ethiopia", "is_in:country_code": "ET", "name": "Ch'Obi", "place": "locality", "source": "GeoDatabase"}}, {"type": "node", "id": 1150887402, "lat": 11.01667, "lon": 40.1, "tags": {"is_in:country": "Ethiopia", "is_in:country_code": "ET", "name": "Harengema", "place": "locality", "source": "GeoDatabase"}}, {"type": "node", "id": 1150887846, "lat": 10.95, "lon": 40.03333, "tags": {"is_in:country": "Ethiopia", "is_in:country_code": "ET", "name": "Gerbi Shet'", "place": "locality", "source": "GeoDatabase"}}, {"type": "node", "id": 1150888302, "lat": 11.01667, "lon": 40.0, "tags": {"is_in:country": "Ethiopia", "is_in:country_code": "ET", "name": "K'Ilt'U Shet'", "place": "locality", "source": "GeoDatabase"}}, {"type": "node", "id": 1150890008, "lat": 10.91667, "lon": 39.96667, "tags": {"is_in:country": "Ethiopia", "is_in:country_code": "ET", "name": "T'Et'Esa Shet'", "place": "locality", "source": "GeoDatabase"}}, {"type": "node", "id": 1150894590, "lat": 11.0, "lon": 39.96667, "tags": {"is_in:country": "Ethiopia", "is_in:country_code": "ET", "name": "Misa Halk'A", "place": "locality", "source": "GeoDatabase"}}, {"type": "node", "id": 1150896802, "lat": 10.85, "lon": 39.95, "tags": {"is_in:country": "Ethiopia", "is_in:country_code": "ET", "name": "Nifas T'Emany", "place": "locality", "source": "GeoDatabase"}}, {"type": "node", "id": 1150897524, "lat": 11.01667, "lon": 40.06666, "tags": {"is_in:country": "Ethiopia", "is_in:country_code": "ET", "name": "Agemti", "place": "locality", "source": "GeoDatabase"}}, {"type": "node", "id": 1150898347, "lat": 10.98333, "lon": 40.0, "tags": {"is_in:country": "Ethiopia", "is_in:country_code": "ET", "name": "Sert'E", "place": "locality", "source": "GeoDatabase"}}, {"type": "node", "id": 1150900905, "lat": 10.83333, "lon": 40.0, "tags": {"is_in:country": "Ethiopia", "is_in:country_code": "ET", "name": "K'Alu Awraja", "place": "locality", "source": "GeoDatabase"}}, {"type": "node", "id": 1150906738, "lat": 10.86667, "lon": 40.06666, "tags": {"is_in:country": "Ethiopia", "is_in:country_code": "ET", "name": "Borkena Shet'", "place": "locality", "source": "GeoDatabase"}}, {"type": "node", "id": 1150911911, "lat": 11.0, "lon": 40.03333, "tags": {"is_in:country": "Ethiopia", "is_in:country_code": "ET", "name": "Duk'Ifeta Shet'", "place": "locality", "source": "GeoDatabase"}}, {"type": "node", "id": 1150912584, "lat": 11.03333, "lon": 40.11667, "tags": {"is_in:country": "Ethiopia", "is_in:country_code": "ET", "name": "Dameto", "place": "locality", "source": "GeoDatabase"}}, {"type": "node", "id": 1150915855, "lat": 11.08333, "lon": 40.01667, "tags": {"is_in:country": "Ethiopia", "is_in:country_code": "ET", "name": "Gafra", "place": "locality", "source": "GeoDatabase"}}, {"type": "node", "id": 1150923482, "lat": 10.86667, "lon": 40.1, "tags": {"is_in:country": "Ethiopia", "is_in:country_code": "ET", "name": "Wach'U Shet'", "place": "locality", "source": "GeoDatabase"}}, {"type": "node", "id": 1150927619, "lat": 10.8312681, "lon": 39.9840503, "tags": {"is_in:country": "Ethiopia", "is_in:country_code": "ET", "name": "Wach'U", "place": "locality", "source": "GeoDatabase"}}, {"type": "node", "id": 1150930934, "lat": 10.96667, "lon": 40.01667, "tags": {"is_in:country": "Ethiopia", "is_in:country_code": "ET", "name": "K'Ent'Efa", "place": "locality", "source": "GeoDatabase"}}, {"type": "node", "id": 1150937283, "lat": 10.91667, "lon": 40.0, "tags": {"is_in:country": "Ethiopia", "is_in:country_code": "ET", "name": "Medina", "place": "locality", "source": "GeoDatabase"}}, {"type": "node", "id": 1150942867, "lat": 10.76667, "lon": 40.0, "tags": {"is_in:country": "Ethiopia", "is_in:country_code": "ET", "name": "Shahilo", "place": "locality", "source": "GeoDatabase"}}, {"type": "node", "id": 1150954249, "lat": 10.96667, "lon": 40.06666, "tags": {"is_in:country": "Ethiopia", "is_in:country_code": "ET", "name": "Shawilo Shet'", "place": "locality", "source": "GeoDatabase"}}, {"type": "node", "id": 1150956353, "lat": 11.01667, "lon": 40.15, "tags": {"is_in:country": "Ethiopia", "is_in:country_code": "ET", "name": "Ara", "place": "locality", "source": "GeoDatabase"}}, {"type": "node", "id": 1150958954, "lat": 10.95, "lon": 40.0, "tags": {"is_in:country": "Ethiopia", "is_in:country_code": "ET", "name": "Afeso", "place": "locality", "source": "GeoDatabase"}}, {"type": "node", "id": 1150963768, "lat": 10.9, "lon": 40.05, "tags": {"is_in:country": "Ethiopia", "is_in:country_code": "ET", "name": "Meyit'I", "place": "locality", "source": "GeoDatabase"}}, {"type": "node", "id": 1150967738, "lat": 10.93333, "lon": 40.1, "tags": {"is_in:country": "Ethiopia", "is_in:country_code": "ET", "name": "Aro", "place": "locality", "source": "GeoDatabase"}}, {"type": "node", "id": 1150969663, "lat": 11.0, "lon": 40.01667, "tags": {"is_in:country": "Ethiopia", "is_in:country_code": "ET", "name": "Misa Halk'A Shet'", "place": "locality", "source": "GeoDatabase"}}, {"type": "node", "id": 1150972388, "lat": 10.88333, "lon": 39.96667, "tags": {"is_in:country": "Ethiopia", "is_in:country_code": "ET", "name": "Setewa", "place": "locality", "source": "GeoDatabase"}}, {"type": "node", "id": 1150972938, "lat": 11.08333, "lon": 40.06666, "tags": {"is_in:country": "Ethiopia", "is_in:country_code": "ET", "name": "Bifeta", "place": "locality", "source": "GeoDatabase"}}, {"type": "node", "id": 1150981252, "lat": 10.95, "lon": 39.96667, "tags": {"is_in:country": "Ethiopia", "is_in:country_code": "ET", "name": "T'Ebisa", "place": "locality", "source": "GeoDatabase"}}, {"type": "node", "id": 1150982330, "lat": 10.95, "lon": 40.16667, "tags": {"is_in:country": "Ethiopia", "is_in:country_code": "ET", "name": "Gerbo Shet'", "place": "locality", "source": "GeoDatabase"}}, {"type": "node", "id": 1151004307, "lat": 10.81667, "lon": 40.13333, "tags": {"is_in:country": "Ethiopia", "is_in:country_code": "ET", "name": "Dewe Shet'", "place": "locality", "source": "GeoDatabase"}}, {"type": "node", "id": 3258258614, "lat": 10.9194593, "lon": 40.0244486, "tags": {"place": "village"}}, {"type": "node", "id": 3258258615, "lat": 10.9056303, "lon": 40.0268072, "tags": {"place": "hamlet"}}, {"type": "node", "id": 3258258618, "lat": 10.8824515, "lon": 40.0114235, "tags": {"place": "hamlet"}}, {"type": "node", "id": 3258258621, "lat": 10.881701, "lon": 40.0027234, "tags": {"place": "hamlet"}}, {"type": "node", "id": 3258258631, "lat": 10.8626328, "lon": 39.9964463, "tags": {"place": "hamlet"}}, {"type": "node", "id": 3258258632, "lat": 10.8600935, "lon": 40.0032275, "tags": {"place": "hamlet"}}, {"type": "node", "id": 3258258633, "lat": 10.8649805, "lon": 39.9831929, "tags": {"place": "hamlet"}}, {"type": "node", "id": 3258258634, "lat": 10.8655554, "lon": 39.9859736, "tags": {"place": "hamlet"}}, {"type": "node", "id": 3258258635, "lat": 10.8526351, "lon": 39.9705899, "tags": {"place": "hamlet"}}, {"type": "node", "id": 3258266837, "lat": 10.8389078, "lon": 39.9760359, "tags": {"place": "hamlet"}}, {"type": "node", "id": 3258266838, "lat": 10.8164201, "lon": 39.9860459, "tags": {"place": "hamlet"}}, {"type": "node", "id": 3258266839, "lat": 10.8066826, "lon": 40.0186615, "tags": {"place": "hamlet"}}, {"type": "node", "id": 3258266840, "lat": 10.8015819, "lon": 40.0020104, "tags": {"place": "village"}}, {"type": "node", "id": 3258267170, "lat": 10.7869086, "lon": 39.9954967, "tags": {"place": "hamlet"}}, {"type": "node", "id": 3258267171, "lat": 10.7733477, "lon": 39.9729313, "tags": {"place": "hamlet"}}, {"type": "node", "id": 3368565324, "lat": 11.0089329, "lon": 40.1121651, "tags": {"place": "hamlet"}}, {"type": "node", "id": 3368565328, "lat": 10.98863, "lon": 40.073674, "tags": {"place": "hamlet"}}, {"type": "node", "id": 3368565374, "lat": 11.0261029, "lon": 40.0733677, "tags": {"place": "hamlet"}}, {"type": "node", "id": 3368565375, "lat": 11.0254484, "lon": 40.0690583, "tags": {"place": "hamlet"}}, {"type": "node", "id": 3368565377, "lat": 10.9908165, "lon": 39.9464231, "tags": {"place": "hamlet"}}, {"type": "node", "id": 3370436889, "lat": 11.0410245, "lon": 40.122264, "tags": {"place": "hamlet"}}, {"type": "node", "id": 3370445412, "lat": 11.0534746, "lon": 40.1058347, "tags": {"place": "hamlet"}}, {"type": "node", "id": 3370445413, "lat": 11.0281243, "lon": 40.1402445, "tags": {"place": "hamlet"}}, {"type": "node", "id": 3370445429, "lat": 11.0453615, "lon": 40.0648783, "tags": {"place": "hamlet"}}]}