{"version": 0.6, "generator": "Overpass API 0.7.62.4 2390de5a", "osm3s": {"timestamp_osm_base": "2025-02-01T22:35:01Z", "copyright": "The data included in this document is from www.openstreetmap.org. The data is made available under ODbL."}, "elements": [{"type": "node", "id": 44926967, "lat": 0.2166, "lon": 37.8, "tags": {"name": "Muthara", "place": "village", "wikidata": "Q6943825"}}, {"type": "node", "id": 44927794, "lat": 0.123276, "lon": 37.834493, "tags": {"is_in": "Meru,Kenya", "name": "Mikinduri", "place": "village", "wikidata": "Q6849887"}}, {"type": "node", "id": 44931657, "lat": 0.3377545, "lon": 37.938158, "tags": {"is_in": "Meru,Kenya", "name": "Lare", "place": "town"}}, {"type": "node", "id": 44996165, "lat": 0.1666, "lon": 37.75, "tags": {"created_by": "JOSM", "is_in": "Meru,Kenya", "name": "Kianjai", "place": "village"}}, {"type": "node", "id": 44996175, "lat": 0.1666, "lon": 37.75, "tags": {"created_by": "JOSM", "is_in": "Meru,Kenya", "name": "Kianiai", "place": "village"}}, {"type": "node", "id": 44997774, "lat": 0.2833, "lon": 37.8833, "tags": {"name": "Kangeta", "place": "village", "wikidata": "Q15045691"}}, {"type": "node", "id": 44998693, "lat": 0.248695, "lon": 37.925878, "tags": {"name": "Kaathene", "place": "village", "wikidata": "Q15045683"}}, {"type": "node", "id": 45000339, "lat": 0.1, "lon": 38.0166, "tags": {"name": "Gatunga", "place": "village"}}, {"type": "node", "id": 2187769641, "lat": 0.2449954, "lon": 37.9078732, "tags": {"name": "Kiegoi", "place": "village"}}, {"type": "node", "id": 2187769642, "lat": 0.1705378, "lon": 37.9214774, "tags": {"name": "Athi", "place": "village"}}, {"type": "node", "id": 2193150320, "lat": 0.1334053, "lon": 37.8708859, "tags": {"name": "Ankamia", "place": "village"}}, {"type": "node", "id": 2193168821, "lat": 0.1473527, "lon": 37.8559709, "tags": {"name": "Kigochwa", "place": "village"}}, {"type": "node", "id": 2193169890, "lat": 0.1115614, "lon": 37.8682447, "tags": {"name": "Akaiga", "place": "village"}}, {"type": "node", "id": 2193170920, "lat": 0.105682, "lon": 37.8945947, "tags": {"name": "Kaathi", "place": "village"}}]}