{"version": 0.6, "generator": "Overpass API 0.7.62.4 2390de5a", "osm3s": {"timestamp_osm_base": "2025-02-01T22:35:01Z", "copyright": "The data included in this document is from www.openstreetmap.org. The data is made available under ODbL."}, "elements": [{"type": "node", "id": 44929223, "lat": 1.0666, "lon": 38.6666, "tags": {"is_in": "Isiolo,Kenya", "name": "Merti", "place": "village", "wikidata": "Q85784997", "wikipedia:en": "Merti, Kenya"}}, {"type": "node", "id": 1938467961, "lat": 1.1787184, "lon": 38.6025801, "tags": {"capital": "Embu", "is_in": "Kenya", "name": "Eastern", "name:de": "Ost", "place": "state", "population": "5500000", "wikidata": "Q328493", "wikipedia": "en:Eastern Province (Kenya)"}}, {"type": "node", "id": 4635105803, "lat": 1.1169735, "lon": 38.6968522}, {"type": "node", "id": 4635105804, "lat": 1.1143937, "lon": 38.6941807}, {"type": "node", "id": 4635105805, "lat": 1.1127632, "lon": 38.693022}, {"type": "node", "id": 4635105806, "lat": 1.1113151, "lon": 38.6939286}, {"type": "node", "id": 4635105807, "lat": 1.112436, "lon": 38.6954199}, {"type": "node", "id": 4635105808, "lat": 1.1152518, "lon": 38.697453}, {"type": "node", "id": 4635105809, "lat": 1.1163084, "lon": 38.6977695}, {"type": "node", "id": 11190052270, "lat": 1.1115959, "lon": 38.694824}, {"type": "node", "id": 11190052271, "lat": 1.112025, "lon": 38.6928499}, {"type": "node", "id": 12441987096, "lat": 0.9616899, "lon": 38.6330446, "tags": {"name": "Muchuro", "place": "village"}}, {"type": "node", "id": 12442158633, "lat": 1.1564526, "lon": 38.7069073, "tags": {"name": "Mata Arba", "place": "hamlet"}}, {"type": "node", "id": 12442158644, "lat": 1.1927772, "lon": 38.7528406, "tags": {"name": "Saleti", "place": "hamlet"}}, {"type": "node", "id": 12443443047, "lat": 1.2119346, "lon": 38.7888149, "tags": {"name": "Korbesa", "place": "village"}}, {"type": "node", "id": 12539194652, "lat": 1.1132201, "lon": 38.98258, "tags": {"name": "Badana", "place": "village"}}, {"type": "node", "id": 12539194653, "lat": 1.0792033, "lon": 38.838846, "tags": {"name": "Ireasaboru", "place": "village"}}, {"type": "way", "id": 469109450, "nodes": [4635105809, 4635105808, 4635105807, 11190052270, 4635105806, 11190052271, 4635105805, 4635105804, 4635105803, 4635105809], "tags": {"landuse": "residential", "place": "hamlet", "residential": "rural"}}]}