{"version": 0.6, "generator": "Overpass API 0.7.62.4 2390de5a", "osm3s": {"timestamp_osm_base": "2024-12-10T21:59:30Z", "copyright": "The data included in this document is from www.openstreetmap.org. The data is made available under ODbL."}, "elements": [{"type": "node", "id": 1404221632, "lat": 4.1788, "lon": 42.871399, "tags": {"name": "Reidabal", "pcode": "NB-3813-V20-001", "place": "hamlet", "source": "UNDP - 1997"}}, {"type": "node", "id": 1404221824, "lat": 3.92845, "lon": 43.01765, "tags": {"alt_name": "Bililie", "name": "Biilale", "pcode": "NA-3801-B23-002", "place": "village", "source": "UNDP - 2006, FSAU"}}, {"type": "node", "id": 1404222860, "lat": 4.01778, "lon": 42.81765, "tags": {"name": "Horma Liibaan", "pcode": "NB-3813-Z18-001", "place": "hamlet", "source": "UNDP - 1997"}}, {"type": "node", "id": 1404223169, "lat": 3.9469056, "lon": 43.0318914, "tags": {"name": "Garow", "pcode": "NA-3801-B23-001", "place": "village", "source": "UNDP - 2006, FSAU"}}, {"type": "node", "id": 1404223630, "lat": 3.9611481, "lon": 43.0468292, "tags": {"alt_name": "Batary", "name": "Battery", "pcode": "NA-3801-A24-001", "place": "village", "source": "UNDP - 2006, FSAU"}}, {"type": "node", "id": 1404223843, "lat": 4.2485, "lon": 42.8223, "tags": {"name": "Rahaman", "pcode": "NB-3813-U19-001", "place": "village", "source": "UNDP - 1997"}}, {"type": "node", "id": 1404223893, "lat": 4.05549, "lon": 43.00701, "tags": {"name": "War Adiin", "pcode": "NB-3813-Y23-001", "place": "village", "source": "UNDP - 2006"}}, {"type": "node", "id": 1404224455, "lat": 3.9197, "lon": 42.94631, "tags": {"name": "Masirka", "pcode": "NA-3801-B21-001", "place": "village", "source": "FSAU"}}, {"type": "node", "id": 1404224553, "lat": 4.1302, "lon": 42.748001, "tags": {"name": "El Ghelda", "pcode": "NB-3813-W17-001", "place": "locality", "source": "UNDP - 1997"}}, {"type": "node", "id": 1404225632, "lat": 4.00737, "lon": 42.91823, "tags": {"name": "War Adoy", "pcode": "NB-3813-Z21-001", "place": "village", "source": "FSAU"}}, {"type": "node", "id": 1404225833, "lat": 4.10309, "lon": 42.99123, "tags": {"name": "Mar-Mardoole", "pcode": "NB-3813-X22-001", "place": "village", "source": "UNDP - 2006"}}, {"type": "node", "id": 1404227171, "lat": 4.0398988, "lon": 42.8311093, "tags": {"name": "Ceel Dhooble", "pcode": "NB-3813-Z19-001", "place": "village", "source": "UNDP - 1997"}}, {"type": "node", "id": 1404227278, "lat": 4.02591, "lon": 43.04468, "tags": {"name": "War Caddey", "pcode": "NB-3813-Z23-001", "place": "village", "source": "UNDP - 2006"}}, {"type": "node", "id": 1404229993, "lat": 3.97463, "lon": 42.73165, "tags": {"name": "Karaban", "pcode": "NA-3801-A17-001", "place": "village", "source": "UNDP - 2006"}}, {"type": "node", "id": 1404230071, "lat": 4.2173, "lon": 42.718201, "tags": {"name": "Goriale", "pcode": "NB-3813-U16-001", "place": "village", "source": "UNDP - 1997"}}, {"type": "node", "id": 1404230452, "lat": 4.2296, "lon": 42.921299, "tags": {"name": "Dhigleey", "pcode": "NB-3813-U21-002", "place": "hamlet", "source": "UNDP - 1997"}}, {"type": "node", "id": 1404231371, "lat": 3.9127725, "lon": 43.0067684, "tags": {"alt_name": "Gomoriyal", "name": "Gumarayaale", "pcode": "NA-3801-C23-001", "place": "village", "source": "UNDP - 2006, FSAU"}}, {"type": "node", "id": 1404232387, "lat": 4.01256, "lon": 43.02156, "tags": {"name": "Buulo Shariif", "pcode": "NB-3813-Z23-002", "place": "village", "source": "UNDP - 2006"}}, {"type": "node", "id": 1404232646, "lat": 4.01244, "lon": 43.01595, "tags": {"name": "Buulo Jadiid", "pcode": "NB-3813-Z23-003", "place": "village", "source": "UNDP - 2006"}}, {"type": "node", "id": 1404233481, "lat": 3.96901, "lon": 42.97715, "tags": {"name": "Mooyo", "pcode": "NA-3801-A22-001", "place": "village", "source": "UNDP - 1997"}}, {"type": "node", "id": 1404233610, "lat": 3.92725, "lon": 42.81726, "tags": {"name": "Dulmurux", "pcode": "NA-3801-B18-001", "place": "village", "source": "UNDP - 2006, FSAU"}}]}