{"version": 0.6, "generator": "Overpass API 0.7.62.4 2390de5a", "osm3s": {"timestamp_osm_base": "2024-12-11T09:21:15Z", "copyright": "The data included in this document is from www.openstreetmap.org. The data is made available under ODbL."}, "elements": [{"type": "node", "id": 1150881431, "lat": 10.98333, "lon": 39.91667, "tags": {"is_in:country": "Ethiopia", "is_in:country_code": "ET", "name": "Indode", "place": "locality", "source": "GeoDatabase"}}, {"type": "node", "id": 1150885722, "lat": 10.96667, "lon": 39.81666, "tags": {"is_in:country": "Ethiopia", "is_in:country_code": "ET", "name": "Ketema Ager", "place": "locality", "source": "GeoDatabase"}}, {"type": "node", "id": 1150886626, "lat": 10.88333, "lon": 39.78333, "tags": {"is_in:country": "Ethiopia", "is_in:country_code": "ET", "name": "Dirma Shet'", "place": "locality", "source": "GeoDatabase"}}, {"type": "node", "id": 1150887514, "lat": 10.91667, "lon": 39.76667, "tags": {"is_in:country": "Ethiopia", "is_in:country_code": "ET", "name": "Mi'Awa", "place": "locality", "source": "GeoDatabase"}}, {"type": "node", "id": 1150887829, "lat": 10.86667, "lon": 39.75, "tags": {"is_in:country": "Ethiopia", "is_in:country_code": "ET", "name": "Sofchola", "place": "locality", "source": "GeoDatabase"}}, {"type": "node", "id": 1150887969, "lat": 10.8, "lon": 39.81666, "tags": {"is_in:country": "Ethiopia", "is_in:country_code": "ET", "name": "Beteho Shet'", "place": "locality", "source": "GeoDatabase"}}, {"type": "node", "id": 1150889529, "lat": 10.96667, "lon": 39.78333, "tags": {"is_in:country": "Ethiopia", "is_in:country_code": "ET", "name": "Bero", "place": "locality", "source": "GeoDatabase"}}, {"type": "node", "id": 1150891176, "lat": 11.03333, "lon": 39.81666, "tags": {"is_in:country": "Ethiopia", "is_in:country_code": "ET", "name": "Abagolja Ager (1)", "place": "locality", "source": "GeoDatabase"}}, {"type": "node", "id": 1150891219, "lat": 10.83333, "lon": 39.81666, "tags": {"is_in:country": "Ethiopia", "is_in:country_code": "ET", "name": "Ch'Iri Ager (2)", "place": "locality", "source": "GeoDatabase"}}, {"type": "node", "id": 1150893536, "lat": 10.8, "lon": 39.68333, "tags": {"is_in:country": "Ethiopia", "is_in:country_code": "ET", "name": "Tehllo", "place": "locality", "source": "GeoDatabase"}}, {"type": "node", "id": 1150893724, "lat": 10.9234964, "lon": 39.7850037, "tags": {"name": "Harbu", "place": "town"}}, {"type": "node", "id": 1150896071, "lat": 10.88333, "lon": 39.86667, "tags": {"is_in:country": "Ethiopia", "is_in:country_code": "ET", "name": "T'Ank'A", "place": "locality", "source": "GeoDatabase"}}, {"type": "node", "id": 1150896156, "lat": 11.01667, "lon": 39.93333, "tags": {"is_in:country": "Ethiopia", "is_in:country_code": "ET", "name": "Ain Amba", "place": "locality", "source": "GeoDatabase"}}, {"type": "node", "id": 1150899266, "lat": 10.98333, "lon": 39.93333, "tags": {"is_in:country": "Ethiopia", "is_in:country_code": "ET", "name": "Derek Uoira", "place": "locality", "source": "GeoDatabase"}}, {"type": "node", "id": 1150902106, "lat": 11.08333, "lon": 39.83333, "tags": {"is_in:country": "Ethiopia", "is_in:country_code": "ET", "name": "Bidersa", "place": "locality", "source": "GeoDatabase"}}, {"type": "node", "id": 1150909177, "lat": 11.05, "lon": 39.78333, "tags": {"is_in:country": "Ethiopia", "is_in:country_code": "ET", "name": "Curcureta", "place": "locality", "source": "GeoDatabase"}}, {"type": "node", "id": 1150910956, "lat": 10.96667, "lon": 39.83333, "tags": {"is_in:country": "Ethiopia", "is_in:country_code": "ET", "name": "Ahmed", "place": "locality", "source": "GeoDatabase"}}, {"type": "node", "id": 1150912885, "lat": 10.93333, "lon": 39.76667, "tags": {"is_in:country": "Ethiopia", "is_in:country_code": "ET", "name": "Felana Shet'", "place": "locality", "source": "GeoDatabase"}}, {"type": "node", "id": 1150918293, "lat": 11.0, "lon": 39.78333, "tags": {"is_in:country": "Ethiopia", "is_in:country_code": "ET", "name": "Geradu", "place": "locality", "source": "GeoDatabase"}}, {"type": "node", "id": 1150920591, "lat": 11.08333, "lon": 39.78333, "tags": {"is_in:country": "Ethiopia", "is_in:country_code": "ET", "name": "Dima Yeterara Ch'Af", "place": "locality", "source": "GeoDatabase"}}, {"type": "node", "id": 1150920727, "lat": 10.85, "lon": 39.81666, "tags": {"is_in:country": "Ethiopia", "is_in:country_code": "ET", "name": "Ch'Iri Ager", "place": "locality", "source": "GeoDatabase"}}, {"type": "node", "id": 1150924558, "lat": 10.7684513, "lon": 39.8344765, "tags": {"is_in:country": "Ethiopia", "is_in:country_code": "ET", "name": "Jaranio", "place": "village", "source": "GeoDatabase"}}, {"type": "node", "id": 1150924671, "lat": 10.78333, "lon": 39.78333, "tags": {"is_in:country": "Ethiopia", "is_in:country_code": "ET", "name": "Albuco", "place": "locality", "source": "GeoDatabase"}}, {"type": "node", "id": 1150927019, "lat": 10.81667, "lon": 39.93333, "tags": {"is_in:country": "Ethiopia", "is_in:country_code": "ET", "name": "Dot'O", "place": "locality", "source": "GeoDatabase"}}, {"type": "node", "id": 1150927063, "lat": 11.08333, "lon": 39.91667, "tags": {"is_in:country": "Ethiopia", "is_in:country_code": "ET", "name": "Girar Amba", "place": "locality", "source": "GeoDatabase"}}, {"type": "node", "id": 1150930472, "lat": 10.85, "lon": 39.8, "tags": {"is_in:country": "Ethiopia", "is_in:country_code": "ET", "name": "Tulu", "place": "locality", "source": "GeoDatabase"}}, {"type": "node", "id": 1150936122, "lat": 10.88333, "lon": 39.8, "tags": {"is_in:country": "Ethiopia", "is_in:country_code": "ET", "name": "Bedeno", "place": "locality", "source": "GeoDatabase"}}, {"type": "node", "id": 1150940979, "lat": 10.81667, "lon": 39.78333, "tags": {"is_in:country": "Ethiopia", "is_in:country_code": "ET", "name": "Sert'E Shet'", "place": "locality", "source": "GeoDatabase"}}, {"type": "node", "id": 1150954129, "lat": 11.0, "lon": 39.76667, "tags": {"is_in:country": "Ethiopia", "is_in:country_code": "ET", "name": "Ch'Efa", "place": "locality", "source": "GeoDatabase"}}, {"type": "node", "id": 1150960427, "lat": 11.0, "lon": 39.8, "tags": {"is_in:country": "Ethiopia", "is_in:country_code": "ET", "name": "Geta Mesgid", "place": "locality", "source": "GeoDatabase"}}, {"type": "node", "id": 1150962909, "lat": 10.86667, "lon": 39.81666, "tags": {"is_in:country": "Ethiopia", "is_in:country_code": "ET", "name": "K'Oladi", "place": "locality", "source": "GeoDatabase"}}, {"type": "node", "id": 1150967997, "lat": 10.9, "lon": 39.75, "tags": {"is_in:country": "Ethiopia", "is_in:country_code": "ET", "name": "T'Ekake", "place": "locality", "source": "GeoDatabase"}}, {"type": "node", "id": 1150968327, "lat": 10.83333, "lon": 39.73333, "tags": {"is_in:country": "Ethiopia", "is_in:country_code": "ET", "name": "Dabdo", "place": "locality", "source": "GeoDatabase"}}, {"type": "node", "id": 1150969093, "lat": 10.78333, "lon": 39.81666, "tags": {"is_in:country": "Ethiopia", "is_in:country_code": "ET", "name": "Armofa", "place": "locality", "source": "GeoDatabase"}}, {"type": "node", "id": 1150971676, "lat": 10.95, "lon": 39.78333, "tags": {"is_in:country": "Ethiopia", "is_in:country_code": "ET", "name": "K'Ok'Iny", "place": "locality", "source": "GeoDatabase"}}, {"type": "node", "id": 1150973549, "lat": 10.86667, "lon": 39.8, "tags": {"is_in:country": "Ethiopia", "is_in:country_code": "ET", "name": "Shoristu Shet'", "place": "locality", "source": "GeoDatabase"}}, {"type": "node", "id": 1150979879, "lat": 10.9, "lon": 39.8, "tags": {"is_in:country": "Ethiopia", "is_in:country_code": "ET", "name": "Lole", "place": "locality", "source": "GeoDatabase"}}, {"type": "node", "id": 1150982331, "lat": 10.78333, "lon": 39.83333, "tags": {"is_in:country": "Ethiopia", "is_in:country_code": "ET", "name": "Milamile", "place": "locality", "source": "GeoDatabase"}}, {"type": "node", "id": 1151003227, "lat": 10.83333, "lon": 39.8, "tags": {"is_in:country": "Ethiopia", "is_in:country_code": "ET", "name": "Weledi Maryam Bete Kristiyan", "place": "locality", "source": "GeoDatabase"}}, {"type": "node", "id": 3368565378, "lat": 10.9676365, "lon": 39.9104112, "tags": {"place": "hamlet"}}, {"type": "node", "id": 3368565695, "lat": 10.9441541, "lon": 39.795941, "tags": {"place": "hamlet"}}, {"type": "node", "id": 3368565696, "lat": 10.954021, "lon": 39.7975672, "tags": {"place": "hamlet"}}, {"type": "node", "id": 3368565697, "lat": 10.9623549, "lon": 39.8067064, "tags": {"place": "hamlet"}}, {"type": "node", "id": 3368565698, "lat": 10.982614, "lon": 39.8057469, "tags": {"place": "hamlet"}}, {"type": "node", "id": 3368565699, "lat": 10.9780323, "lon": 39.8207729, "tags": {"place": "hamlet"}}, {"type": "node", "id": 3368565700, "lat": 10.9762603, "lon": 39.8339288, "tags": {"place": "village"}}, {"type": "node", "id": 3368565701, "lat": 10.9754141, "lon": 39.8484832, "tags": {"place": "hamlet"}}, {"type": "node", "id": 11565230020, "lat": 10.7963465, "lon": 39.8356591, "tags": {"place": "village"}}, {"type": "node", "id": 11565230138, "lat": 10.7517636, "lon": 39.7925486, "tags": {"place": "village"}}, {"type": "node", "id": 11571138909, "lat": 10.7923478, "lon": 39.8050678, "tags": {"place": "village"}}]}