{"version": 0.6, "generator": "Overpass API 0.7.62.4 2390de5a", "osm3s": {"timestamp_osm_base": "2025-02-01T23:03:44Z", "copyright": "The data included in this document is from www.openstreetmap.org. The data is made available under ODbL."}, "elements": [{"type": "node", "id": 44910566, "lat": -0.75, "lon": 37.3166, "tags": {"name": "Wamumu", "place": "village"}}, {"type": "node", "id": 44914766, "lat": -0.6833, "lon": 37.35, "tags": {"name": "Thiba", "place": "village"}}, {"type": "node", "id": 44917773, "lat": -0.666531, "lon": 37.208151, "tags": {"alt_name": "Thagana", "name": "Sagana", "place": "town", "wikidata": "Q7193402", "wikipedia": "en:Sagana"}}, {"type": "node", "id": 44924287, "lat": -0.6166, "lon": 37.3166, "tags": {"name": "Njega", "place": "village", "wikidata": "Q7042412", "wikipedia": "en:Njega"}}, {"type": "node", "id": 44924375, "lat": -0.6664066, "lon": 37.3167478, "tags": {"name": "Nguka", "place": "village", "wikidata": "Q7022673"}}, {"type": "node", "id": 44924399, "lat": -0.6666, "lon": 37.4166, "tags": {"name": "Nyamindi", "place": "village", "wikidata": "Q7070851"}}, {"type": "node", "id": 44924694, "lat": -0.71661, "lon": 37.433301, "tags": {"name": "Ndindiruku", "place": "village", "wikidata": "Q6983757"}}, {"type": "node", "id": 44925196, "lat": -0.65, "lon": 37.3666, "tags": {"name": "Mwathaini", "place": "village", "wikidata": "Q6944700"}}, {"type": "node", "id": 44926862, "lat": -0.6666013, "lon": 37.3666004, "tags": {"alt_name": "Murabara", "name": "Murubara", "place": "village", "wikidata": "Q6937164"}}, {"type": "node", "id": 44927587, "lat": -0.6334024, "lon": 37.3665516, "tags": {"alt_name": "Mugumoni", "name": "Mugumoini", "place": "village"}}, {"type": "node", "id": 44927961, "lat": -0.615613, "lon": 37.4097979, "tags": {"name": "Miu", "place": "village"}}, {"type": "node", "id": 44929908, "lat": -0.6, "lon": 37.4333, "tags": {"name": "Mathiga", "place": "village", "wikidata": "Q6787244"}}, {"type": "node", "id": 44929914, "lat": -0.65, "lon": 37.3833, "tags": {"name": "Mathigaine", "place": "village"}}, {"type": "node", "id": 44929933, "lat": -0.6410082, "lon": 37.3729837, "tags": {"alt_name": "Mathaguta", "name": "Mathangauta", "place": "village"}}, {"type": "node", "id": 44929993, "lat": -0.6391854, "lon": 37.3759711, "tags": {"name": "Matandara", "place": "village", "wikidata": "Q6786049"}}, {"type": "node", "id": 44930055, "lat": -0.7166, "lon": 37.4333, "tags": {"name": "Marurumo", "place": "village", "wikidata": "Q6777989"}}, {"type": "node", "id": 44930119, "lat": -0.65, "lon": 37.3833, "tags": {"name": "Mahigaini", "place": "village", "wikidata": "Q6733979"}}, {"type": "node", "id": 44931873, "lat": -0.6665913, "lon": 37.3666009, "tags": {"name": "Kirigi", "place": "village"}}, {"type": "node", "id": 44931877, "lat": -0.6666, "lon": 37.3833, "tags": {"name": "Kirigo", "place": "village"}}, {"type": "node", "id": 44931883, "lat": -0.6666, "lon": 37.4, "tags": {"name": "Kiriko", "place": "village"}}, {"type": "node", "id": 44931904, "lat": -0.65, "lon": 37.4, "tags": {"name": "Kirimaine", "place": "village"}}, {"type": "node", "id": 44933222, "lat": -0.6666158, "lon": 37.3166083, "tags": {"name": "Kiuria", "place": "village"}}, {"type": "node", "id": 44933362, "lat": -0.6666, "lon": 37.3833, "tags": {"name": "Kirogo", "place": "village"}}, {"type": "node", "id": 44992152, "lat": -0.6166, "lon": 37.3666, "tags": {"name": "Kimbimbi", "place": "village"}}, {"type": "node", "id": 44992692, "lat": -0.65, "lon": 37.4, "tags": {"name": "Kilimaini", "place": "village"}}, {"type": "node", "id": 44995415, "lat": -0.6, "lon": 37.2666, "tags": {"name": "Kiaga", "place": "village"}}, {"type": "node", "id": 44995730, "lat": -0.6666, "lon": 37.3833, "tags": {"name": "Kiamuchege", "place": "village"}}, {"type": "node", "id": 44995974, "lat": -0.65, "lon": 37.35, "tags": {"alt_name": "Kiarukungu", "name": "Kiarakongo", "place": "village"}}, {"type": "node", "id": 44996458, "lat": -0.7333, "lon": 37.4333, "tags": {"name": "Karaba Special Camp", "place": "village"}}, {"type": "node", "id": 44996525, "lat": -0.6833145, "lon": 37.3337098, "tags": {"name": "Karima", "place": "village"}}, {"type": "node", "id": 44996533, "lat": -0.6333, "lon": 37.1833, "tags": {"name": "Karima", "place": "village"}}, {"type": "node", "id": 44997294, "lat": -0.65, "lon": 37.3, "tags": {"name": "Kameichiri", "place": "village", "wikidata": "Q6356570"}}, {"type": "node", "id": 44997352, "lat": -0.6666, "lon": 37.3833, "tags": {"name": "Kamuchege", "place": "village", "wikidata": "Q6359777"}}, {"type": "node", "id": 44997579, "lat": -0.6333, "lon": 37.2333, "tags": {"name": "Kangaru", "place": "village", "wikidata": "Q6362611"}}, {"type": "node", "id": 44997638, "lat": -0.65, "lon": 37.2833, "tags": {"alt_name": "Kandongu", "name": "Kandongo", "place": "village", "wikidata": "Q15045517"}}, {"type": "node", "id": 44997645, "lat": -0.6166, "lon": 37.3, "tags": {"name": "Kangai", "place": "village", "wikidata": "Q6362400"}}, {"type": "node", "id": 44999909, "lat": -0.6166, "lon": 37.25, "tags": {"name": "Kagio", "place": "village", "wikidata": "Q6346573"}}, {"type": "node", "id": 45001419, "lat": -0.6833, "lon": 37.4, "tags": {"name": "Gathigiriri", "place": "village", "wikidata": "Q5527385"}}, {"type": "node", "id": 45002483, "lat": -0.65, "lon": 37.2166, "tags": {"name": "Githagoya", "place": "village", "wikidata": "Q5565088"}}, {"type": "node", "id": 45003449, "lat": -0.6833, "lon": 37.3333, "tags": {"name": "Chiba", "place": "village"}}, {"type": "node", "id": 45004625, "lat": -0.7166, "lon": 37.4166, "tags": {"name": "Gacogu", "place": "village", "wikidata": "Q5516239"}}, {"type": "node", "id": 45004766, "lat": -0.6333, "lon": 37.2166, "tags": {"name": "Gacharu", "place": "village", "wikidata": "Q5516178"}}, {"type": "node", "id": 45004771, "lat": -0.6166, "lon": 37.2, "tags": {"name": "Gacharu", "place": "village", "wikidata": "Q5516178"}}, {"type": "node", "id": 711491793, "lat": -0.5634146, "lon": 37.1876037, "tags": {"name": "Kibingoti Town", "place": "town"}}, {"type": "node", "id": 1533135851, "lat": -0.49633, "lon": 37.278584, "tags": {"name": "Kerugoya", "place": "town", "population": "39441", "wikidata": "Q1021572"}}, {"type": "node", "id": 1533135858, "lat": -0.5730989, "lon": 37.32785, "tags": {"name": "Kutus", "place": "town", "wikidata": "Q6448663", "wikipedia": "en:Kutus"}}, {"type": "node", "id": 1892229674, "lat": -0.5426554, "lon": 37.474193}, {"type": "node", "id": 1892229678, "lat": -0.5357056, "lon": 37.4696869}, {"type": "node", "id": 1892229681, "lat": -0.5248914, "lon": 37.4668974}, {"type": "node", "id": 1892229685, "lat": -0.524591, "lon": 37.4477593}, {"type": "node", "id": 1892229688, "lat": -0.5157079, "lon": 37.453894}, {"type": "node", "id": 1892229690, "lat": -0.5486633, "lon": 37.4518792}, {"type": "node", "id": 1892229693, "lat": -0.544372, "lon": 37.4493042}, {"type": "node", "id": 1892229696, "lat": -0.5317576, "lon": 37.4469439}, {"type": "node", "id": 1892229698, "lat": -0.5175961, "lon": 37.4515788}, {"type": "node", "id": 1892229715, "lat": -0.5164374, "lon": 37.4595589}, {"type": "node", "id": 1892229717, "lat": -0.5519247, "lon": 37.4743217}, {"type": "node", "id": 1892229720, "lat": -0.5396086, "lon": 37.447888}, {"type": "node", "id": 1892229723, "lat": -0.5523539, "lon": 37.4578852}, {"type": "node", "id": 1892229726, "lat": -0.5193985, "lon": 37.4647945}, {"type": "node", "id": 1892229729, "lat": -0.5564306, "lon": 37.4705881}, {"type": "node", "id": 1892229732, "lat": -0.5560444, "lon": 37.465052}, {"type": "node", "id": 2910312355, "lat": -0.4805778, "lon": 37.1779145, "tags": {"place": "village"}}, {"type": "node", "id": 2929737248, "lat": -0.6250465, "lon": 37.2578065, "tags": {"place": "village"}}, {"type": "node", "id": 2990884889, "lat": -0.4475592, "lon": 37.177539, "tags": {"name": "Ndima", "place": "village"}}, {"type": "node", "id": 3081488506, "lat": -0.6842256, "lon": 37.3581488, "tags": {"name": "Wanguru", "place": "village"}}, {"type": "node", "id": 3097240725, "lat": -0.5555685, "lon": 37.2404684, "tags": {"name": "Baricho", "place": "town"}}, {"type": "node", "id": 5128007512, "lat": -0.5251772, "lon": 37.1784025, "tags": {"name": "Kibirigwi", "place": "village", "wikidata": "Q6404031"}}, {"type": "node", "id": 6043728111, "lat": -0.747253, "lon": 37.4047458, "tags": {"place": "village"}}, {"type": "node", "id": 6043753903, "lat": -0.7196285, "lon": 37.4670428, "tags": {"place": "village"}}, {"type": "node", "id": 6115913279, "lat": -0.5469352, "lon": 37.4743174}, {"type": "node", "id": 6330764226, "lat": -0.5641211, "lon": 37.3090003}, {"type": "node", "id": 6346921341, "lat": -0.6624692, "lon": 37.2030533}, {"type": "node", "id": 6346921342, "lat": -0.6613248, "lon": 37.207964}, {"type": "node", "id": 6346921343, "lat": -0.6600207, "lon": 37.2201809}, {"type": "node", "id": 6346921344, "lat": -0.6729554, "lon": 37.2175858}, {"type": "node", "id": 6346921345, "lat": -0.6760027, "lon": 37.2116237}, {"type": "node", "id": 6346921346, "lat": -0.6761487, "lon": 37.2053362}, {"type": "node", "id": 6346921347, "lat": -0.667888, "lon": 37.2030284}, {"type": "node", "id": 6346921348, "lat": -0.6662143, "lon": 37.2212169}, {"type": "node", "id": 6346921349, "lat": -0.6577185, "lon": 37.2163016}, {"type": "node", "id": 6346921350, "lat": -0.6693719, "lon": 37.2214907}, {"type": "node", "id": 6346921351, "lat": -0.5640852, "lon": 37.3222936}, {"type": "node", "id": 6346921352, "lat": -0.5670927, "lon": 37.332634}, {"type": "node", "id": 6346921353, "lat": -0.5748244, "lon": 37.3321949}, {"type": "node", "id": 6346921354, "lat": -0.5805599, "lon": 37.3297328}, {"type": "node", "id": 6346921355, "lat": -0.5756361, "lon": 37.3224932}, {"type": "node", "id": 6346921356, "lat": -0.5654958, "lon": 37.3175425}, {"type": "node", "id": 6346921357, "lat": -0.5625149, "lon": 37.3257737}, {"type": "node", "id": 6950776917, "lat": -0.4609076, "lon": 37.3183188, "tags": {"name": "Gatugura", "place": "village"}}, {"type": "node", "id": 6950776918, "lat": -0.4746967, "lon": 37.3195454, "tags": {"name": "Mukarara", "place": "village"}}, {"type": "node", "id": 6950776919, "lat": -0.5066447, "lon": 37.3202959, "tags": {"name": "Kabare", "place": "village"}}, {"type": "node", "id": 6950801307, "lat": -0.4296774, "lon": 37.3086447, "tags": {"name": "Kimunye", "place": "village"}}, {"type": "node", "id": 8589594117, "lat": -0.4960462, "lon": 37.196979, "tags": {"name": "Kiaragana Shopping Center", "place": "village"}}, {"type": "node", "id": 9801580553, "lat": -0.667553, "lon": 37.221333}, {"type": "node", "id": 11166378805, "lat": -0.7250642, "lon": 37.3216993, "tags": {"name": "Mutithi", "place": "town"}}, {"type": "node", "id": 12221819777, "lat": -0.5615706, "lon": 37.3191905}, {"type": "node", "id": 12221819778, "lat": -0.5586846, "lon": 37.3180502}, {"type": "node", "id": 12221819779, "lat": -0.5598716, "lon": 37.3136595}, {"type": "node", "id": 12221819780, "lat": -0.5621482, "lon": 37.3105698}, {"type": "node", "id": 12221819781, "lat": -0.5652903, "lon": 37.3100574}, {"type": "node", "id": 12221819782, "lat": -0.5667663, "lon": 37.3124724}, {"type": "node", "id": 12221819783, "lat": -0.5664249, "lon": 37.3151394}, {"type": "node", "id": 12221819784, "lat": -0.5664411, "lon": 37.3166192}, {"type": "node", "id": 12221819785, "lat": -0.5631564, "lon": 37.3202618}, {"type": "node", "id": 12221819786, "lat": -0.5620506, "lon": 37.3203106}, {"type": "node", "id": 12221873667, "lat": -0.5665433, "lon": 37.3150986}, {"type": "node", "id": 12221873668, "lat": -0.5703047, "lon": 37.3160238}, {"type": "node", "id": 12221873669, "lat": -0.573153, "lon": 37.3128466}, {"type": "node", "id": 12221873670, "lat": -0.5755632, "lon": 37.3077339}, {"type": "node", "id": 12221873671, "lat": -0.5715219, "lon": 37.304861}, {"type": "node", "id": 12221873672, "lat": -0.5687754, "lon": 37.3023417}, {"type": "node", "id": 12221873673, "lat": -0.5658233, "lon": 37.3017328}, {"type": "node", "id": 12221873674, "lat": -0.5643576, "lon": 37.3058515}, {"type": "node", "id": 12221873675, "lat": -0.5658624, "lon": 37.3101116}, {"type": "node", "id": 12221873676, "lat": -0.5670068, "lon": 37.3127822}, {"type": "way", "id": 178863862, "nodes": [1892229688, 1892229698, 1892229685, 1892229696, 1892229720, 1892229693, 1892229690, 1892229723, 1892229732, 1892229729, 1892229717, 6115913279, 1892229674, 1892229678, 1892229681, 1892229726, 1892229715, 1892229688], "tags": {"is_in": "Eastern Province,Kenya", "landuse": "residential", "name": "Embu", "name:ru": "\u042d\u043c\u0431\u0443", "place": "city"}}, {"type": "way", "id": 677841479, "nodes": [6346921341, 6346921342, 6346921349, 6346921343, 6346921348, 9801580553, 6346921350, 6346921344, 6346921345, 6346921346, 6346921347, 6346921341], "tags": {"name": "Sagana", "place": "town", "source": "local knowledge", "wikidata": "Q7193402", "wikipedia": "en:Sagana"}}, {"type": "way", "id": 677841480, "nodes": [6346921351, 6346921357, 6346921352, 6346921353, 6346921354, 6346921355, 6346921356, 6346921351], "tags": {"name": "Kutus", "place": "town", "source": "local knowledge", "wikidata": "Q6448663", "wikipedia": "en:Kutus"}}, {"type": "way", "id": 1320686183, "nodes": [12221819777, 12221819778, 12221819779, 12221819780, 12221819781, 12221819782, 12221819783, 12221819784, 12221819785, 12221819786, 12221819777], "tags": {"name": "Diaspora Village", "place": "village"}}, {"type": "way", "id": 1320687444, "nodes": [12221873667, 12221873668, 12221873669, 12221873670, 12221873671, 12221873672, 12221873673, 12221873674, 6330764226, 12221873675, 12221873676, 12221873667], "tags": {"name": "Nomongo Village", "place": "village"}}]}