{"version": 0.6, "generator": "Overpass API 0.7.62.1 084b4234", "osm3s": {"timestamp_osm_base": "2024-09-30T22:13:45Z", "copyright": "The data included in this document is from www.openstreetmap.org. The data is made available under ODbL."}, "elements": [{"type": "node", "id": 1150881420, "lat": 11.28333, "lon": 39.7, "tags": {"is_in:country": "Ethiopia", "is_in:country_code": "ET", "name": "Bededu Shet'", "place": "locality", "source": "GeoDatabase"}}, {"type": "node", "id": 1150883157, "lat": 11.15, "lon": 39.75, "tags": {"is_in:country": "Ethiopia", "is_in:country_code": "ET", "name": "Irofo", "place": "locality", "source": "GeoDatabase"}}, {"type": "node", "id": 1150883238, "lat": 11.26667, "lon": 39.8, "tags": {"is_in:country": "Ethiopia", "is_in:country_code": "ET", "name": "Wereba Abo Yeterara Senselet", "place": "locality", "source": "GeoDatabase"}}, {"type": "node", "id": 1150885474, "lat": 11.23333, "lon": 39.85, "tags": {"is_in:country": "Ethiopia", "is_in:country_code": "ET", "name": "Fetek'A", "place": "locality", "source": "GeoDatabase"}}, {"type": "node", "id": 1150886591, "lat": 11.38333, "lon": 39.7, "tags": {"is_in:country": "Ethiopia", "is_in:country_code": "ET", "name": "K'Ilensa Maryam Bete Kristiyan", "place": "locality", "source": "GeoDatabase"}}, {"type": "node", "id": 1150886614, "lat": 11.16667, "lon": 39.81666, "tags": {"is_in:country": "Ethiopia", "is_in:country_code": "ET", "name": "Dork'A", "place": "locality", "source": "GeoDatabase"}}, {"type": "node", "id": 1150886986, "lat": 11.15, "lon": 39.86667, "tags": {"is_in:country": "Ethiopia", "is_in:country_code": "ET", "name": "Lalo", "place": "locality", "source": "GeoDatabase"}}, {"type": "node", "id": 1150889549, "lat": 11.18333, "lon": 39.93333, "tags": {"is_in:country": "Ethiopia", "is_in:country_code": "ET", "name": "Wedajo", "place": "locality", "source": "GeoDatabase"}}, {"type": "node", "id": 1150890411, "lat": 11.35, "lon": 39.88333, "tags": {"is_in:country": "Ethiopia", "is_in:country_code": "ET", "name": "Gereba Abo", "place": "locality", "source": "GeoDatabase"}}, {"type": "node", "id": 1150891067, "lat": 11.31667, "lon": 39.71667, "tags": {"is_in:country": "Ethiopia", "is_in:country_code": "ET", "name": "Zengita", "place": "locality", "source": "GeoDatabase"}}, {"type": "node", "id": 1150891446, "lat": 11.28333, "lon": 39.88333, "tags": {"is_in:country": "Ethiopia", "is_in:country_code": "ET", "name": "Irgoye (1)", "place": "locality", "source": "GeoDatabase"}}, {"type": "node", "id": 1150891785, "lat": 11.31667, "lon": 39.9, "tags": {"is_in:country": "Ethiopia", "is_in:country_code": "ET", "name": "Ch'Ifeta", "place": "locality", "source": "GeoDatabase"}}, {"type": "node", "id": 1150892147, "lat": 11.28333, "lon": 39.66667, "tags": {"is_in:country": "Ethiopia", "is_in:country_code": "ET", "name": "Bile", "place": "locality", "source": "GeoDatabase"}}, {"type": "node", "id": 1150896780, "lat": 11.1, "lon": 39.85, "tags": {"is_in:country": "Ethiopia", "is_in:country_code": "ET", "name": "Sukoye", "place": "locality", "source": "GeoDatabase"}}, {"type": "node", "id": 1150897715, "lat": 11.31667, "lon": 39.75, "tags": {"is_in:country": "Ethiopia", "is_in:country_code": "ET", "name": "Tehuledere", "place": "locality", "source": "GeoDatabase"}}, {"type": "node", "id": 1150898025, "lat": 11.38333, "lon": 39.81666, "tags": {"is_in:country": "Ethiopia", "is_in:country_code": "ET", "name": "Dangie", "place": "locality", "source": "GeoDatabase"}}, {"type": "node", "id": 1150900195, "lat": 11.1491205, "lon": 39.7330964, "tags": {"is_in:country": "Ethiopia", "is_in:country_code": "ET", "name": "Sheh Mehamed Ali Mesgid", "place": "locality", "source": "GeoDatabase"}}, {"type": "node", "id": 1150902414, "lat": 11.2, "lon": 39.75, "tags": {"is_in:country": "Ethiopia", "is_in:country_code": "ET", "name": "Alah Set'O", "place": "locality", "source": "GeoDatabase"}}, {"type": "node", "id": 1150902508, "lat": 11.35, "lon": 39.8, "tags": {"is_in:country": "Ethiopia", "is_in:country_code": "ET", "name": "Gedero Mika'El Bete Kristiyan", "place": "locality", "source": "GeoDatabase"}}, {"type": "node", "id": 1150908167, "lat": 11.25, "lon": 39.88333, "tags": {"is_in:country": "Ethiopia", "is_in:country_code": "ET", "name": "Were T'Ega", "place": "locality", "source": "GeoDatabase"}}, {"type": "node", "id": 1150912153, "lat": 11.1484947, "lon": 39.9021994, "tags": {"name": "Degan", "place": "town"}}, {"type": "node", "id": 1150917119, "lat": 11.21667, "lon": 39.83333, "tags": {"is_in:country": "Ethiopia", "is_in:country_code": "ET", "name": "Fultulo", "place": "locality", "source": "GeoDatabase"}}, {"type": "node", "id": 1150918349, "lat": 11.38333, "lon": 39.91667, "tags": {"is_in:country": "Ethiopia", "is_in:country_code": "ET", "name": "K'Ilt'U", "place": "locality", "source": "GeoDatabase"}}, {"type": "node", "id": 1150919782, "lat": 11.38333, "lon": 39.88333, "tags": {"is_in:country": "Ethiopia", "is_in:country_code": "ET", "name": "Bogsa", "place": "locality", "source": "GeoDatabase"}}, {"type": "node", "id": 1150920224, "lat": 11.23333, "lon": 39.71667, "tags": {"is_in:country": "Ethiopia", "is_in:country_code": "ET", "name": "Sulula Bota", "place": "locality", "source": "GeoDatabase"}}, {"type": "node", "id": 1150920505, "lat": 11.31667, "lon": 39.73333, "tags": {"is_in:country": "Ethiopia", "is_in:country_code": "ET", "name": "Merma", "place": "locality", "source": "GeoDatabase"}}, {"type": "node", "id": 1150928214, "lat": 11.36667, "lon": 39.83333, "tags": {"is_in:country": "Ethiopia", "is_in:country_code": "ET", "name": "Mishinga", "place": "locality", "source": "GeoDatabase"}}, {"type": "node", "id": 1150939237, "lat": 11.1, "lon": 39.83333, "tags": {"is_in:country": "Ethiopia", "is_in:country_code": "ET", "name": "Abagolja Ager (2)", "place": "locality", "source": "GeoDatabase"}}, {"type": "node", "id": 1150941199, "lat": 11.2332838, "lon": 39.7554135, "tags": {"name": "Lake Ardibbo", "place": "locality", "source": "GeoDatabase"}}, {"type": "node", "id": 1150941627, "lat": 11.38333, "lon": 39.78333, "tags": {"is_in:country": "Ethiopia", "is_in:country_code": "ET", "name": "Shegra", "place": "locality", "source": "GeoDatabase"}}, {"type": "node", "id": 1150943933, "lat": 11.36667, "lon": 39.73333, "tags": {"is_in:country": "Ethiopia", "is_in:country_code": "ET", "name": "Werk' Amba", "place": "locality", "source": "GeoDatabase"}}, {"type": "node", "id": 1150949413, "lat": 11.149354, "lon": 39.6857247, "tags": {"is_in:country": "Ethiopia", "is_in:country_code": "ET", "name": "Hwat'E", "place": "locality", "source": "GeoDatabase"}}, {"type": "node", "id": 1150954616, "lat": 11.18333, "lon": 39.9, "tags": {"is_in:country": "Ethiopia", "is_in:country_code": "ET", "name": "Gojam", "place": "locality", "source": "GeoDatabase"}}, {"type": "node", "id": 1150957644, "lat": 11.11667, "lon": 39.85, "tags": {"is_in:country": "Ethiopia", "is_in:country_code": "ET", "name": "Uahi", "place": "locality", "source": "GeoDatabase"}}, {"type": "node", "id": 1150958427, "lat": 11.15, "lon": 39.66667, "tags": {"is_in:country": "Ethiopia", "is_in:country_code": "ET", "name": "T'It'A Yet'Or Serawit Sefer", "place": "locality", "source": "GeoDatabase"}}, {"type": "node", "id": 1150959169, "lat": 11.25, "lon": 39.83333, "tags": {"is_in:country": "Ethiopia", "is_in:country_code": "ET", "name": "Adami Gebeya", "place": "locality", "source": "GeoDatabase"}}, {"type": "node", "id": 1150961854, "lat": 11.38333, "lon": 39.9, "tags": {"is_in:country": "Ethiopia", "is_in:country_code": "ET", "name": "Legda", "place": "locality", "source": "GeoDatabase"}}, {"type": "node", "id": 1150962799, "lat": 11.33333, "lon": 39.73333, "tags": {"is_in:country": "Ethiopia", "is_in:country_code": "ET", "name": "Dure", "place": "locality", "source": "GeoDatabase"}}, {"type": "node", "id": 1150962870, "lat": 11.15, "lon": 39.78333, "tags": {"is_in:country": "Ethiopia", "is_in:country_code": "ET", "name": "Colle Monticolo", "place": "locality", "source": "GeoDatabase"}}, {"type": "node", "id": 1150964108, "lat": 11.1, "lon": 39.9, "tags": {"is_in:country": "Ethiopia", "is_in:country_code": "ET", "name": "Hangoch'", "place": "locality", "source": "GeoDatabase"}}, {"type": "node", "id": 1150971507, "lat": 11.41667, "lon": 39.73333, "tags": {"is_in:country": "Ethiopia", "is_in:country_code": "ET", "name": "Ragnena", "place": "locality", "source": "GeoDatabase"}}, {"type": "node", "id": 1150971765, "lat": 11.15, "lon": 39.91667, "tags": {"is_in:country": "Ethiopia", "is_in:country_code": "ET", "name": "Gerba", "place": "locality", "source": "GeoDatabase"}}, {"type": "node", "id": 1150972701, "lat": 11.35, "lon": 39.85, "tags": {"is_in:country": "Ethiopia", "is_in:country_code": "ET", "name": "Adame", "place": "locality", "source": "GeoDatabase"}}, {"type": "node", "id": 1150973875, "lat": 11.26667, "lon": 39.88333, "tags": {"is_in:country": "Ethiopia", "is_in:country_code": "ET", "name": "Irgoye (2)", "place": "locality", "source": "GeoDatabase"}}, {"type": "node", "id": 1150976105, "lat": 11.2333842, "lon": 39.6847377, "tags": {"name": "Sulula", "place": "village"}}, {"type": "node", "id": 1151002063, "lat": 11.11667, "lon": 39.83333, "tags": {"is_in:country": "Ethiopia", "is_in:country_code": "ET", "name": "Gelana Shet'", "place": "locality", "source": "GeoDatabase"}}, {"type": "node", "id": 1151003385, "lat": 11.26667, "lon": 39.76667, "tags": {"is_in:country": "Ethiopia", "is_in:country_code": "ET", "name": "Biriti", "place": "locality", "source": "GeoDatabase"}}, {"type": "node", "id": 1151003684, "lat": 11.35, "lon": 39.81666, "tags": {"is_in:country": "Ethiopia", "is_in:country_code": "ET", "name": "Gedero", "place": "locality", "source": "GeoDatabase"}}, {"type": "node", "id": 1151004838, "lat": 11.41667, "lon": 39.7, "tags": {"is_in:country": "Ethiopia", "is_in:country_code": "ET", "name": "Guba Hut'A", "place": "locality", "source": "GeoDatabase"}}, {"type": "node", "id": 2206470631, "lat": 11.3771647, "lon": 39.836433, "tags": {"name": "Boha", "place": "village"}}, {"type": "node", "id": 2206470681, "lat": 11.3131688, "lon": 39.676983, "tags": {"name": "Hyke", "name:ar": "\u0647\u0627\u064a\u0643", "name:en": "Hayq", "place": "town", "wikidata": "Q2811760", "wikipedia": "en:Hayq, Ethiopia"}}, {"type": "node", "id": 2206470683, "lat": 11.3538391, "lon": 39.793901, "tags": {"name": "Kubisa", "place": "village"}}, {"type": "node", "id": 2206470689, "lat": 11.3391572, "lon": 39.7721089, "tags": {"name": "Mistima", "place": "town"}}, {"type": "node", "id": 4093208400, "lat": 11.163422, "lon": 39.9347562, "tags": {"name": "Gerba", "place": "town"}}, {"type": "node", "id": 4701413521, "lat": 11.3516857, "lon": 39.6686713, "tags": {"name": "Paseo Mille", "name:en": "Paseo Mille", "place": "village"}}, {"type": "node", "id": 11534983674, "lat": 11.2016642, "lon": 39.7145217, "tags": {"place": "village"}}, {"type": "node", "id": 11537776561, "lat": 11.1839838, "lon": 39.7626935, "tags": {"place": "village"}}]}