{"version": 0.6, "generator": "Overpass API 0.7.62.1 084b4234", "osm3s": {"timestamp_osm_base": "2024-09-30T22:49:29Z", "copyright": "The data included in this document is from www.openstreetmap.org. The data is made available under ODbL."}, "elements": [{"type": "node", "id": 1150697883, "lat": 7.08333, "lon": 39.21667, "tags": {"is_in:country": "Ethiopia", "is_in:country_code": "ET", "name": "Huruba Shet'", "place": "locality", "source": "GeoDatabase"}}, {"type": "node", "id": 1150880893, "lat": 7.16667, "lon": 39.0, "tags": {"is_in:country": "Ethiopia", "is_in:country_code": "ET", "name": "Sema Korebta", "place": "locality", "source": "GeoDatabase"}}, {"type": "node", "id": 1150882841, "lat": 7.03333, "lon": 39.1, "tags": {"is_in:country": "Ethiopia", "is_in:country_code": "ET", "name": "Ukuma Shet'", "place": "locality", "source": "GeoDatabase"}}, {"type": "node", "id": 1150882941, "lat": 7.25, "lon": 39.33333, "tags": {"is_in:country": "Ethiopia", "is_in:country_code": "ET", "name": "Kubsa", "place": "locality", "source": "GeoDatabase"}}, {"type": "node", "id": 1150886674, "lat": 7.05, "lon": 39.18333, "tags": {"is_in:country": "Ethiopia", "is_in:country_code": "ET", "name": "Malca Daddecia", "place": "locality", "source": "GeoDatabase"}}, {"type": "node", "id": 1150887843, "lat": 7.05, "lon": 38.98333, "tags": {"is_in:country": "Ethiopia", "is_in:country_code": "ET", "name": "Kobe Shet'", "place": "locality", "source": "GeoDatabase"}}, {"type": "node", "id": 1150890717, "lat": 7.06667, "lon": 39.26667, "tags": {"is_in:country": "Ethiopia", "is_in:country_code": "ET", "name": "Gedira Shet'", "place": "locality", "source": "GeoDatabase"}}, {"type": "node", "id": 1150891363, "lat": 7.1, "lon": 39.2, "tags": {"is_in:country": "Ethiopia", "is_in:country_code": "ET", "name": "Webelto Shet'", "place": "locality", "source": "GeoDatabase"}}, {"type": "node", "id": 1150898360, "lat": 7.13333, "lon": 39.21667, "tags": {"is_in:country": "Ethiopia", "is_in:country_code": "ET", "name": "Gedeb Bota", "place": "locality", "source": "GeoDatabase"}}, {"type": "node", "id": 1150899405, "lat": 7.01667, "lon": 39.01667, "tags": {"is_in:country": "Ethiopia", "is_in:country_code": "ET", "name": "Adamogne", "place": "locality", "source": "GeoDatabase"}}, {"type": "node", "id": 1150901000, "lat": 7.33333, "lon": 38.93333, "tags": {"is_in:country": "Ethiopia", "is_in:country_code": "ET", "name": "Leye'A Wenz", "place": "locality", "source": "GeoDatabase"}}, {"type": "node", "id": 1150909872, "lat": 7.26667, "lon": 39.03333, "tags": {"is_in:country": "Ethiopia", "is_in:country_code": "ET", "name": "Giyoris", "place": "locality", "source": "GeoDatabase"}}, {"type": "node", "id": 1150910847, "lat": 7.31667, "lon": 39.28333, "tags": {"is_in:country": "Ethiopia", "is_in:country_code": "ET", "name": "Gedeb", "place": "locality", "source": "GeoDatabase"}}, {"type": "node", "id": 1150911135, "lat": 7.13333, "lon": 39.15, "tags": {"is_in:country": "Ethiopia", "is_in:country_code": "ET", "name": "Buccio", "place": "locality", "source": "GeoDatabase"}}, {"type": "node", "id": 1150919179, "lat": 7.2193097, "lon": 38.9269697, "tags": {"name": "K'Ore / Qoree", "name:om": "Qoree", "place": "town", "source": "GeoDatabase"}}, {"type": "node", "id": 1150920247, "lat": 7.08333, "lon": 39.3, "tags": {"is_in:country": "Ethiopia", "is_in:country_code": "ET", "name": "Hursa", "place": "locality", "source": "GeoDatabase"}}, {"type": "node", "id": 1150925244, "lat": 7.03333, "lon": 39.16667, "tags": {"is_in:country": "Ethiopia", "is_in:country_code": "ET", "name": "Lesho Shet'", "place": "locality", "source": "GeoDatabase"}}, {"type": "node", "id": 1150937404, "lat": 7.35, "lon": 39.0, "tags": {"is_in:country": "Ethiopia", "is_in:country_code": "ET", "name": "Waji", "place": "locality", "source": "GeoDatabase"}}, {"type": "node", "id": 1150939343, "lat": 7.03333, "lon": 39.11667, "tags": {"is_in:country": "Ethiopia", "is_in:country_code": "ET", "name": "Bilik'A Shet'", "place": "locality", "source": "GeoDatabase"}}, {"type": "node", "id": 1150943227, "lat": 7.1, "lon": 39.25, "tags": {"is_in:country": "Ethiopia", "is_in:country_code": "ET", "name": "Debara River", "place": "locality", "source": "GeoDatabase"}}, {"type": "node", "id": 1150945097, "lat": 7.16667, "lon": 38.96667, "tags": {"is_in:country": "Ethiopia", "is_in:country_code": "ET", "name": "Faggi", "place": "locality", "source": "GeoDatabase"}}, {"type": "node", "id": 1150946918, "lat": 7.0, "lon": 38.93333, "tags": {"is_in:country": "Ethiopia", "is_in:country_code": "ET", "name": "Ashoka Shet", "place": "locality", "source": "GeoDatabase"}}, {"type": "node", "id": 1150952136, "lat": 7.1, "lon": 39.3, "tags": {"is_in:country": "Ethiopia", "is_in:country_code": "ET", "name": "Burbura Shet'", "place": "locality", "source": "GeoDatabase"}}, {"type": "node", "id": 1150953101, "lat": 7.23333, "lon": 39.1, "tags": {"is_in:country": "Ethiopia", "is_in:country_code": "ET", "name": "Tiggio Ciofira", "place": "locality", "source": "GeoDatabase"}}, {"type": "node", "id": 1150961518, "lat": 7.23333, "lon": 38.98333, "tags": {"is_in:country": "Ethiopia", "is_in:country_code": "ET", "name": "Sire", "place": "locality", "source": "GeoDatabase"}}, {"type": "node", "id": 1150963130, "lat": 7.28333, "lon": 39.15, "tags": {"is_in:country": "Ethiopia", "is_in:country_code": "ET", "name": "Ch'Ofira", "place": "locality", "source": "GeoDatabase"}}, {"type": "node", "id": 1150973678, "lat": 7.05, "lon": 39.21667, "tags": {"is_in:country": "Ethiopia", "is_in:country_code": "ET", "name": "Kora Shet'", "place": "locality", "source": "GeoDatabase"}}, {"type": "node", "id": 1150978980, "lat": 7.05, "lon": 39.33333, "tags": {"is_in:country": "Ethiopia", "is_in:country_code": "ET", "name": "Erero Shet'", "place": "locality", "source": "GeoDatabase"}}, {"type": "node", "id": 1150979453, "lat": 7.03333, "lon": 39.05, "tags": {"is_in:country": "Ethiopia", "is_in:country_code": "ET", "name": "Gofore Shet'", "place": "locality", "source": "GeoDatabase"}}, {"type": "node", "id": 1150983176, "lat": 7.08333, "lon": 39.06666, "tags": {"is_in:country": "Ethiopia", "is_in:country_code": "ET", "name": "Dinsho Bota", "place": "locality", "source": "GeoDatabase"}}, {"type": "node", "id": 1151003770, "lat": 7.0, "lon": 39.31666, "tags": {"is_in:country": "Ethiopia", "is_in:country_code": "ET", "name": "Keta", "place": "locality", "source": "GeoDatabase"}}, {"type": "node", "id": 1151004500, "lat": 7.28333, "lon": 39.2, "tags": {"is_in:country": "Ethiopia", "is_in:country_code": "ET", "name": "Shankule", "place": "locality", "source": "GeoDatabase"}}, {"type": "node", "id": 1445259753, "lat": 7.0139925, "lon": 39.0225319, "tags": {"name": "Wabe", "place": "town"}}, {"type": "node", "id": 1445259849, "lat": 7.012102, "lon": 39.0442199, "tags": {"name": "Edo", "place": "town"}}, {"type": "node", "id": 1953073693, "lat": 7.2757491, "lon": 39.084099, "tags": {"place": "village"}}, {"type": "node", "id": 1955282771, "lat": 7.1622778, "lon": 39.0871041, "tags": {"place": "village"}}, {"type": "node", "id": 1955285219, "lat": 7.1508118, "lon": 39.1183143, "tags": {"place": "village"}}, {"type": "node", "id": 1969475626, "lat": 7.0993203, "lon": 39.1953046, "tags": {"alt_name": "Asasa", "name": "Asassa", "name:om": "Hasassa", "place": "town", "wikidata": "Q2866322", "wikipedia": "en:Asasa"}}]}