{"version": 0.6, "generator": "Overpass API 0.7.62.1 084b4234", "osm3s": {"timestamp_osm_base": "2024-09-30T22:36:14Z", "copyright": "The data included in this document is from www.openstreetmap.org. The data is made available under ODbL."}, "elements": [{"type": "node", "id": 1150883434, "lat": 4.78333, "lon": 38.11667, "tags": {"is_in:country": "Ethiopia", "is_in:country_code": "ET", "name": "Otallo", "place": "locality", "source": "GeoDatabase"}}, {"type": "node", "id": 1150889165, "lat": 4.56667, "lon": 38.33333, "tags": {"is_in:country": "Ethiopia", "is_in:country_code": "ET", "name": "Afalata", "place": "locality", "source": "GeoDatabase"}}, {"type": "node", "id": 1150894584, "lat": 4.8, "lon": 38.06666, "tags": {"is_in:country": "Ethiopia", "is_in:country_code": "ET", "name": "Calciati", "place": "locality", "source": "GeoDatabase"}}, {"type": "node", "id": 1150898361, "lat": 4.56667, "lon": 38.38333, "tags": {"is_in:country": "Ethiopia", "is_in:country_code": "ET", "name": "Mogore", "place": "locality", "source": "GeoDatabase"}}, {"type": "node", "id": 1150909326, "lat": 4.68333, "lon": 38.36667, "tags": {"is_in:country": "Ethiopia", "is_in:country_code": "ET", "name": "Digalu", "place": "locality", "source": "GeoDatabase"}}, {"type": "node", "id": 1150916934, "lat": 4.78333, "lon": 38.2, "tags": {"is_in:country": "Ethiopia", "is_in:country_code": "ET", "name": "Deritu", "place": "locality", "source": "GeoDatabase"}}, {"type": "node", "id": 1150925714, "lat": 4.7, "lon": 38.13333, "tags": {"is_in:country": "Ethiopia", "is_in:country_code": "ET", "name": "Ashabo", "place": "locality", "source": "GeoDatabase"}}, {"type": "node", "id": 1150925841, "lat": 4.5, "lon": 38.18333, "tags": {"is_in:country": "Ethiopia", "is_in:country_code": "ET", "name": "Gebel Fulli", "place": "locality", "source": "GeoDatabase"}}, {"type": "node", "id": 1150937274, "lat": 4.6, "lon": 38.05, "tags": {"is_in:country": "Ethiopia", "is_in:country_code": "ET", "name": "Samma", "place": "locality", "source": "GeoDatabase"}}, {"type": "node", "id": 1150949449, "lat": 4.75, "lon": 38.36667, "tags": {"is_in:country": "Ethiopia", "is_in:country_code": "ET", "name": "Gomole", "place": "locality", "source": "GeoDatabase"}}, {"type": "node", "id": 1150959032, "lat": 4.48333, "lon": 38.4, "tags": {"is_in:country": "Ethiopia", "is_in:country_code": "ET", "name": "Comao", "place": "locality", "source": "GeoDatabase"}}, {"type": "node", "id": 1150970300, "lat": 4.5877204, "lon": 38.2627218, "tags": {"is_in:country": "Ethiopia", "is_in:country_code": "ET", "name": "Faile", "note": "This village name was in an isolated part of the hills. I have moved to nearest settlement, but please check accuracy and amend as appropriate, thanks.", "place": "locality", "source": "GeoDatabase"}}, {"type": "node", "id": 1150981164, "lat": 4.75, "lon": 38.03333, "tags": {"is_in:country": "Ethiopia", "is_in:country_code": "ET", "name": "Ade", "place": "locality", "source": "GeoDatabase"}}, {"type": "node", "id": 1151004504, "lat": 4.63333, "lon": 38.35, "tags": {"is_in:country": "Ethiopia", "is_in:country_code": "ET", "name": "Funchaua", "place": "locality", "source": "GeoDatabase"}}, {"type": "node", "id": 1921728797, "lat": 4.7102131, "lon": 38.3298926, "tags": {"place": "hamlet"}}, {"type": "node", "id": 1921728988, "lat": 4.8139027, "lon": 38.3260302, "tags": {"place": "village"}}, {"type": "node", "id": 1921768026, "lat": 4.7889062, "lon": 38.1552718, "tags": {"place": "hamlet"}}, {"type": "node", "id": 1921768063, "lat": 4.7147794, "lon": 38.1979281, "tags": {"place": "village"}}, {"type": "node", "id": 1921768651, "lat": 4.8093911, "lon": 38.2955497, "tags": {"place": "hamlet"}}, {"type": "node", "id": 1921962245, "lat": 4.4733323, "lon": 38.2748109, "tags": {"place": "hamlet"}}, {"type": "node", "id": 1921962565, "lat": 4.4325911, "lon": 37.9950372, "tags": {"place": "hamlet"}}]}