{"version": 0.6, "generator": "Overpass API 0.7.62.1 084b4234", "osm3s": {"timestamp_osm_base": "2024-09-30T17:35:06Z", "copyright": "The data included in this document is from www.openstreetmap.org. The data is made available under ODbL."}, "elements": [{"type": "node", "id": 44910413, "lat": -0.3705932, "lon": 35.6515884, "tags": {"name": "Waterer", "place": "village"}}, {"type": "node", "id": 44915145, "lat": -0.35, "lon": 35.55, "tags": {"name": "Taloa", "place": "village"}}, {"type": "node", "id": 44922016, "lat": -0.35, "lon": 35.6166, "tags": {"name": "Poulton", "place": "village"}}, {"type": "node", "id": 44931277, "lat": -0.6333, "lon": 35.6, "tags": {"name": "Korikabemitik", "place": "village"}}, {"type": "node", "id": 44997671, "lat": -0.4333, "lon": 35.5833, "tags": {"is_in": "Nakuru,Kenya", "name": "Kamwaura", "place": "village", "wikidata": "Q6359905"}}, {"type": "node", "id": 45001769, "lat": -0.6333, "lon": 35.65, "tags": {"name": "Goroba", "place": "village", "wikidata": "Q15221912"}}, {"type": "node", "id": 2569559695, "lat": -0.3613666, "lon": 35.6414127, "tags": {"name": "Gicheriga", "place": "village"}}, {"type": "node", "id": 2569559698, "lat": -0.385719, "lon": 35.6521387, "tags": {"name": "Langwenda", "place": "village"}}, {"type": "node", "id": 2569559700, "lat": -0.3893763, "lon": 35.5685596, "tags": {"name": "Sitoito", "place": "village"}}, {"type": "node", "id": 2569559702, "lat": -0.3376132, "lon": 35.6294431, "tags": {"name": "Temoyota", "place": "village"}}, {"type": "node", "id": 2569670986, "lat": -0.6084678, "lon": 35.6633076, "tags": {"name": "Ambusket", "place": "village"}}, {"type": "node", "id": 2569670987, "lat": -0.5818101, "lon": 35.6490651, "tags": {"name": "Chepteuch", "place": "village"}}, {"type": "node", "id": 2569670988, "lat": -0.6186089, "lon": 35.6016951, "tags": {"name": "Emitik", "place": "village"}}, {"type": "node", "id": 2569670990, "lat": -0.5941746, "lon": 35.5895348, "tags": {"name": "Murwangwa", "place": "village"}}, {"type": "node", "id": 2569670991, "lat": -0.5998751, "lon": 35.5877961, "tags": {"name": "Nyayo tea zone", "place": "suburb"}}, {"type": "node", "id": 5898719022, "lat": -0.3880816, "lon": 35.5668161}, {"type": "node", "id": 5898719023, "lat": -0.3881758, "lon": 35.5667519}, {"type": "node", "id": 5898719024, "lat": -0.3890702, "lon": 35.5680645}, {"type": "node", "id": 5898719025, "lat": -0.3889166, "lon": 35.5681692}, {"type": "node", "id": 5898719026, "lat": -0.388756, "lon": 35.5679334}, {"type": "node", "id": 5898719027, "lat": -0.3888154, "lon": 35.567893}, {"type": "node", "id": 9757376608, "lat": -0.5685366, "lon": 35.6728231, "tags": {"name": "Chepkutik", "place": "village"}}, {"type": "node", "id": 9757376609, "lat": -0.5761075, "lon": 35.6689643, "tags": {"name": "Cheptangulgei", "place": "village"}}, {"type": "node", "id": 9757397326, "lat": -0.623816, "lon": 35.6725377, "tags": {"name": "Singorwet", "place": "village"}}, {"type": "node", "id": 9757397327, "lat": -0.6131652, "lon": 35.6723728, "tags": {"name": "Chesoen B", "place": "village"}}, {"type": "node", "id": 9757397328, "lat": -0.6041905, "lon": 35.6715295, "tags": {"name": "Chesoen A", "place": "village"}}, {"type": "node", "id": 9757397329, "lat": -0.6118283, "lon": 35.6611658, "tags": {"name": "Saptet", "place": "village"}}, {"type": "node", "id": 9757397330, "lat": -0.5908355, "lon": 35.6692271, "tags": {"name": "Pangani", "place": "village"}}, {"type": "node", "id": 9757397331, "lat": -0.5841766, "lon": 35.6627652, "tags": {"name": "Chelalang", "place": "village"}}, {"type": "node", "id": 9757397332, "lat": -0.5712163, "lon": 35.6642767, "tags": {"name": "Kwendo", "place": "village"}}, {"type": "node", "id": 9757397333, "lat": -0.5625531, "lon": 35.6699446, "tags": {"name": "Kapsoiyo", "place": "village"}}, {"type": "node", "id": 9757397334, "lat": -0.6323383, "lon": 35.6647791, "tags": {"name": "Kabigeriet", "place": "village"}}, {"type": "node", "id": 9757397335, "lat": -0.626957, "lon": 35.6482086, "tags": {"name": "Ambusket", "place": "village"}}, {"type": "node", "id": 9757397336, "lat": -0.6353481, "lon": 35.6285322, "tags": {"name": "Kimugul B", "place": "village"}}, {"type": "node", "id": 9757397337, "lat": -0.6464142, "lon": 35.6168957, "tags": {"name": "Kimugul A", "place": "village"}}, {"type": "node", "id": 9757397338, "lat": -0.6499914, "lon": 35.6220903, "tags": {"name": "Kaplamboi B", "place": "village"}}, {"type": "node", "id": 9757397339, "lat": -0.6365171, "lon": 35.6383376, "tags": {"name": "Kebooet", "place": "village"}}, {"type": "node", "id": 9757397340, "lat": -0.6544079, "lon": 35.6284838, "tags": {"name": "Taachasis", "place": "village"}}, {"type": "node", "id": 9757397341, "lat": -0.6517044, "lon": 35.6346452, "tags": {"name": "Nukiat", "place": "village"}}, {"type": "node", "id": 9757397342, "lat": -0.6548964, "lon": 35.6413339, "tags": {"name": "Senetwet", "place": "village"}}, {"type": "node", "id": 9757397343, "lat": -0.6415756, "lon": 35.6573793, "tags": {"name": "Ndasiata", "place": "village"}}, {"type": "node", "id": 9757397344, "lat": -0.6554093, "lon": 35.6515993, "tags": {"name": "Sigowet A", "place": "village"}}, {"type": "node", "id": 9757397345, "lat": -0.6663028, "lon": 35.6500516, "tags": {"name": "Sigowet B", "place": "village"}}, {"type": "node", "id": 9757397346, "lat": -0.6686335, "lon": 35.6349299, "tags": {"name": "Saosa", "place": "village"}}, {"type": "node", "id": 9757397347, "lat": -0.6633738, "lon": 35.6203369, "tags": {"name": "Kaplamboi A", "place": "village"}}, {"type": "node", "id": 9757397348, "lat": -0.6704966, "lon": 35.6155094, "tags": {"name": "Kapkures", "place": "village"}}, {"type": "node", "id": 9757397350, "lat": -0.6568095, "lon": 35.6629048, "tags": {"name": "Longet B", "place": "village"}}, {"type": "node", "id": 9757397351, "lat": -0.6725669, "lon": 35.6551121, "tags": {"name": "Lelaitich B", "place": "village"}}, {"type": "node", "id": 9757397353, "lat": -0.6737936, "lon": 35.6430497, "tags": {"name": "Korofa A", "place": "village"}}, {"type": "node", "id": 9757397355, "lat": -0.6590749, "lon": 35.6677566, "tags": {"name": "Longet A", "place": "village"}}, {"type": "node", "id": 9757400571, "lat": -0.4329613, "lon": 35.6385627, "tags": {"name": "Emeza", "place": "village"}}, {"type": "node", "id": 9757400572, "lat": -0.4807733, "lon": 35.6407723, "tags": {"name": "Kaplelach", "place": "village"}}, {"type": "node", "id": 9757400573, "lat": -0.4745622, "lon": 35.6470119, "tags": {"name": "Kaptembwo", "place": "village"}}, {"type": "node", "id": 9757400574, "lat": -0.4687523, "lon": 35.6456168, "tags": {"name": "Nyagacho Center", "place": "village"}}, {"type": "node", "id": 9757400575, "lat": -0.4768323, "lon": 35.6332394, "tags": {"name": "Tuiyobei", "place": "village"}}, {"type": "node", "id": 9757400576, "lat": -0.4831447, "lon": 35.6607805, "tags": {"name": "Kaplong", "place": "village"}}, {"type": "node", "id": 9757400577, "lat": -0.4794797, "lon": 35.6667978, "tags": {"name": "Lulukwet", "place": "village"}}, {"type": "node", "id": 9757400578, "lat": -0.4752639, "lon": 35.6699726, "tags": {"name": "Kirandich Barit", "place": "village"}}, {"type": "node", "id": 9757400579, "lat": -0.4611351, "lon": 35.6694797, "tags": {"name": "Tiritabmoita", "place": "village"}}, {"type": "node", "id": 9757400583, "lat": -0.4782365, "lon": 35.6560748, "tags": {"name": "Barit", "place": "village"}}, {"type": "node", "id": 9757400584, "lat": -0.4725208, "lon": 35.6613997, "tags": {"name": "Tangit", "place": "village"}}, {"type": "node", "id": 9757400585, "lat": -0.4534225, "lon": 35.6675793, "tags": {"name": "Bondet", "place": "village"}}, {"type": "node", "id": 9757400586, "lat": -0.4443086, "lon": 35.6662046, "tags": {"name": "Kapkores", "place": "village"}}, {"type": "node", "id": 9757400595, "lat": -0.4895981, "lon": 35.6733805, "tags": {"name": "Tembwet Barit", "place": "village"}}, {"type": "node", "id": 9757442953, "lat": -0.4869183, "lon": 35.6238982, "tags": {"name": "Kimugul", "place": "village"}}, {"type": "node", "id": 9757442978, "lat": -0.4631779, "lon": 35.6393633, "tags": {"name": "Boror", "place": "village"}}, {"type": "node", "id": 9757442979, "lat": -0.4645543, "lon": 35.6525684, "tags": {"name": "Kong Asis", "place": "village"}}, {"type": "node", "id": 9757442980, "lat": -0.4542129, "lon": 35.6415778, "tags": {"name": "Sagaitim", "place": "village"}}, {"type": "node", "id": 9757442981, "lat": -0.4540654, "lon": 35.6574542, "tags": {"name": "Matenybei", "place": "village"}}, {"type": "node", "id": 9757442982, "lat": -0.4505921, "lon": 35.6464163, "tags": {"name": "Bondet", "place": "village"}}, {"type": "node", "id": 9757442983, "lat": -0.445255, "lon": 35.6422966, "tags": {"name": "Tachasis", "place": "village"}}, {"type": "node", "id": 9757442984, "lat": -0.4464689, "lon": 35.65368, "tags": {"name": "Techoget", "place": "village"}}, {"type": "node", "id": 9757442985, "lat": -0.4384954, "lon": 35.664591, "tags": {"name": "Kosumbei", "place": "village"}}, {"type": "node", "id": 9757442986, "lat": -0.4323508, "lon": 35.663679, "tags": {"name": "Chemamul", "place": "village"}}, {"type": "node", "id": 9757442989, "lat": -0.4235865, "lon": 35.670843, "tags": {"name": "Chepitet", "place": "village"}}, {"type": "node", "id": 9757442990, "lat": -0.4137561, "lon": 35.6726104, "tags": {"name": "Siwot", "place": "village"}}, {"type": "node", "id": 9757442993, "lat": -0.4322101, "lon": 35.6574814, "tags": {"name": "Tabaita", "place": "village"}}, {"type": "node", "id": 9757442994, "lat": -0.4223582, "lon": 35.6586126, "tags": {"name": "Leltany", "place": "village"}}, {"type": "node", "id": 9757442995, "lat": -0.4178058, "lon": 35.6595575, "tags": {"name": "Mautor", "place": "village"}}, {"type": "node", "id": 9757442996, "lat": -0.42942, "lon": 35.6513919, "tags": {"name": "Kipkoibet", "place": "village"}}, {"type": "node", "id": 9757442997, "lat": -0.4894862, "lon": 35.6133753, "tags": {"name": "Shamba Ndovu", "place": "village"}}, {"type": "node", "id": 9757442998, "lat": -0.4809433, "lon": 35.6173195, "tags": {"name": "Kuresiet", "place": "village"}}, {"type": "node", "id": 9757442999, "lat": -0.469802, "lon": 35.6281626, "tags": {"name": "Lesoi", "place": "village"}}, {"type": "node", "id": 9757443000, "lat": -0.4523817, "lon": 35.6366969, "tags": {"name": "Kimugul", "place": "village"}}, {"type": "node", "id": 9757443001, "lat": -0.4649099, "lon": 35.625505, "tags": {"name": "Teta", "place": "village"}}, {"type": "node", "id": 9757443002, "lat": -0.4638118, "lon": 35.6207054, "tags": {"name": "Kapsinendet", "place": "village"}}, {"type": "node", "id": 9757443003, "lat": -0.4496248, "lon": 35.6345287, "tags": {"name": "Kaptembwo", "place": "village"}}, {"type": "node", "id": 9757443004, "lat": -0.4466761, "lon": 35.6310911, "tags": {"name": "Kiptenden", "place": "village"}}, {"type": "node", "id": 9757443005, "lat": -0.4417564, "lon": 35.6403347, "tags": {"name": "Kipsonoi", "place": "village"}}, {"type": "node", "id": 9757443006, "lat": -0.4321687, "lon": 35.6451964, "tags": {"name": "Kapndege", "place": "village"}}, {"type": "node", "id": 9757443007, "lat": -0.4414002, "lon": 35.6303723, "tags": {"name": "Kegati", "place": "village"}}, {"type": "node", "id": 9759322652, "lat": -0.5460033, "lon": 35.6600461, "tags": {"name": "Ainamoi", "place": "village"}}, {"type": "node", "id": 9759322653, "lat": -0.5519892, "lon": 35.6531251, "tags": {"name": "Kimugul", "place": "village"}}, {"type": "node", "id": 9759322654, "lat": -0.5489713, "lon": 35.6700868, "tags": {"name": "Koisegut", "place": "village"}}, {"type": "node", "id": 9759322655, "lat": -0.6049777, "lon": 35.6557792, "tags": {"name": "Ketitui", "place": "village"}}, {"type": "node", "id": 9759322656, "lat": -0.5961194, "lon": 35.655349, "tags": {"name": "Oromoit", "place": "village"}}, {"type": "node", "id": 9759322657, "lat": -0.5907228, "lon": 35.6485676, "tags": {"name": "Cheptuech Central", "place": "village"}}, {"type": "node", "id": 9759322658, "lat": -0.5895598, "lon": 35.640106, "tags": {"name": "Banana", "place": "village"}}, {"type": "node", "id": 9759322659, "lat": -0.5562554, "lon": 35.6637437, "tags": {"name": "Baregeiwet", "place": "village"}}, {"type": "node", "id": 9759322660, "lat": -0.5636001, "lon": 35.6592514, "tags": {"name": "Tilolwo", "place": "village"}}, {"type": "node", "id": 9759322661, "lat": -0.5774347, "lon": 35.6531326, "tags": {"name": "Irongo", "place": "village"}}, {"type": "node", "id": 9759322662, "lat": -0.5683804, "lon": 35.6497752, "tags": {"name": "Chepkochun", "place": "village"}}, {"type": "node", "id": 9759322663, "lat": -0.5871714, "lon": 35.633162, "tags": {"name": "Chepnyalilo", "place": "village"}}, {"type": "node", "id": 9759322664, "lat": -0.5866184, "lon": 35.6243938, "tags": {"name": "Wamkong Central", "place": "village"}}, {"type": "node", "id": 9759322665, "lat": -0.5909975, "lon": 35.6163787, "tags": {"name": "Wamkong Original", "place": "village"}}, {"type": "node", "id": 9759322666, "lat": -0.5435536, "lon": 35.6428505, "tags": {"name": "Kibirech", "place": "village"}}, {"type": "node", "id": 9759322667, "lat": -0.5498526, "lon": 35.6439016, "tags": {"name": "Sitotwet", "place": "village"}}, {"type": "node", "id": 9759322668, "lat": -0.5552446, "lon": 35.6439447, "tags": {"name": "Bondet", "place": "village"}}, {"type": "node", "id": 9759322669, "lat": -0.550909, "lon": 35.6311872, "tags": {"name": "Chebotoi", "place": "village"}}, {"type": "node", "id": 9759322670, "lat": -0.5628308, "lon": 35.6446524, "tags": {"name": "Saoset", "place": "village"}}, {"type": "node", "id": 9759322671, "lat": -0.5715271, "lon": 35.6374353, "tags": {"name": "Kimugul", "place": "village"}}, {"type": "node", "id": 9759322672, "lat": -0.5819398, "lon": 35.62694, "tags": {"name": "Wamkong Kongasis", "place": "village"}}, {"type": "node", "id": 9759322673, "lat": -0.5782626, "lon": 35.6190441, "tags": {"name": "Kiletien", "place": "village"}}, {"type": "node", "id": 9759322675, "lat": -0.5740253, "lon": 35.6301224, "tags": {"name": "Ushindi", "place": "village"}}, {"type": "node", "id": 9759322676, "lat": -0.5612814, "lon": 35.6313224, "tags": {"name": "Cheplanget", "place": "village"}}, {"type": "node", "id": 9759322677, "lat": -0.5663165, "lon": 35.6208495, "tags": {"name": "Saptet", "place": "village"}}, {"type": "node", "id": 9759322678, "lat": -0.5375454, "lon": 35.5929375, "tags": {"name": "Kimugul", "place": "village"}}, {"type": "node", "id": 9759322679, "lat": -0.5385391, "lon": 35.5789858, "tags": {"name": "Kiplemeiywo", "place": "village"}}, {"type": "node", "id": 9759322680, "lat": -0.5475782, "lon": 35.563831, "tags": {"name": "Saptonok", "place": "village"}}, {"type": "node", "id": 9759322681, "lat": -0.5542795, "lon": 35.5840518, "tags": {"name": "Riprip", "place": "village"}}, {"type": "node", "id": 9759322682, "lat": -0.5648105, "lon": 35.5662923, "tags": {"name": "Tachasis", "place": "village"}}, {"type": "node", "id": 9759322683, "lat": -0.5557539, "lon": 35.5542815, "tags": {"name": "Kalungula", "place": "village"}}, {"type": "node", "id": 9759322684, "lat": -0.5673293, "lon": 35.5505508, "tags": {"name": "Kipkongor", "place": "village"}}, {"type": "node", "id": 9759322685, "lat": -0.5777863, "lon": 35.5546558, "tags": {"name": "Tarachet", "place": "village"}}, {"type": "node", "id": 9759322686, "lat": -0.563284, "lon": 35.6036333, "tags": {"name": "Sachangwan", "place": "village"}}, {"type": "node", "id": 9759322687, "lat": -0.5632178, "lon": 35.5889355, "tags": {"name": "Arorwet", "place": "village"}}, {"type": "node", "id": 9759322688, "lat": -0.5696471, "lon": 35.5778486, "tags": {"name": "Sagaisoi", "place": "village"}}, {"type": "node", "id": 9759322689, "lat": -0.5899614, "lon": 35.5631503, "tags": {"name": "Lelbanga", "place": "village"}}, {"type": "node", "id": 9759322690, "lat": -0.5727896, "lon": 35.6014996, "tags": {"name": "Kondamet", "place": "village"}}, {"type": "node", "id": 9759322691, "lat": -0.5775555, "lon": 35.5911881, "tags": {"name": "Akiba", "place": "village"}}, {"type": "node", "id": 9759322692, "lat": -0.5790116, "lon": 35.5777028, "tags": {"name": "Konoin", "place": "village"}}, {"type": "node", "id": 9759322693, "lat": -0.5889135, "lon": 35.5813171, "tags": {"name": "Singorwet", "place": "village"}}, {"type": "node", "id": 9759322694, "lat": -0.5757676, "lon": 35.6081736, "tags": {"name": "Kiption", "place": "village"}}, {"type": "node", "id": 9759322695, "lat": -0.5835027, "lon": 35.5965618, "tags": {"name": "Chepkiswet", "place": "village"}}, {"type": "node", "id": 9759322696, "lat": -0.5797673, "lon": 35.6123975, "tags": {"name": "Saoset", "place": "village"}}, {"type": "node", "id": 9759322697, "lat": -0.5864299, "lon": 35.6004997, "tags": {"name": "Kimugul", "place": "village"}}, {"type": "node", "id": 9759322698, "lat": -0.5940734, "lon": 35.5848804, "tags": {"name": "Mulango", "place": "village"}}, {"type": "node", "id": 9759322699, "lat": -0.5885021, "lon": 35.6087121, "tags": {"name": "Kipkebe", "place": "village"}}, {"type": "node", "id": 9759322700, "lat": -0.5958298, "lon": 35.6005484, "tags": {"name": "Sukutek", "place": "village"}}, {"type": "node", "id": 9759322701, "lat": -0.5966195, "lon": 35.5923971, "tags": {"name": "Chepkiswet", "place": "village"}}, {"type": "node", "id": 9759322702, "lat": -0.5987681, "lon": 35.6143704, "tags": {"name": "Sitotwet", "place": "village"}}, {"type": "node", "id": 9759322703, "lat": -0.6078028, "lon": 35.5975291, "tags": {"name": "Kibororwo", "place": "village"}}, {"type": "node", "id": 9759322704, "lat": -0.6086345, "lon": 35.6098215, "tags": {"name": "Kimugul", "place": "village"}}, {"type": "node", "id": 9759322705, "lat": -0.6023294, "lon": 35.6427055, "tags": {"name": "Cheptagum", "place": "village"}}, {"type": "node", "id": 9759322706, "lat": -0.6001402, "lon": 35.6311886, "tags": {"name": "Kondamet", "place": "village"}}, {"type": "node", "id": 9759322707, "lat": -0.6099705, "lon": 35.6176428, "tags": {"name": "Kabugunot", "place": "village"}}, {"type": "node", "id": 9759322708, "lat": -0.61959, "lon": 35.600346, "tags": {"name": "Cheptebes", "place": "village"}}, {"type": "node", "id": 9759322709, "lat": -0.6279775, "lon": 35.5997491, "tags": {"name": "Konoito", "place": "village"}}, {"type": "node", "id": 9759322710, "lat": -0.6162543, "lon": 35.6400025, "tags": {"name": "Simotwet", "place": "village"}}, {"type": "node", "id": 9759322711, "lat": -0.6075392, "lon": 35.6351996, "tags": {"name": "Kipsogon", "place": "village"}}, {"type": "node", "id": 9759322712, "lat": -0.6107252, "lon": 35.6260755, "tags": {"name": "Seger", "place": "village"}}, {"type": "node", "id": 9759322713, "lat": -0.620458, "lon": 35.6195752, "tags": {"name": "Seger Saptenok", "place": "village"}}, {"type": "node", "id": 9759322714, "lat": -0.6291839, "lon": 35.6102163, "tags": {"name": "Emitik", "place": "village"}}, {"type": "node", "id": 9759322715, "lat": -0.6374607, "lon": 35.6010573, "tags": {"name": "Lelchwet", "place": "village"}}, {"type": "node", "id": 9759322716, "lat": -0.6243878, "lon": 35.626546, "tags": {"name": "Tuiyobei A", "place": "village"}}, {"type": "node", "id": 9759323317, "lat": -0.6332546, "lon": 35.6176183, "tags": {"name": "Toiyabei B", "place": "village"}}, {"type": "node", "id": 9759323318, "lat": -0.6412585, "lon": 35.6105192, "tags": {"name": "Kipsunyan", "place": "village"}}, {"type": "node", "id": 9759323319, "lat": -0.644173, "lon": 35.6027556, "tags": {"name": "Kapcheluch", "place": "village"}}, {"type": "node", "id": 9759323320, "lat": -0.6513605, "lon": 35.6090267, "tags": {"name": "Toiyon", "place": "village"}}, {"type": "node", "id": 9759323321, "lat": -0.6592263, "lon": 35.6052536, "tags": {"name": "Chikamba", "place": "village"}}, {"type": "node", "id": 9759352134, "lat": -0.4268728, "lon": 35.6222145, "tags": {"name": "Burgei A", "place": "village"}}, {"type": "node", "id": 9759352135, "lat": -0.4570583, "lon": 35.5738642, "tags": {"name": "Angurwet", "place": "village"}}, {"type": "node", "id": 9759352136, "lat": -0.5079287, "lon": 35.55069, "tags": {"name": "Tirigoi B", "place": "village"}}, {"type": "node", "id": 9759352137, "lat": -0.5248343, "lon": 35.5990194, "tags": {"name": "Kimororoch B", "place": "village"}}, {"type": "node", "id": 9759352138, "lat": -0.5075086, "lon": 35.5741505, "tags": {"name": "Kapkembu Center", "place": "village"}}, {"type": "node", "id": 9759352139, "lat": -0.5221235, "lon": 35.6374329, "tags": {"name": "Kimugul B", "place": "village"}}, {"type": "node", "id": 9759352140, "lat": -0.5163424, "lon": 35.6401951, "tags": {"name": "Kapket C", "place": "village"}}, {"type": "node", "id": 9759352141, "lat": -0.5176406, "lon": 35.6342065, "tags": {"name": "Kapket B", "place": "village"}}, {"type": "node", "id": 9759352142, "lat": -0.508575, "lon": 35.631463, "tags": {"name": "Kapmondoi A", "place": "village"}}, {"type": "node", "id": 9759352143, "lat": -0.5059353, "lon": 35.6379487, "tags": {"name": "Kapmondoi B", "place": "village"}}, {"type": "node", "id": 9759352144, "lat": -0.4952651, "lon": 35.6325921, "tags": {"name": "Karandit", "place": "village"}}, {"type": "node", "id": 9759352145, "lat": -0.4881272, "lon": 35.6447259, "tags": {"name": "Daraja Mungu", "place": "village"}}, {"type": "node", "id": 9759352146, "lat": -0.5105735, "lon": 35.6445972, "tags": {"name": "Kimugul C", "place": "village"}}, {"type": "node", "id": 9759352147, "lat": -0.5075187, "lon": 35.6529344, "tags": {"name": "Kipsotet A", "place": "village"}}, {"type": "node", "id": 9759352148, "lat": -0.5055059, "lon": 35.6562572, "tags": {"name": "Kipsotet D", "place": "village"}}, {"type": "node", "id": 9759352149, "lat": -0.4942138, "lon": 35.6494563, "tags": {"name": "Kipangui", "place": "village"}}, {"type": "node", "id": 9759352150, "lat": -0.5032411, "lon": 35.659518, "tags": {"name": "Kipsotet E", "place": "village"}}, {"type": "node", "id": 9759352151, "lat": -0.4992465, "lon": 35.6616446, "tags": {"name": "Kipsotet B", "place": "village"}}, {"type": "node", "id": 9759352152, "lat": -0.491276, "lon": 35.6560795, "tags": {"name": "Lelsuswon", "place": "village"}}, {"type": "node", "id": 9759352153, "lat": -0.4875085, "lon": 35.6657425, "tags": {"name": "Dongdongit", "place": "village"}}, {"type": "node", "id": 9759352154, "lat": -0.5156161, "lon": 35.6529996, "tags": {"name": "Kimugul A", "place": "village"}}, {"type": "node", "id": 9759352155, "lat": -0.5244405, "lon": 35.6577381, "tags": {"name": "Chepkosigen A", "place": "village"}}, {"type": "node", "id": 9759352156, "lat": -0.5183672, "lon": 35.6637217, "tags": {"name": "Chekosigen C", "place": "village"}}, {"type": "node", "id": 9759352157, "lat": -0.5081868, "lon": 35.668497, "tags": {"name": "Chekosigen B", "place": "village"}}, {"type": "node", "id": 9759352158, "lat": -0.4955053, "lon": 35.6643559, "tags": {"name": "Kipsotet B", "place": "village"}}, {"type": "node", "id": 9759352161, "lat": -0.527142, "lon": 35.6707958, "tags": {"name": "Kaber B", "place": "village"}}, {"type": "node", "id": 9759352165, "lat": -0.5374475, "lon": 35.6714322, "tags": {"name": "Kapchepsoi", "place": "village"}}, {"type": "node", "id": 9759352166, "lat": -0.5327954, "lon": 35.6626729, "tags": {"name": "Kaber A", "place": "village"}}, {"type": "node", "id": 9759352167, "lat": -0.5265507, "lon": 35.6452772, "tags": {"name": "Mergechechet C", "place": "village"}}, {"type": "node", "id": 9759352168, "lat": -0.5280264, "lon": 35.648141, "tags": {"name": "Mergechechet B", "place": "village"}}, {"type": "node", "id": 9759352169, "lat": -0.5345671, "lon": 35.6527176, "tags": {"name": "Kaber C/ Jabber C", "place": "village"}}, {"type": "node", "id": 9759352170, "lat": -0.5348052, "lon": 35.6409696, "tags": {"name": "Mergechechet D", "place": "village"}}, {"type": "node", "id": 9759352171, "lat": -0.5395523, "lon": 35.6367266, "tags": {"name": "Mergechechet A", "place": "village"}}, {"type": "node", "id": 9759352172, "lat": -0.5477853, "lon": 35.619879, "tags": {"name": "Kibuket B", "place": "village"}}, {"type": "node", "id": 9759352173, "lat": -0.5482876, "lon": 35.6248183, "tags": {"name": "Wombutwo", "place": "village"}}, {"type": "node", "id": 9759352174, "lat": -0.5341199, "lon": 35.6340405, "tags": {"name": "Nyabanatet A", "place": "village"}}, {"type": "node", "id": 9759352175, "lat": -0.5263882, "lon": 35.6358609, "tags": {"name": "Tegatnegoi", "place": "village"}}, {"type": "node", "id": 9759352176, "lat": -0.5230689, "lon": 35.631704, "tags": {"name": "Kapket Center", "place": "village"}}, {"type": "node", "id": 9759352177, "lat": -0.5155703, "lon": 35.625772, "tags": {"name": "Tarakwet", "place": "village"}}, {"type": "node", "id": 9759352178, "lat": -0.5188183, "lon": 35.6207554, "tags": {"name": "Kiptorokwo B", "place": "village"}}, {"type": "node", "id": 9759352179, "lat": -0.5020354, "lon": 35.6187483, "tags": {"name": "Kereswa", "place": "village"}}, {"type": "node", "id": 9759352180, "lat": -0.4786102, "lon": 35.6084748, "tags": {"name": "Kapsuswa A", "place": "village"}}, {"type": "node", "id": 9759352181, "lat": -0.4878168, "lon": 35.6061919, "tags": {"name": "Kapsuswa B", "place": "village"}}, {"type": "node", "id": 9759352182, "lat": -0.474255, "lon": 35.6016099, "tags": {"name": "Kapnanda B", "place": "village"}}, {"type": "node", "id": 9759352183, "lat": -0.4873858, "lon": 35.5921016, "tags": {"name": "Kapnanda C", "place": "village"}}, {"type": "node", "id": 9759352184, "lat": -0.4947976, "lon": 35.5954354, "tags": {"name": "Kipwaot A", "place": "village"}}, {"type": "node", "id": 9759352185, "lat": -0.4778338, "lon": 35.5854599, "tags": {"name": "Barao", "place": "village"}}, {"type": "node", "id": 9759352186, "lat": -0.4710149, "lon": 35.5918889, "tags": {"name": "Kaptembwo", "place": "village"}}, {"type": "node", "id": 9759352187, "lat": -0.4646619, "lon": 35.6108276, "tags": {"name": "Ngendap Kirugik", "place": "village"}}, {"type": "node", "id": 9759352188, "lat": -0.4580972, "lon": 35.6151545, "tags": {"name": "Koita B", "place": "village"}}, {"type": "node", "id": 9759352189, "lat": -0.449617, "lon": 35.6196337, "tags": {"name": "Koita A", "place": "village"}}, {"type": "node", "id": 9759352190, "lat": -0.4572457, "lon": 35.6056773, "tags": {"name": "Kapande", "place": "village"}}, {"type": "node", "id": 9759352191, "lat": -0.4441673, "lon": 35.6054007, "tags": {"name": "Kiletien", "place": "village"}}, {"type": "node", "id": 9759352192, "lat": -0.4435036, "lon": 35.6122537, "tags": {"name": "Sigowet", "place": "village"}}, {"type": "node", "id": 9759352193, "lat": -0.4349507, "lon": 35.6101976, "tags": {"name": "Timbilil", "place": "village"}}, {"type": "node", "id": 9759352194, "lat": -0.5026519, "lon": 35.6070205, "tags": {"name": "Kaprengero C", "place": "village"}}, {"type": "node", "id": 9759352195, "lat": -0.4999917, "lon": 35.5974278, "tags": {"name": "Kaprengero B", "place": "village"}}, {"type": "node", "id": 9759352196, "lat": -0.5027423, "lon": 35.5845678, "tags": {"name": "Kimasat", "place": "village"}}, {"type": "node", "id": 9759352197, "lat": -0.5012178, "lon": 35.5775278, "tags": {"name": "Gap", "place": "village"}}, {"type": "node", "id": 9759352198, "lat": -0.4958843, "lon": 35.5782046, "tags": {"name": "Moluo A", "place": "village"}}, {"type": "node", "id": 9759352199, "lat": -0.493862, "lon": 35.5722827, "tags": {"name": "Tuiyopei", "place": "village"}}, {"type": "node", "id": 9759352200, "lat": -0.4805878, "lon": 35.5801634, "tags": {"name": "Kiplebel", "place": "village"}}, {"type": "node", "id": 9759352201, "lat": -0.4677994, "lon": 35.5831647, "tags": {"name": "Marmaro", "place": "village"}}, {"type": "node", "id": 9759352202, "lat": -0.4599312, "lon": 35.5991553, "tags": {"name": "Getyamat", "place": "village"}}, {"type": "node", "id": 9759352203, "lat": -0.4589768, "lon": 35.5912323, "tags": {"name": "Buchechet B", "place": "village"}}, {"type": "node", "id": 9759352204, "lat": -0.4510443, "lon": 35.5972544, "tags": {"name": "Cheptelmet", "place": "village"}}, {"type": "node", "id": 9759352205, "lat": -0.4477753, "lon": 35.6029825, "tags": {"name": "Araret", "place": "village"}}, {"type": "node", "id": 9759352206, "lat": -0.4370754, "lon": 35.6037501, "tags": {"name": "Tangit", "place": "village"}}, {"type": "node", "id": 9759352207, "lat": -0.4320922, "lon": 35.596887, "tags": {"name": "Kapmugeno", "place": "village"}}, {"type": "node", "id": 9759352208, "lat": -0.4205981, "lon": 35.5933124, "tags": {"name": "Ainamoi", "place": "village"}}, {"type": "node", "id": 9759352209, "lat": -0.4182517, "lon": 35.6022142, "tags": {"name": "Tuiyobei", "place": "village"}}, {"type": "node", "id": 9759352210, "lat": -0.4263411, "lon": 35.6064763, "tags": {"name": "Kaplelich", "place": "village"}}, {"type": "node", "id": 9759352211, "lat": -0.4167325, "lon": 35.6114483, "tags": {"name": "Nukiat", "place": "village"}}, {"type": "node", "id": 9759352212, "lat": -0.4089309, "lon": 35.6184123, "tags": {"name": "Tmc", "place": "village"}}, {"type": "node", "id": 9759352213, "lat": -0.4075787, "lon": 35.6102631, "tags": {"name": "Kimugul", "place": "village"}}, {"type": "node", "id": 9759352214, "lat": -0.4101638, "lon": 35.598191, "tags": {"name": "Silibwet", "place": "village"}}, {"type": "node", "id": 9759352215, "lat": -0.4131011, "lon": 35.5805783, "tags": {"name": "Kamwaura Center", "place": "village"}}, {"type": "node", "id": 9759352216, "lat": -0.4365122, "lon": 35.5700949, "tags": {"name": "Kenyerer 2", "place": "village"}}, {"type": "node", "id": 9759357917, "lat": -0.4289773, "lon": 35.5804744, "tags": {"name": "Geticha Staff", "place": "village"}}, {"type": "node", "id": 9759357918, "lat": -0.4215513, "lon": 35.5702072, "tags": {"name": "Jerusalem", "place": "village"}}, {"type": "node", "id": 9759357919, "lat": -0.4203539, "lon": 35.5581118, "tags": {"name": "Kaboisi A", "place": "village"}}, {"type": "node", "id": 9759357920, "lat": -0.4128068, "lon": 35.5622892, "tags": {"name": "Tachas", "place": "village"}}, {"type": "node", "id": 9759357921, "lat": -0.4292478, "lon": 35.5715282, "tags": {"name": "Ekambi", "place": "village"}}, {"type": "node", "id": 9759357922, "lat": -0.4126859, "lon": 35.5706079, "tags": {"name": "Kanyoni", "place": "village"}}, {"type": "node", "id": 9759357923, "lat": -0.4076397, "lon": 35.5660578, "tags": {"name": "Kapndege", "place": "village"}}, {"type": "node", "id": 9759357924, "lat": -0.4571471, "lon": 35.516083, "tags": {"name": "Kamochoimet B", "place": "village"}}, {"type": "node", "id": 9759357925, "lat": -0.3984349, "lon": 35.5676757, "tags": {"name": "Chetagum/Sokomoko", "place": "village"}}, {"type": "node", "id": 9759357926, "lat": -0.3967209, "lon": 35.5621786, "tags": {"name": "Sitoito", "place": "village"}}, {"type": "node", "id": 9759357927, "lat": -0.4031807, "lon": 35.5587086, "tags": {"name": "Kimugul", "place": "village"}}, {"type": "node", "id": 9759357928, "lat": -0.5363937, "lon": 35.6253782, "tags": {"name": "Kibuket A", "place": "village"}}, {"type": "node", "id": 9759357929, "lat": -0.5291002, "lon": 35.631566, "tags": {"name": "Nyabanatet B", "place": "village"}}, {"type": "node", "id": 9759357930, "lat": -0.5279758, "lon": 35.6281693, "tags": {"name": "Kapket A", "place": "village"}}, {"type": "node", "id": 9759357931, "lat": -0.5328812, "lon": 35.6185999, "tags": {"name": "Timbwalo C", "place": "village"}}, {"type": "node", "id": 9759357932, "lat": -0.5279879, "lon": 35.6150069, "tags": {"name": "Mwarubaini B", "place": "village"}}, {"type": "node", "id": 9759357933, "lat": -0.533441, "lon": 35.6047212, "tags": {"name": "Siibo", "place": "village"}}, {"type": "node", "id": 9759357934, "lat": -0.5257332, "lon": 35.610207, "tags": {"name": "Mwarubaini A", "place": "village"}}, {"type": "node", "id": 9759357935, "lat": -0.5204909, "lon": 35.6084168, "tags": {"name": "Kimororoch C", "place": "village"}}, {"type": "node", "id": 9759357936, "lat": -0.5216014, "lon": 35.6183546, "tags": {"name": "Kiptorokwo A", "place": "village"}}, {"type": "node", "id": 9759357937, "lat": -0.5117047, "lon": 35.6057574, "tags": {"name": "Lachakwony", "place": "village"}}, {"type": "node", "id": 9759357938, "lat": -0.506263, "lon": 35.596339, "tags": {"name": "Kaprengero A", "place": "village"}}, {"type": "node", "id": 9759357939, "lat": -0.5108871, "lon": 35.5772349, "tags": {"name": "Kapkembu B", "place": "village"}}, {"type": "node", "id": 9759357940, "lat": -0.5079649, "lon": 35.56766, "tags": {"name": "Kapkoi A", "place": "village"}}, {"type": "node", "id": 9759357941, "lat": -0.503584, "lon": 35.5719659, "tags": {"name": "Kapkembu A", "place": "village"}}, {"type": "node", "id": 9759357942, "lat": -0.4829032, "lon": 35.5750902, "tags": {"name": "Simotewt", "place": "village"}}, {"type": "node", "id": 9759357943, "lat": -0.4856469, "lon": 35.5695405, "tags": {"name": "Kabaon", "place": "village"}}, {"type": "node", "id": 9759357944, "lat": -0.4650376, "lon": 35.5769072, "tags": {"name": "Tagarutik", "place": "village"}}, {"type": "node", "id": 9759357945, "lat": -0.4535493, "lon": 35.588693, "tags": {"name": "Kapsapton", "place": "village"}}, {"type": "node", "id": 9759357946, "lat": -0.4439441, "lon": 35.5914941, "tags": {"name": "Chepalungu", "place": "village"}}, {"type": "node", "id": 9759357947, "lat": -0.4289222, "lon": 35.5841752, "tags": {"name": "Kimugul", "place": "village"}}, {"type": "node", "id": 9759357948, "lat": -0.4472632, "lon": 35.5801357, "tags": {"name": "Angurwet", "place": "village"}}, {"type": "node", "id": 9759357949, "lat": -0.4406603, "lon": 35.5743909, "tags": {"name": "Kenyerer 1", "place": "village"}}, {"type": "node", "id": 9759357950, "lat": -0.4365886, "lon": 35.5646224, "tags": {"name": "Kericho", "place": "village"}}, {"type": "node", "id": 9759357951, "lat": -0.4335778, "lon": 35.5585859, "tags": {"name": "Taita Plantation", "place": "village"}}, {"type": "node", "id": 9759357952, "lat": -0.4295962, "lon": 35.5514029, "tags": {"name": "Rwaget", "place": "village"}}, {"type": "node", "id": 9759357953, "lat": -0.4248562, "lon": 35.5443538, "tags": {"name": "Kabisio B", "place": "village"}}, {"type": "node", "id": 9759357954, "lat": -0.4152972, "lon": 35.5539147, "tags": {"name": "Kiptenden", "place": "village"}}, {"type": "node", "id": 9759357955, "lat": -0.4075263, "lon": 35.554651, "tags": {"name": "Tulwet", "place": "village"}}, {"type": "node", "id": 9759357956, "lat": -0.416175, "lon": 35.546628, "tags": {"name": "Marwa B", "place": "village"}}, {"type": "node", "id": 9759357957, "lat": -0.4363277, "lon": 35.5419599, "tags": {"name": "Sangawet", "place": "village"}}, {"type": "node", "id": 9759357958, "lat": -0.4420577, "lon": 35.5342182, "tags": {"name": "Kiptagoton", "place": "village"}}, {"type": "node", "id": 9759357959, "lat": -0.4465547, "lon": 35.5248887, "tags": {"name": "Chenugu", "place": "village"}}, {"type": "node", "id": 9759357960, "lat": -0.4551636, "lon": 35.5349242, "tags": {"name": "Ngochopta", "place": "village"}}, {"type": "node", "id": 9759357961, "lat": -0.457323, "lon": 35.5301331, "tags": {"name": "Barbaronik", "place": "village"}}, {"type": "node", "id": 9759357962, "lat": -0.4636146, "lon": 35.5233879, "tags": {"name": "Kapno", "place": "village"}}, {"type": "node", "id": 9759357963, "lat": -0.4708472, "lon": 35.5252576, "tags": {"name": "Ngetundo", "place": "village"}}, {"type": "node", "id": 9759357964, "lat": -0.4626716, "lon": 35.5402068, "tags": {"name": "Gurabei", "place": "village"}}, {"type": "node", "id": 9759357965, "lat": -0.4523356, "lon": 35.5389892, "tags": {"name": "Barao", "place": "village"}}, {"type": "node", "id": 9759357966, "lat": -0.4484222, "lon": 35.5429009, "tags": {"name": "Kapcheluch", "place": "village"}}, {"type": "node", "id": 9759357967, "lat": -0.4537301, "lon": 35.5483279, "tags": {"name": "Makicheit", "place": "village"}}, {"type": "node", "id": 9759357968, "lat": -0.4437564, "lon": 35.5525015, "tags": {"name": "Kabembet", "place": "village"}}, {"type": "node", "id": 9759357969, "lat": -0.4448982, "lon": 35.5602763, "tags": {"name": "Taita Trading Center", "place": "village"}}, {"type": "node", "id": 9759357970, "lat": -0.4473844, "lon": 35.5649662, "tags": {"name": "Sairet", "place": "village"}}, {"type": "node", "id": 9759357971, "lat": -0.4520385, "lon": 35.5554072, "tags": {"name": "Kapngorot", "place": "village"}}, {"type": "node", "id": 9759357972, "lat": -0.4638147, "lon": 35.5464029, "tags": {"name": "Tiritim", "place": "village"}}, {"type": "node", "id": 9759357973, "lat": -0.4561512, "lon": 35.5661723, "tags": {"name": "Tilindi", "place": "village"}}, {"type": "node", "id": 9759357974, "lat": -0.4627224, "lon": 35.5653119, "tags": {"name": "Kipyabus", "place": "village"}}, {"type": "node", "id": 9759357975, "lat": -0.4582668, "lon": 35.5573171, "tags": {"name": "Chekongoniet", "place": "village"}}, {"type": "node", "id": 9759357976, "lat": -0.4648164, "lon": 35.5519562, "tags": {"name": "Chepkututa", "place": "village"}}, {"type": "node", "id": 9759357977, "lat": -0.4711158, "lon": 35.5500554, "tags": {"name": "Chepsoet", "place": "village"}}, {"type": "node", "id": 9759357978, "lat": -0.4783236, "lon": 35.5462459, "tags": {"name": "Kabongoi", "place": "village"}}, {"type": "node", "id": 9759357979, "lat": -0.4736654, "lon": 35.5315963, "tags": {"name": "Kiptenden", "place": "village"}}, {"type": "node", "id": 9759357980, "lat": -0.4774765, "lon": 35.5349459, "tags": {"name": "Kaboswa A", "place": "village"}}, {"type": "node", "id": 9759357981, "lat": -0.4775358, "lon": 35.5611893, "tags": {"name": "Kiplobo", "place": "village"}}, {"type": "node", "id": 9759357982, "lat": -0.4685714, "lon": 35.56321, "tags": {"name": "Kimugul", "place": "village"}}, {"type": "node", "id": 9759357983, "lat": -0.4864774, "lon": 35.5569702, "tags": {"name": "Kimotongo", "place": "village"}}, {"type": "node", "id": 9759357984, "lat": -0.4962712, "lon": 35.5522111, "tags": {"name": "Chebirwoibei", "place": "village"}}, {"type": "node", "id": 9759357985, "lat": -0.4952486, "lon": 35.5438594, "tags": {"name": "Tulwapo Ar", "place": "village"}}, {"type": "node", "id": 9759357986, "lat": -0.4881405, "lon": 35.5398738, "tags": {"name": "Ketui", "place": "village"}}, {"type": "node", "id": 9759357987, "lat": -0.4853901, "lon": 35.530925, "tags": {"name": "Kaboswa B", "place": "village"}}, {"type": "node", "id": 9759357988, "lat": -0.4988373, "lon": 35.5607235, "tags": {"name": "Tirigoi", "place": "village"}}, {"type": "node", "id": 9759357989, "lat": -0.497485, "lon": 35.5357639, "tags": {"name": "Busiengiruk", "place": "village"}}, {"type": "node", "id": 9759357990, "lat": -0.5134173, "lon": 35.5466591, "tags": {"name": "Simotwet B", "place": "village"}}, {"type": "node", "id": 9759357991, "lat": -0.5419116, "lon": 35.6148935, "tags": {"name": "Timbwalo B", "place": "village"}}, {"type": "node", "id": 9759357992, "lat": -0.5482077, "lon": 35.6088087, "tags": {"name": "Kurpanyat A", "place": "village"}}, {"type": "node", "id": 9759357993, "lat": -0.5436078, "lon": 35.6051203, "tags": {"name": "Kurpanyat B", "place": "village"}}, {"type": "node", "id": 9759357994, "lat": -0.5227417, "lon": 35.5923993, "tags": {"name": "Kimororoch A", "place": "village"}}, {"type": "node", "id": 9759357995, "lat": -0.5157309, "lon": 35.5887726, "tags": {"name": "Aoon", "place": "village"}}, {"type": "node", "id": 9759357996, "lat": -0.5225556, "lon": 35.5776411, "tags": {"name": "Cheram A", "place": "village"}}, {"type": "node", "id": 9759357997, "lat": -0.5268884, "lon": 35.5705495, "tags": {"name": "Cheram B", "place": "village"}}, {"type": "node", "id": 9759357998, "lat": -0.5172484, "lon": 35.5688582, "tags": {"name": "Kapkoi B", "place": "village"}}, {"type": "node", "id": 9759357999, "lat": -0.5120054, "lon": 35.5623043, "tags": {"name": "Kapsarara", "place": "village"}}, {"type": "node", "id": 9759358000, "lat": -0.5195007, "lon": 35.5540931, "tags": {"name": "Simotwet", "place": "village"}}, {"type": "node", "id": 9759358001, "lat": -0.5270473, "lon": 35.5625546, "tags": {"name": "Lelechwet B", "place": "village"}}, {"type": "node", "id": 9759358002, "lat": -0.5250934, "lon": 35.5578472, "tags": {"name": "Lelechwet A", "place": "village"}}, {"type": "node", "id": 9759358003, "lat": -0.5369596, "lon": 35.5614412, "tags": {"name": "Cheram Suguter", "place": "village"}}, {"type": "node", "id": 9759358004, "lat": -0.5546275, "lon": 35.60545, "tags": {"name": "Timbwalo A", "place": "village"}}, {"type": "node", "id": 9759358005, "lat": -0.5226749, "lon": 35.6436903, "tags": {"name": "Kaptembwo B", "place": "village"}}, {"type": "node", "id": 9770309449, "lat": -0.3372887, "lon": 35.5195707, "tags": {"name": "Tanzania", "place": "village"}}, {"type": "node", "id": 9770309450, "lat": -0.4176552, "lon": 35.506065, "tags": {"name": "Kapsongop", "place": "village"}}, {"type": "node", "id": 9770309451, "lat": -0.4381245, "lon": 35.5174794, "tags": {"name": "Chekoburot North", "place": "village"}}, {"type": "node", "id": 9770309452, "lat": -0.3810973, "lon": 35.5716416, "tags": {"name": "Chebonde", "place": "village"}}, {"type": "node", "id": 9770309453, "lat": -0.3641025, "lon": 35.581193, "tags": {"name": "Soliat", "place": "village"}}, {"type": "node", "id": 9770309454, "lat": -0.3688556, "lon": 35.5660828, "tags": {"name": "Chebonde", "place": "village"}}, {"type": "node", "id": 9770309455, "lat": -0.3716743, "lon": 35.5854386, "tags": {"name": "Arimi Farm", "place": "village"}}, {"type": "node", "id": 9770309456, "lat": -0.3879304, "lon": 35.5656596, "tags": {"name": "Sitoito Centre", "place": "village"}}, {"type": "node", "id": 9770309457, "lat": -0.4038606, "lon": 35.5461666, "tags": {"name": "Ndoinet", "place": "village"}}, {"type": "node", "id": 9770309458, "lat": -0.3939861, "lon": 35.557743, "tags": {"name": "Cheronget/Kamochoge", "place": "village"}}, {"type": "node", "id": 9770309459, "lat": -0.3910876, "lon": 35.5468607, "tags": {"name": "Kabarak", "place": "village"}}, {"type": "node", "id": 9770309460, "lat": -0.3531406, "lon": 35.5656121, "tags": {"name": "Kasarani B", "place": "village"}}, {"type": "node", "id": 9770309461, "lat": -0.3582179, "lon": 35.5550569, "tags": {"name": "Chumbek", "place": "village"}}, {"type": "node", "id": 9770309462, "lat": -0.3518808, "lon": 35.5596698, "tags": {"name": "Kasarani A", "place": "village"}}, {"type": "node", "id": 9770309463, "lat": -0.3718966, "lon": 35.5566232, "tags": {"name": "Cherwot", "place": "village"}}, {"type": "node", "id": 9770309464, "lat": -0.3831548, "lon": 35.5414968, "tags": {"name": "Kiletien", "place": "village"}}, {"type": "node", "id": 9770309465, "lat": -0.377503, "lon": 35.5488544, "tags": {"name": "Tegunot", "place": "village"}}, {"type": "node", "id": 9770309466, "lat": -0.3654796, "lon": 35.5499749, "tags": {"name": "Kapsilibwo", "place": "village"}}, {"type": "node", "id": 9770309467, "lat": -0.3551492, "lon": 35.5467885, "tags": {"name": "Kiprotkorir", "place": "village"}}, {"type": "node", "id": 9770309468, "lat": -0.4451361, "lon": 35.5077729, "tags": {"name": "Chekoburot South", "place": "village"}}, {"type": "node", "id": 9770309469, "lat": -0.4188049, "lon": 35.5355673, "tags": {"name": "Ndoinet South", "place": "village"}}, {"type": "node", "id": 9770309470, "lat": -0.3940629, "lon": 35.5302885, "tags": {"name": "Kaptembwo", "place": "village"}}, {"type": "node", "id": 9770309471, "lat": -0.4041562, "lon": 35.5079991, "tags": {"name": "Kowany", "place": "village"}}, {"type": "node", "id": 9770309472, "lat": -0.4148644, "lon": 35.499542, "tags": {"name": "Bartakatiet", "place": "village"}}, {"type": "node", "id": 9770309473, "lat": -0.3655173, "lon": 35.5404475, "tags": {"name": "Cheptinting B", "place": "village"}}, {"type": "node", "id": 9770309474, "lat": -0.3679004, "lon": 35.4736579, "tags": {"name": "Korabariet", "place": "village"}}, {"type": "node", "id": 9770309475, "lat": -0.4038059, "lon": 35.5350074, "tags": {"name": "Kipsapta", "place": "village"}}, {"type": "node", "id": 9770309476, "lat": -0.4230029, "lon": 35.5239002, "tags": {"name": "Tandora", "place": "village"}}, {"type": "node", "id": 9770309477, "lat": -0.4295753, "lon": 35.5138435, "tags": {"name": "Kiptenden", "place": "village"}}, {"type": "node", "id": 9770309478, "lat": -0.4230686, "lon": 35.5106662, "tags": {"name": "Kimeswon", "place": "village"}}, {"type": "node", "id": 9770309479, "lat": -0.3755533, "lon": 35.5338754, "tags": {"name": "Cheptingting", "place": "village"}}, {"type": "node", "id": 9770309480, "lat": -0.3780826, "lon": 35.4672529, "tags": {"name": "Kapkesek", "place": "village"}}, {"type": "node", "id": 9770309481, "lat": -0.3709981, "lon": 35.4799139, "tags": {"name": "Motogir", "place": "village"}}, {"type": "node", "id": 9770309482, "lat": -0.3669767, "lon": 35.4588221, "tags": {"name": "Kibara", "place": "village"}}, {"type": "node", "id": 9770309483, "lat": -0.3559153, "lon": 35.468204, "tags": {"name": "Seretiot", "place": "village"}}, {"type": "node", "id": 9770309484, "lat": -0.3781208, "lon": 35.4846612, "tags": {"name": "Chepkosa", "place": "village"}}, {"type": "node", "id": 9770309485, "lat": -0.3681623, "lon": 35.4898103, "tags": {"name": "Chemare West", "place": "village"}}, {"type": "node", "id": 9770309486, "lat": -0.3593213, "lon": 35.4916524, "tags": {"name": "Chemare East", "place": "village"}}, {"type": "node", "id": 9770309487, "lat": -0.3681529, "lon": 35.5005206, "tags": {"name": "Kipleplep", "place": "village"}}, {"type": "node", "id": 9770309488, "lat": -0.3893019, "lon": 35.4727784, "tags": {"name": "Kesigenik", "place": "village"}}, {"type": "node", "id": 9770309489, "lat": -0.3911404, "lon": 35.4799715, "tags": {"name": "Cheptemonok", "place": "village"}}, {"type": "node", "id": 9770309490, "lat": -0.3822838, "lon": 35.4940705, "tags": {"name": "Korongoi", "place": "village"}}, {"type": "node", "id": 9770309491, "lat": -0.363307, "lon": 35.5105712, "tags": {"name": "Sugutek", "place": "village"}}, {"type": "node", "id": 9770309492, "lat": -0.3523853, "lon": 35.5076867, "tags": {"name": "Segutioyoi", "place": "village"}}, {"type": "node", "id": 9770309493, "lat": -0.3719101, "lon": 35.5132969, "tags": {"name": "Kiptororo B", "place": "village"}}, {"type": "node", "id": 9770309494, "lat": -0.3693843, "lon": 35.5222869, "tags": {"name": "Nyonyi", "place": "village"}}, {"type": "node", "id": 9770309495, "lat": -0.3561872, "lon": 35.520048, "tags": {"name": "Saino", "place": "village"}}, {"type": "node", "id": 9770309496, "lat": -0.3818765, "lon": 35.5108672, "tags": {"name": "Kiptororo A", "place": "village"}}, {"type": "node", "id": 9770309497, "lat": -0.3906833, "lon": 35.5018589, "tags": {"name": "Liteito", "place": "village"}}, {"type": "node", "id": 9770309498, "lat": -0.391995, "lon": 35.5111898, "tags": {"name": "Olguit", "place": "village"}}, {"type": "node", "id": 9770309499, "lat": -0.3993278, "lon": 35.4937573, "tags": {"name": "Kipkoris B", "place": "village"}}, {"type": "node", "id": 9770309500, "lat": -0.4028108, "lon": 35.4823475, "tags": {"name": "Kipkoris A", "place": "village"}}, {"type": "node", "id": 9770309501, "lat": -0.4149951, "lon": 35.4894367, "tags": {"name": "Kures", "place": "village"}}, {"type": "node", "id": 9770309502, "lat": -0.432422, "lon": 35.4986145, "tags": {"name": "Tirita", "place": "village"}}, {"type": "node", "id": 9770309503, "lat": -0.411076, "lon": 35.5208876, "tags": {"name": "Sachangwan", "place": "village"}}, {"type": "node", "id": 9770309504, "lat": -0.3845967, "lon": 35.5230386, "tags": {"name": "Sisiyat", "place": "village"}}, {"type": "node", "id": 9770309505, "lat": -0.400129, "lon": 35.5188089, "tags": {"name": "Kiplongony", "place": "village"}}, {"type": "node", "id": 9770309506, "lat": -0.3575958, "lon": 35.5308051, "tags": {"name": "Simotwet", "place": "village"}}, {"type": "node", "id": 9770309507, "lat": -0.3435577, "lon": 35.5242619, "tags": {"name": "Kapsingoi", "place": "village"}}, {"type": "node", "id": 9770309508, "lat": -0.3517966, "lon": 35.5007852, "tags": {"name": "Kipkoimet", "place": "village"}}, {"type": "node", "id": 9770309509, "lat": -0.3469544, "lon": 35.4913899, "tags": {"name": "Kondamet", "place": "village"}}, {"type": "node", "id": 9770309510, "lat": -0.3532389, "lon": 35.4581085, "tags": {"name": "Arorwet", "place": "village"}}, {"type": "node", "id": 9770309515, "lat": -0.3314631, "lon": 35.4828946, "tags": {"name": "Kaptembwo", "place": "village"}}, {"type": "node", "id": 9770309516, "lat": -0.3368597, "lon": 35.4767052, "tags": {"name": "Chorwa", "place": "village"}}, {"type": "node", "id": 9770337317, "lat": -0.3327272, "lon": 35.4943374, "tags": {"name": "Kipkewa Dip", "place": "village"}}, {"type": "node", "id": 9770337318, "lat": -0.3290316, "lon": 35.4894973, "tags": {"name": "Kipkewa B", "place": "village"}}, {"type": "node", "id": 9770337320, "lat": -0.3450732, "lon": 35.4786177, "tags": {"name": "Chepitoik", "place": "village"}}, {"type": "node", "id": 9770337332, "lat": -0.3295682, "lon": 35.5109814, "tags": {"name": "Ogilgei B", "place": "village"}}, {"type": "node", "id": 9770337333, "lat": -0.3385165, "lon": 35.5045813, "tags": {"name": "Burgei", "place": "village"}}, {"type": "node", "id": 9770337334, "lat": -0.3376021, "lon": 35.4917558, "tags": {"name": "Nagiririet", "place": "village"}}, {"type": "node", "id": 9770337335, "lat": -0.331965, "lon": 35.5554379, "tags": {"name": "Asanyo B", "place": "village"}}, {"type": "node", "id": 9770337336, "lat": -0.3322606, "lon": 35.5275706, "tags": {"name": "Kiptere", "place": "village"}}, {"type": "node", "id": 9770337337, "lat": -0.3271226, "lon": 35.522632, "tags": {"name": "Bochege Central", "place": "village"}}, {"type": "node", "id": 9770337339, "lat": -0.3394187, "lon": 35.5139383, "tags": {"name": "Nyabitongo", "place": "village"}}, {"type": "node", "id": 9770337340, "lat": -0.3321711, "lon": 35.5431376, "tags": {"name": "Kongoi Primary", "place": "village"}}, {"type": "node", "id": 9770337341, "lat": -0.341484, "lon": 35.5363092, "tags": {"name": "Kapnandi", "place": "village"}}, {"type": "node", "id": 9770337342, "lat": -0.3435975, "lon": 35.5436062, "tags": {"name": "Kiptenden", "place": "village"}}, {"type": "node", "id": 9770337343, "lat": -0.3496241, "lon": 35.5508241, "tags": {"name": "Sosiot", "place": "village"}}, {"type": "node", "id": 9770337344, "lat": -0.3435607, "lon": 35.5514922, "tags": {"name": "Mororbei", "place": "village"}}, {"type": "node", "id": 9770337345, "lat": -0.3472268, "lon": 35.5594551, "tags": {"name": "Cheborge", "place": "village"}}, {"type": "node", "id": 9770337346, "lat": -0.341126, "lon": 35.5661237, "tags": {"name": "Kamungei", "place": "village"}}, {"type": "node", "id": 9770337347, "lat": -0.3373552, "lon": 35.554494, "tags": {"name": "Kapsaos", "place": "village"}}, {"type": "node", "id": 9770337348, "lat": -0.3270573, "lon": 35.5407829, "tags": {"name": "Kongoi / Dairy B", "place": "village"}}, {"type": "node", "id": 9770337353, "lat": -0.3274649, "lon": 35.5336112, "tags": {"name": "Kabarak", "place": "village"}}, {"type": "node", "id": 9770337354, "lat": -0.4100565, "lon": 35.5284626, "tags": {"name": "Sachangwan Kimugul", "place": "village"}}, {"type": "node", "id": 9770337355, "lat": -0.3571559, "lon": 35.4787084, "tags": {"name": "Tumuiyot", "place": "village"}}, {"type": "node", "id": 9770337356, "lat": -0.4329656, "lon": 35.5302017, "tags": {"name": "Kiptenden", "place": "village"}}, {"type": "node", "id": 9770425941, "lat": -0.3456794, "lon": 35.5954551, "tags": {"name": "Temoyetta 4", "place": "village"}}, {"type": "node", "id": 9770425942, "lat": -0.3690142, "lon": 35.5968714, "tags": {"name": "Temoyetta 1", "place": "village"}}, {"type": "node", "id": 9770425943, "lat": -0.3471447, "lon": 35.6730215, "tags": {"name": "Nursery", "place": "village"}}, {"type": "node", "id": 9770425947, "lat": -0.3270553, "lon": 35.5469235, "tags": {"name": "Tery", "place": "village"}}, {"type": "node", "id": 9770425949, "lat": -0.3376898, "lon": 35.6282939, "tags": {"name": "Temoyetta Centre", "place": "village"}}, {"type": "node", "id": 9770425950, "lat": -0.3432196, "lon": 35.6213943, "tags": {"name": "Kenjoket", "place": "village"}}, {"type": "node", "id": 9770425955, "lat": -0.3376971, "lon": 35.6115956, "tags": {"name": "Ngarua", "place": "village"}}, {"type": "node", "id": 9770425956, "lat": -0.3501851, "lon": 35.5803757, "tags": {"name": "Kimenderit", "place": "village"}}, {"type": "node", "id": 9770425957, "lat": -0.3588251, "lon": 35.5962963, "tags": {"name": "Chepkinoiyo Centre", "place": "village"}}, {"type": "node", "id": 9770425959, "lat": -0.3843612, "lon": 35.6551013, "tags": {"name": "Langwendat Centre", "place": "village"}}, {"type": "node", "id": 9770425960, "lat": -0.3884799, "lon": 35.6617312, "tags": {"name": "Tuiyobei", "place": "village"}}, {"type": "node", "id": 9770425962, "lat": -0.3407155, "lon": 35.6681162, "tags": {"name": "Wakagunda", "place": "village"}}, {"type": "node", "id": 9770425963, "lat": -0.3439951, "lon": 35.6701252, "tags": {"name": "Wangaruro", "place": "village"}}, {"type": "node", "id": 9770425964, "lat": -0.3401343, "lon": 35.6640207, "tags": {"name": "Willa", "place": "village"}}, {"type": "node", "id": 9770425965, "lat": -0.3548665, "lon": 35.6603957, "tags": {"name": "Glassland", "place": "village"}}, {"type": "node", "id": 9770425968, "lat": -0.3551474, "lon": 35.6662765, "tags": {"name": "Almasa", "place": "village"}}, {"type": "node", "id": 9770425969, "lat": -0.3599837, "lon": 35.6715864, "tags": {"name": "Munanda", "place": "village"}}, {"type": "node", "id": 9770425972, "lat": -0.3622462, "lon": 35.6693964, "tags": {"name": "Kahuho", "place": "village"}}, {"type": "node", "id": 9770425974, "lat": -0.3414387, "lon": 35.5823517, "tags": {"name": "Silibonik", "place": "village"}}, {"type": "node", "id": 9770425992, "lat": -0.3329047, "lon": 35.5683519, "tags": {"name": "Kiptenden", "place": "village"}}, {"type": "node", "id": 9770425993, "lat": -0.3364682, "lon": 35.5738493, "tags": {"name": "Kimugul", "place": "village"}}, {"type": "node", "id": 9770425994, "lat": -0.3327928, "lon": 35.5814792, "tags": {"name": "Haraka B", "place": "village"}}, {"type": "node", "id": 9770425995, "lat": -0.3897662, "lon": 35.576641, "tags": {"name": "Cheptagum", "place": "village"}}, {"type": "node", "id": 9770425996, "lat": -0.3862731, "lon": 35.5912521, "tags": {"name": "Tebere", "place": "village"}}, {"type": "node", "id": 9770425997, "lat": -0.3808989, "lon": 35.586995, "tags": {"name": "Arimi B", "place": "village"}}, {"type": "node", "id": 9770425998, "lat": -0.3816733, "lon": 35.6022081, "tags": {"name": "Mutukanio", "place": "village"}}, {"type": "node", "id": 9770425999, "lat": -0.388366, "lon": 35.6084899, "tags": {"name": "Kimugul", "place": "village"}}, {"type": "node", "id": 9770426000, "lat": -0.3943408, "lon": 35.5961972, "tags": {"name": "Murgiyeny No. 3", "place": "village"}}, {"type": "node", "id": 9770426001, "lat": -0.4035464, "lon": 35.5869054, "tags": {"name": "Lelaitich", "place": "village"}}, {"type": "node", "id": 9770426002, "lat": -0.4111043, "lon": 35.5803259, "tags": {"name": "Kamwaura Centre", "place": "village"}}, {"type": "node", "id": 9770426003, "lat": -0.4040098, "lon": 35.5991782, "tags": {"name": "Boron", "place": "village"}}, {"type": "node", "id": 9770426004, "lat": -0.3943719, "lon": 35.6169993, "tags": {"name": "Ikumbi Nyakinyua", "place": "village"}}, {"type": "node", "id": 9770426010, "lat": -0.3419076, "lon": 35.6308199, "tags": {"name": "Muoroto", "place": "village"}}, {"type": "node", "id": 9770426011, "lat": -0.3700073, "lon": 35.6101509, "tags": {"name": "Murgiyeny No 1", "place": "village"}}, {"type": "node", "id": 9770426012, "lat": -0.3523566, "lon": 35.6272583, "tags": {"name": "Kenjoketty", "place": "village"}}, {"type": "node", "id": 9770426013, "lat": -0.3576205, "lon": 35.6083171, "tags": {"name": "Tegat", "place": "village"}}, {"type": "node", "id": 9770426014, "lat": -0.3756574, "lon": 35.6186534, "tags": {"name": "Nyongores", "place": "village"}}, {"type": "node", "id": 9770426015, "lat": -0.3637042, "lon": 35.6219789, "tags": {"name": "Karandi", "place": "village"}}, {"type": "node", "id": 9770426016, "lat": -0.3367396, "lon": 35.660514, "tags": {"name": "Masimba", "place": "village"}}, {"type": "node", "id": 9770434619, "lat": -0.3585915, "lon": 35.6409615, "tags": {"name": "Githiriga", "place": "village"}}, {"type": "node", "id": 9770434620, "lat": -0.3741175, "lon": 35.6333957, "tags": {"name": "Moteme", "place": "village"}}, {"type": "node", "id": 9770434621, "lat": -0.3857302, "lon": 35.6279153, "tags": {"name": "Matunda", "place": "village"}}, {"type": "node", "id": 9770434636, "lat": -0.4143334, "lon": 35.6260218, "tags": {"name": "Chemorut", "place": "village"}}, {"type": "node", "id": 9770434637, "lat": -0.419638, "lon": 35.6308973, "tags": {"name": "Chesirikwa Centre", "place": "village"}}, {"type": "node", "id": 9770434638, "lat": -0.4308144, "lon": 35.6284417, "tags": {"name": "Kamungei", "place": "village"}}, {"type": "node", "id": 9770434639, "lat": -0.4233885, "lon": 35.6348943, "tags": {"name": "Saboi", "place": "village"}}, {"type": "node", "id": 9770434640, "lat": -0.4154202, "lon": 35.6522277, "tags": {"name": "Tarakwa", "place": "village"}}, {"type": "node", "id": 9770434641, "lat": -0.4136816, "lon": 35.6438349, "tags": {"name": "Tendwet", "place": "village"}}, {"type": "node", "id": 9770434642, "lat": -0.4083242, "lon": 35.6605243, "tags": {"name": "Kapsir", "place": "village"}}, {"type": "node", "id": 9770434643, "lat": -0.3990951, "lon": 35.6616272, "tags": {"name": "Burgei B", "place": "village"}}, {"type": "node", "id": 9770434644, "lat": -0.3952234, "lon": 35.6487764, "tags": {"name": "Arorwet", "place": "village"}}, {"type": "node", "id": 9770434645, "lat": -0.3768182, "lon": 35.655215, "tags": {"name": "Bondet", "place": "village"}}, {"type": "node", "id": 9770434646, "lat": -0.4028905, "lon": 35.6316042, "tags": {"name": "Emkwen", "place": "village"}}, {"type": "node", "id": 9770434647, "lat": -0.3847995, "lon": 35.6430135, "tags": {"name": "Kimugul", "place": "village"}}, {"type": "node", "id": 9770434648, "lat": -0.3772319, "lon": 35.6423321, "tags": {"name": "Kiptenden", "place": "village"}}, {"type": "node", "id": 9770434649, "lat": -0.3816123, "lon": 35.6664535, "tags": {"name": "Tembwo", "place": "village"}}, {"type": "node", "id": 9770434650, "lat": -0.3746842, "lon": 35.6661838, "tags": {"name": "Silibwet", "place": "village"}}, {"type": "node", "id": 9770434651, "lat": -0.3688831, "lon": 35.6621941, "tags": {"name": "Tulwet", "place": "village"}}, {"type": "node", "id": 9770434652, "lat": -0.3669259, "lon": 35.6523446, "tags": {"name": "Kondamet", "place": "village"}}, {"type": "node", "id": 9770434653, "lat": -0.3669598, "lon": 35.6451142, "tags": {"name": "Glassland", "place": "village"}}, {"type": "node", "id": 9770434655, "lat": -0.3270117, "lon": 35.6299827, "tags": {"name": "Temoyetta 2 A", "place": "village"}}, {"type": "node", "id": 9770434656, "lat": -0.3268764, "lon": 35.6414388, "tags": {"name": "Rwangondu/Kasarani/Camp David", "place": "village"}}, {"type": "node", "id": 9770434657, "lat": -0.3332863, "lon": 35.6512696, "tags": {"name": "Kimkasa", "place": "village"}}, {"type": "node", "id": 9770434658, "lat": -0.3975506, "lon": 35.5788324, "tags": {"name": "Moyegat", "place": "village"}}, {"type": "node", "id": 9770434659, "lat": -0.4223872, "lon": 35.6183527, "tags": {"name": "Kugeron", "place": "village"}}, {"type": "node", "id": 9770434661, "lat": -0.4066571, "lon": 35.6732733, "tags": {"name": "Masibun A", "place": "village"}}, {"type": "node", "id": 9770434662, "lat": -0.4375324, "lon": 35.6199105, "tags": {"name": "Kapnandi", "place": "village"}}, {"type": "node", "id": 10223314887, "lat": -0.5250922, "lon": 35.6311707, "tags": {"name": "Kapket centre", "place": "locality"}}, {"type": "node", "id": 10223314890, "lat": -0.5737311, "lon": 35.6154386, "tags": {"name": "Kiptagich centre", "place": "locality"}}, {"type": "node", "id": 10223314891, "lat": -0.57646, "lon": 35.6541268, "tags": {"name": "Irongo centre", "place": "locality"}}, {"type": "node", "id": 10223314892, "lat": -0.5817573, "lon": 35.6493109, "tags": {"name": "Cheptuech centre", "place": "locality"}}, {"type": "node", "id": 10223314893, "lat": -0.5859309, "lon": 35.6671299, "tags": {"name": "Network centre", "place": "locality"}}, {"type": "node", "id": 10223314894, "lat": -0.6204434, "lon": 35.6517188, "tags": {"name": "Ambusket centre", "place": "locality"}}, {"type": "node", "id": 10223377409, "lat": -0.6201791, "lon": 35.6520963, "tags": {"name": "Ambosket centre", "place": "locality"}}, {"type": "node", "id": 10223377414, "lat": -0.6627363, "lon": 35.6368184, "tags": {"name": "Soweto centre", "place": "locality"}}, {"type": "node", "id": 10223382328, "lat": -0.645679, "lon": 35.6724285, "tags": {"name": "Nyambugo centre", "place": "locality"}}, {"type": "node", "id": 10223442924, "lat": -0.4461433, "lon": 35.5593967, "tags": {"name": "Taita centre", "place": "locality"}}, {"type": "node", "id": 10223442933, "lat": -0.5077577, "lon": 35.5735324, "tags": {"name": "Kapkembu centre", "place": "locality"}}, {"type": "node", "id": 10223442937, "lat": -0.5215189, "lon": 35.6318864, "tags": {"name": "Kapkeet centre", "place": "locality"}}, {"type": "node", "id": 10223442941, "lat": -0.5050759, "lon": 35.6703295, "tags": {"name": "Chepkosigen centre", "place": "locality"}}, {"type": "way", "id": 624664593, "nodes": [5898719022, 5898719023, 5898719024, 5898719025, 5898719026, 5898719027, 5898719022], "tags": {"place": "square"}}]}