{"version": 0.6, "generator": "Overpass API 0.7.62.1 084b4234", "osm3s": {"timestamp_osm_base": "2024-09-30T22:46:26Z", "copyright": "The data included in this document is from www.openstreetmap.org. The data is made available under ODbL."}, "elements": [{"type": "node", "id": 1104339265, "lat": 8.1750798, "lon": 37.5733515, "tags": {"name": "Abelti", "place": "village"}}, {"type": "node", "id": 1104352005, "lat": 8.1290933, "lon": 37.4924775, "tags": {"name": "Kumbi", "place": "village"}}, {"type": "node", "id": 1150698117, "lat": 8.35, "lon": 37.41667, "tags": {"is_in:country": "Ethiopia", "is_in:country_code": "ET", "name": "Ali", "place": "locality", "source": "GeoDatabase"}}, {"type": "node", "id": 1150882518, "lat": 8.25, "lon": 37.53333, "tags": {"is_in:country": "Ethiopia", "is_in:country_code": "ET", "name": "Medale Shet'", "place": "locality", "source": "GeoDatabase"}}, {"type": "node", "id": 1150883278, "lat": 8.06667, "lon": 37.53333, "tags": {"is_in:country": "Ethiopia", "is_in:country_code": "ET", "name": "Sedeta", "place": "locality", "source": "GeoDatabase"}}, {"type": "node", "id": 1150885015, "lat": 8.26667, "lon": 37.25, "tags": {"is_in:country": "Ethiopia", "is_in:country_code": "ET", "name": "Hola", "place": "locality", "source": "GeoDatabase"}}, {"type": "node", "id": 1150885562, "lat": 8.2, "lon": 37.26667, "tags": {"is_in:country": "Ethiopia", "is_in:country_code": "ET", "name": "Urufa", "place": "locality", "source": "GeoDatabase"}}, {"type": "node", "id": 1150886391, "lat": 8.31667, "lon": 37.56666, "tags": {"is_in:country": "Ethiopia", "is_in:country_code": "ET", "name": "Fite", "place": "locality", "source": "GeoDatabase"}}, {"type": "node", "id": 1150886803, "lat": 8.36667, "lon": 37.31666, "tags": {"is_in:country": "Ethiopia", "is_in:country_code": "ET", "name": "Keta Wayu", "place": "locality", "source": "GeoDatabase"}}, {"type": "node", "id": 1150887375, "lat": 8.18333, "lon": 37.53333, "tags": {"is_in:country": "Ethiopia", "is_in:country_code": "ET", "name": "Abelt", "place": "locality", "source": "GeoDatabase"}}, {"type": "node", "id": 1150887941, "lat": 8.16667, "lon": 37.56666, "tags": {"is_in:country": "Ethiopia", "is_in:country_code": "ET", "name": "Abelti Abo Bete Kristiyan", "place": "locality", "source": "GeoDatabase"}}, {"type": "node", "id": 1150891824, "lat": 8.23333, "lon": 37.41667, "tags": {"is_in:country": "Ethiopia", "is_in:country_code": "ET", "name": "Kobi", "place": "locality", "source": "GeoDatabase"}}, {"type": "node", "id": 1150892017, "lat": 8.41667, "lon": 37.6, "tags": {"is_in:country": "Ethiopia", "is_in:country_code": "ET", "name": "Ilala Bota", "place": "locality", "source": "GeoDatabase"}}, {"type": "node", "id": 1150898126, "lat": 8.1, "lon": 37.53333, "tags": {"is_in:country": "Ethiopia", "is_in:country_code": "ET", "name": "Manetti", "place": "locality", "source": "GeoDatabase"}}, {"type": "node", "id": 1150898421, "lat": 8.33333, "lon": 37.28333, "tags": {"is_in:country": "Ethiopia", "is_in:country_code": "ET", "name": "Ueca", "place": "locality", "source": "GeoDatabase"}}, {"type": "node", "id": 1150899193, "lat": 8.13333, "lon": 37.6, "tags": {"is_in:country": "Ethiopia", "is_in:country_code": "ET", "name": "Gotham", "place": "locality", "source": "GeoDatabase"}}, {"type": "node", "id": 1150901749, "lat": 8.18333, "lon": 37.58333, "tags": {"is_in:country": "Ethiopia", "is_in:country_code": "ET", "name": "Ali", "place": "locality", "source": "GeoDatabase"}}, {"type": "node", "id": 1150902090, "lat": 8.3, "lon": 37.51667, "tags": {"is_in:country": "Ethiopia", "is_in:country_code": "ET", "name": "Borale", "place": "locality", "source": "GeoDatabase"}}, {"type": "node", "id": 1150902748, "lat": 8.1, "lon": 37.5, "tags": {"is_in:country": "Ethiopia", "is_in:country_code": "ET", "name": "Andode", "place": "locality", "source": "GeoDatabase"}}, {"type": "node", "id": 1150905345, "lat": 8.46667, "lon": 37.51667, "tags": {"is_in:country": "Ethiopia", "is_in:country_code": "ET", "name": "Nano", "place": "locality", "source": "GeoDatabase"}}, {"type": "node", "id": 1150908486, "lat": 8.25, "lon": 37.25, "tags": {"is_in:country": "Ethiopia", "is_in:country_code": "ET", "name": "Abeyi", "place": "locality", "source": "GeoDatabase"}}, {"type": "node", "id": 1150911369, "lat": 8.15, "lon": 37.41667, "tags": {"is_in:country": "Ethiopia", "is_in:country_code": "ET", "name": "Ushane", "place": "locality", "source": "GeoDatabase"}}, {"type": "node", "id": 1150914148, "lat": 8.15, "lon": 37.6, "tags": {"is_in:country": "Ethiopia", "is_in:country_code": "ET", "name": "Kewir Shet'", "place": "locality", "source": "GeoDatabase"}}, {"type": "node", "id": 1150919198, "lat": 8.11667, "lon": 37.33333, "tags": {"is_in:country": "Ethiopia", "is_in:country_code": "ET", "name": "Bahur", "place": "locality", "source": "GeoDatabase"}}, {"type": "node", "id": 1150921398, "lat": 8.21667, "lon": 37.46667, "tags": {"is_in:country": "Ethiopia", "is_in:country_code": "ET", "name": "Kobota", "place": "locality", "source": "GeoDatabase"}}, {"type": "node", "id": 1150921489, "lat": 8.16667, "lon": 37.35, "tags": {"is_in:country": "Ethiopia", "is_in:country_code": "ET", "name": "Set'O", "place": "locality", "source": "GeoDatabase"}}, {"type": "node", "id": 1150923381, "lat": 8.41667, "lon": 37.51667, "tags": {"is_in:country": "Ethiopia", "is_in:country_code": "ET", "name": "Darge Shet'", "place": "locality", "source": "GeoDatabase"}}, {"type": "node", "id": 1150923525, "lat": 8.31667, "lon": 37.46667, "tags": {"is_in:country": "Ethiopia", "is_in:country_code": "ET", "name": "Dadele Shet'", "place": "locality", "source": "GeoDatabase"}}, {"type": "node", "id": 1150923579, "lat": 8.28333, "lon": 37.53333, "tags": {"is_in:country": "Ethiopia", "is_in:country_code": "ET", "name": "Monte Colba", "place": "locality", "source": "GeoDatabase"}}, {"type": "node", "id": 1150929543, "lat": 8.13333, "lon": 37.48333, "tags": {"is_in:country": "Ethiopia", "is_in:country_code": "ET", "name": "Gumbi", "place": "locality", "source": "GeoDatabase"}}, {"type": "node", "id": 1150931748, "lat": 8.28333, "lon": 37.35, "tags": {"is_in:country": "Ethiopia", "is_in:country_code": "ET", "name": "Botor", "place": "locality", "source": "GeoDatabase"}}, {"type": "node", "id": 1150932620, "lat": 8.06667, "lon": 37.36667, "tags": {"is_in:country": "Ethiopia", "is_in:country_code": "ET", "name": "Algo", "place": "locality", "source": "GeoDatabase"}}, {"type": "node", "id": 1150935102, "lat": 8.33333, "lon": 37.56666, "tags": {"is_in:country": "Ethiopia", "is_in:country_code": "ET", "name": "Rome Shet'", "place": "locality", "source": "GeoDatabase"}}, {"type": "node", "id": 1150935203, "lat": 8.21667, "lon": 37.61667, "tags": {"is_in:country": "Ethiopia", "is_in:country_code": "ET", "name": "Uabi", "place": "locality", "source": "GeoDatabase"}}, {"type": "node", "id": 1150938953, "lat": 8.3, "lon": 37.55, "tags": {"is_in:country": "Ethiopia", "is_in:country_code": "ET", "name": "Nacha", "place": "locality", "source": "GeoDatabase"}}, {"type": "node", "id": 1150943561, "lat": 8.18333, "lon": 37.28333, "tags": {"is_in:country": "Ethiopia", "is_in:country_code": "ET", "name": "Monte Micciu", "place": "locality", "source": "GeoDatabase"}}, {"type": "node", "id": 1150945579, "lat": 8.46667, "lon": 37.53333, "tags": {"is_in:country": "Ethiopia", "is_in:country_code": "ET", "name": "Sebu Shet'", "place": "locality", "source": "GeoDatabase"}}, {"type": "node", "id": 1150963302, "lat": 8.3665585, "lon": 37.2746804, "tags": {"is_in:country": "Ethiopia", "is_in:country_code": "ET", "name": "Botor Becho", "place": "village"}}, {"type": "node", "id": 1150973445, "lat": 8.16667, "lon": 37.53333, "tags": {"is_in:country": "Ethiopia", "is_in:country_code": "ET", "name": "Bede", "place": "locality", "source": "GeoDatabase"}}, {"type": "node", "id": 1150974010, "lat": 8.31667, "lon": 37.33333, "tags": {"is_in:country": "Ethiopia", "is_in:country_code": "ET", "name": "Tincio", "place": "locality", "source": "GeoDatabase"}}, {"type": "node", "id": 1150974885, "lat": 8.4, "lon": 37.6, "tags": {"is_in:country": "Ethiopia", "is_in:country_code": "ET", "name": "Ilala", "place": "locality", "source": "GeoDatabase"}}, {"type": "node", "id": 1150978634, "lat": 8.41667, "lon": 37.26667, "tags": {"is_in:country": "Ethiopia", "is_in:country_code": "ET", "name": "Egan", "place": "locality", "source": "GeoDatabase"}}, {"type": "node", "id": 1151003813, "lat": 8.06667, "lon": 37.5, "tags": {"is_in:country": "Ethiopia", "is_in:country_code": "ET", "name": "Kofta", "place": "locality", "source": "GeoDatabase"}}, {"type": "node", "id": 1151004692, "lat": 8.25, "lon": 37.33333, "tags": {"is_in:country": "Ethiopia", "is_in:country_code": "ET", "name": "Giangero", "place": "locality", "source": "GeoDatabase"}}, {"type": "node", "id": 1975266569, "lat": 8.3682146, "lon": 37.3371175, "tags": {"place": "village"}}, {"type": "node", "id": 1975288770, "lat": 8.1960338, "lon": 37.3315653, "tags": {"place": "village"}}, {"type": "node", "id": 1975289485, "lat": 8.3084714, "lon": 37.3642952, "tags": {"place": "town"}}, {"type": "node", "id": 1975362864, "lat": 8.4452476, "lon": 37.4164537, "tags": {"place": "town"}}, {"type": "node", "id": 2155925475, "lat": 8.4220491, "lon": 37.5212081, "tags": {"name": "Giundu", "place": "town"}}, {"type": "node", "id": 2155944920, "lat": 8.324194, "lon": 37.590388, "tags": {"place": "village"}}]}