{"version": 0.6, "generator": "Overpass API 0.7.62.1 084b4234", "osm3s": {"timestamp_osm_base": "2024-09-30T23:01:43Z", "copyright": "The data included in this document is from www.openstreetmap.org. The data is made available under ODbL."}, "elements": [{"type": "node", "id": 316869863, "lat": 9.3966258, "lon": 41.560351, "tags": {"name": "Chelenko", "place": "town", "source": "GPS"}}, {"type": "node", "id": 1150881128, "lat": 9.16611, "lon": 41.62583, "tags": {"is_in:country": "Ethiopia", "is_in:country_code": "ET", "name": "Boso Shet'", "place": "locality", "source": "GeoDatabase"}}, {"type": "node", "id": 1150881203, "lat": 9.03944, "lon": 41.80111, "tags": {"is_in:country": "Ethiopia", "is_in:country_code": "ET", "name": "Tembo", "place": "locality", "source": "GeoDatabase"}}, {"type": "node", "id": 1150881757, "lat": 9.35694, "lon": 41.69472, "tags": {"is_in:country": "Ethiopia", "is_in:country_code": "ET", "name": "Eledge", "place": "locality", "source": "GeoDatabase"}}, {"type": "node", "id": 1150881781, "lat": 9.36972, "lon": 41.68917, "tags": {"is_in:country": "Ethiopia", "is_in:country_code": "ET", "name": "Gerad", "place": "locality", "source": "GeoDatabase"}}, {"type": "node", "id": 1150882271, "lat": 9.23417, "lon": 41.53, "tags": {"is_in:country": "Ethiopia", "is_in:country_code": "ET", "name": "Kulo Shet'", "place": "locality", "source": "GeoDatabase"}}, {"type": "node", "id": 1150882283, "lat": 9.2376494, "lon": 41.8247376, "tags": {"name": "Kurfa Chele", "place": "town", "source": "GeoDatabase"}}, {"type": "node", "id": 1150882757, "lat": 9.15, "lon": 41.88333, "tags": {"is_in:country": "Ethiopia", "is_in:country_code": "ET", "name": "Rukecha", "place": "locality", "source": "GeoDatabase"}}, {"type": "node", "id": 1150883376, "lat": 9.23333, "lon": 41.7, "tags": {"is_in:country": "Ethiopia", "is_in:country_code": "ET", "name": "Ala", "place": "locality", "source": "GeoDatabase"}}, {"type": "node", "id": 1150884874, "lat": 9.18694, "lon": 41.71972, "tags": {"is_in:country": "Ethiopia", "is_in:country_code": "ET", "name": "Iliko", "place": "locality", "source": "GeoDatabase"}}, {"type": "node", "id": 1150885593, "lat": 9.4, "lon": 41.81666, "tags": {"is_in:country": "Ethiopia", "is_in:country_code": "ET", "name": "Gola Abo Bete Kristiyan", "place": "locality", "source": "GeoDatabase"}}, {"type": "node", "id": 1150886446, "lat": 9.25583, "lon": 41.62611, "tags": {"is_in:country": "Ethiopia", "is_in:country_code": "ET", "name": "Funyane", "place": "locality", "source": "GeoDatabase"}}, {"type": "node", "id": 1150886628, "lat": 9.15694, "lon": 41.805, "tags": {"is_in:country": "Ethiopia", "is_in:country_code": "ET", "name": "Radaya", "place": "locality", "source": "GeoDatabase"}}, {"type": "node", "id": 1150886838, "lat": 9.33472, "lon": 41.83194, "tags": {"is_in:country": "Ethiopia", "is_in:country_code": "ET", "name": "Weter Shet'", "place": "locality", "source": "GeoDatabase"}}, {"type": "node", "id": 1150886945, "lat": 9.13028, "lon": 41.73694, "tags": {"is_in:country": "Ethiopia", "is_in:country_code": "ET", "name": "Ch'Ulul Shet'", "place": "locality", "source": "GeoDatabase"}}, {"type": "node", "id": 1150887912, "lat": 9.14167, "lon": 41.73806, "tags": {"is_in:country": "Ethiopia", "is_in:country_code": "ET", "name": "Goro", "place": "locality", "source": "GeoDatabase"}}, {"type": "node", "id": 1150888103, "lat": 9.29083, "lon": 41.87444, "tags": {"is_in:country": "Ethiopia", "is_in:country_code": "ET", "name": "Ligide Shet'", "place": "locality", "source": "GeoDatabase"}}, {"type": "node", "id": 1150890393, "lat": 9.05056, "lon": 41.5625, "tags": {"is_in:country": "Ethiopia", "is_in:country_code": "ET", "name": "Ademe", "place": "locality", "source": "GeoDatabase"}}, {"type": "node", "id": 1150890793, "lat": 9.35, "lon": 41.56666, "tags": {"is_in:country": "Ethiopia", "is_in:country_code": "ET", "name": "Djemi", "place": "locality", "source": "GeoDatabase"}}, {"type": "node", "id": 1150891192, "lat": 9.27556, "lon": 41.77917, "tags": {"is_in:country": "Ethiopia", "is_in:country_code": "ET", "name": "Derme Shek", "place": "locality", "source": "GeoDatabase"}}, {"type": "node", "id": 1150892833, "lat": 9.17972, "lon": 41.66694, "tags": {"is_in:country": "Ethiopia", "is_in:country_code": "ET", "name": "Mengudo (2)", "place": "locality", "source": "GeoDatabase"}}, {"type": "node", "id": 1150893772, "lat": 9.29472, "lon": 41.79, "tags": {"is_in:country": "Ethiopia", "is_in:country_code": "ET", "name": "Dedero", "place": "locality", "source": "GeoDatabase"}}, {"type": "node", "id": 1150898162, "lat": 9.31472, "lon": 41.64278, "tags": {"is_in:country": "Ethiopia", "is_in:country_code": "ET", "name": "Koreme", "place": "locality", "source": "GeoDatabase"}}, {"type": "node", "id": 1150898291, "lat": 9.25111, "lon": 41.75944, "tags": {"is_in:country": "Ethiopia", "is_in:country_code": "ET", "name": "Geldid", "place": "locality", "source": "GeoDatabase"}}, {"type": "node", "id": 1150899056, "lat": 9.20583, "lon": 41.68722, "tags": {"is_in:country": "Ethiopia", "is_in:country_code": "ET", "name": "Mengudo", "place": "locality", "source": "GeoDatabase"}}, {"type": "node", "id": 1150899111, "lat": 9.113093, "lon": 41.6342783, "tags": {"name": "Bedeno", "place": "town", "source": "GeoDatabase"}}, {"type": "node", "id": 1150899127, "lat": 9.18917, "lon": 41.52611, "tags": {"is_in:country": "Ethiopia", "is_in:country_code": "ET", "name": "Gera K'Ela", "place": "locality", "source": "GeoDatabase"}}, {"type": "node", "id": 1150899149, "lat": 9.07611, "lon": 41.85333, "tags": {"is_in:country": "Ethiopia", "is_in:country_code": "ET", "name": "Kile", "place": "locality", "source": "GeoDatabase"}}, {"type": "node", "id": 1150899850, "lat": 9.29306, "lon": 41.74583, "tags": {"is_in:country": "Ethiopia", "is_in:country_code": "ET", "name": "Bek'Elen", "place": "locality", "source": "GeoDatabase"}}, {"type": "node", "id": 1150900947, "lat": 9.23917, "lon": 41.56555, "tags": {"is_in:country": "Ethiopia", "is_in:country_code": "ET", "name": "Ofreta-Gorekho-Mute", "place": "locality", "source": "GeoDatabase"}}, {"type": "node", "id": 1150900988, "lat": 9.20139, "lon": 41.85833, "tags": {"is_in:country": "Ethiopia", "is_in:country_code": "ET", "name": "Kharele", "place": "locality", "source": "GeoDatabase"}}, {"type": "node", "id": 1150902267, "lat": 9.33694, "lon": 41.83111, "tags": {"is_in:country": "Ethiopia", "is_in:country_code": "ET", "name": "Ch'Anch'O Shet'", "place": "locality", "source": "GeoDatabase"}}, {"type": "node", "id": 1150902340, "lat": 9.08333, "lon": 41.71667, "tags": {"is_in:country": "Ethiopia", "is_in:country_code": "ET", "name": "Garamulata", "place": "locality", "source": "GeoDatabase"}}, {"type": "node", "id": 1150905806, "lat": 9.3575, "lon": 41.87417, "tags": {"is_in:country": "Ethiopia", "is_in:country_code": "ET", "name": "Yabeto", "place": "locality", "source": "GeoDatabase"}}, {"type": "node", "id": 1150906777, "lat": 9.04333, "lon": 41.67194, "tags": {"is_in:country": "Ethiopia", "is_in:country_code": "ET", "name": "Deneba", "place": "locality", "source": "GeoDatabase"}}, {"type": "node", "id": 1150906977, "lat": 9.12361, "lon": 41.79694, "tags": {"is_in:country": "Ethiopia", "is_in:country_code": "ET", "name": "Torbi", "place": "locality", "source": "GeoDatabase"}}, {"type": "node", "id": 1150909836, "lat": 9.36361, "lon": 41.79139, "tags": {"is_in:country": "Ethiopia", "is_in:country_code": "ET", "name": "Bulo", "place": "locality", "source": "GeoDatabase"}}, {"type": "node", "id": 1150910554, "lat": 9.2675, "lon": 41.64194, "tags": {"is_in:country": "Ethiopia", "is_in:country_code": "ET", "name": "Gora-Bal'Chak-Shet", "place": "locality", "source": "GeoDatabase"}}, {"type": "node", "id": 1150911005, "lat": 9.16667, "lon": 41.83333, "tags": {"is_in:country": "Ethiopia", "is_in:country_code": "ET", "name": "Giafra", "place": "locality", "source": "GeoDatabase"}}, {"type": "node", "id": 1150911327, "lat": 9.34417, "lon": 41.81361, "tags": {"is_in:country": "Ethiopia", "is_in:country_code": "ET", "name": "Weter", "place": "locality", "source": "GeoDatabase"}}, {"type": "node", "id": 1150911951, "lat": 9.13083, "lon": 41.73722, "tags": {"is_in:country": "Ethiopia", "is_in:country_code": "ET", "name": "Sede Shet'", "place": "locality", "source": "GeoDatabase"}}, {"type": "node", "id": 1150914989, "lat": 9.335, "lon": 41.86778, "tags": {"is_in:country": "Ethiopia", "is_in:country_code": "ET", "name": "Meta", "place": "locality", "source": "GeoDatabase"}}, {"type": "node", "id": 1150919658, "lat": 9.07028, "lon": 41.54389, "tags": {"is_in:country": "Ethiopia", "is_in:country_code": "ET", "name": "Geba Shet'", "place": "locality", "source": "GeoDatabase"}}, {"type": "node", "id": 1150920342, "lat": 9.23028, "lon": 41.60833, "tags": {"is_in:country": "Ethiopia", "is_in:country_code": "ET", "name": "Tusho", "place": "locality", "source": "GeoDatabase"}}, {"type": "node", "id": 1150921864, "lat": 9.07917, "lon": 41.75833, "tags": {"is_in:country": "Ethiopia", "is_in:country_code": "ET", "name": "Soriya", "place": "locality", "source": "GeoDatabase"}}, {"type": "node", "id": 1150924605, "lat": 9.3, "lon": 41.78333, "tags": {"is_in:country": "Ethiopia", "is_in:country_code": "ET", "name": "Ch'Ululo", "place": "locality", "source": "GeoDatabase"}}, {"type": "node", "id": 1150926941, "lat": 9.32694, "lon": 41.79555, "tags": {"is_in:country": "Ethiopia", "is_in:country_code": "ET", "name": "Ch'Eleway Shet'", "place": "locality", "source": "GeoDatabase"}}, {"type": "node", "id": 1150930369, "lat": 9.26222, "lon": 41.76667, "tags": {"is_in:country": "Ethiopia", "is_in:country_code": "ET", "name": "Wak'Jira", "place": "locality", "source": "GeoDatabase"}}, {"type": "node", "id": 1150934777, "lat": 9.2292836, "lon": 41.6908841, "tags": {"is_in:country": "Ethiopia", "is_in:country_code": "ET", "name": "Farda", "place": "village", "source": "GeoDatabase"}}, {"type": "node", "id": 1150934871, "lat": 9.11667, "lon": 41.63333, "tags": {"is_in:country": "Ethiopia", "is_in:country_code": "ET", "name": "Bedeno Maryam Bete Kristiyan", "place": "locality", "source": "GeoDatabase"}}, {"type": "node", "id": 1150934991, "lat": 9.0304657, "lon": 41.8842714, "tags": {"is_in:country": "Ethiopia", "is_in:country_code": "ET", "name": "Dogu", "place": "village", "source": "GeoDatabase"}}, {"type": "node", "id": 1150936165, "lat": 9.31278, "lon": 41.74694, "tags": {"is_in:country": "Ethiopia", "is_in:country_code": "ET", "name": "Gadula", "place": "locality", "source": "GeoDatabase"}}, {"type": "node", "id": 1150937344, "lat": 9.28333, "lon": 41.56666, "tags": {"is_in:country": "Ethiopia", "is_in:country_code": "ET", "name": "Mut'I Giyorgis Bete Kristiyan", "place": "locality", "source": "GeoDatabase"}}, {"type": "node", "id": 1150937384, "lat": 9.23611, "lon": 41.86917, "tags": {"is_in:country": "Ethiopia", "is_in:country_code": "ET", "name": "Abdulahi", "place": "locality", "source": "GeoDatabase"}}, {"type": "node", "id": 1150940136, "lat": 9.36111, "lon": 41.83805, "tags": {"is_in:country": "Ethiopia", "is_in:country_code": "ET", "name": "Bululo (2)", "place": "locality", "source": "GeoDatabase"}}, {"type": "node", "id": 1150940891, "lat": 9.04889, "lon": 41.765, "tags": {"is_in:country": "Ethiopia", "is_in:country_code": "ET", "name": "Lafto", "place": "locality", "source": "GeoDatabase"}}, {"type": "node", "id": 1150942491, "lat": 9.2025, "lon": 41.76028, "tags": {"is_in:country": "Ethiopia", "is_in:country_code": "ET", "name": "Birbirsa", "place": "locality", "source": "GeoDatabase"}}, {"type": "node", "id": 1150945754, "lat": 9.165, "lon": 41.625, "tags": {"is_in:country": "Ethiopia", "is_in:country_code": "ET", "name": "Gubese K'Ela Shet'", "place": "locality", "source": "GeoDatabase"}}, {"type": "node", "id": 1150945986, "lat": 9.155, "lon": 41.79167, "tags": {"is_in:country": "Ethiopia", "is_in:country_code": "ET", "name": "Fedni Terara", "place": "locality", "source": "GeoDatabase"}}, {"type": "node", "id": 1150948061, "lat": 9.31, "lon": 41.72583, "tags": {"is_in:country": "Ethiopia", "is_in:country_code": "ET", "name": "Gola", "place": "locality", "source": "GeoDatabase"}}, {"type": "node", "id": 1150949981, "lat": 9.24167, "lon": 41.80972, "tags": {"is_in:country": "Ethiopia", "is_in:country_code": "ET", "name": "Bube", "place": "locality", "source": "GeoDatabase"}}, {"type": "node", "id": 1150951470, "lat": 9.29361, "lon": 41.57111, "tags": {"is_in:country": "Ethiopia", "is_in:country_code": "ET", "name": "Mut'I", "place": "locality", "source": "GeoDatabase"}}, {"type": "node", "id": 1150951785, "lat": 9.05639, "lon": 41.86056, "tags": {"is_in:country": "Ethiopia", "is_in:country_code": "ET", "name": "Geyle Terara", "place": "locality", "source": "GeoDatabase"}}, {"type": "node", "id": 1150952605, "lat": 9.12139, "lon": 41.86028, "tags": {"is_in:country": "Ethiopia", "is_in:country_code": "ET", "name": "Arocha", "place": "locality", "source": "GeoDatabase"}}, {"type": "node", "id": 1150957933, "lat": 9.33333, "lon": 41.88333, "tags": {"is_in:country": "Ethiopia", "is_in:country_code": "ET", "name": "Elemo", "place": "locality", "source": "GeoDatabase"}}, {"type": "node", "id": 1150959458, "lat": 9.39444, "lon": 41.80056, "tags": {"is_in:country": "Ethiopia", "is_in:country_code": "ET", "name": "Agelo", "place": "locality", "source": "GeoDatabase"}}, {"type": "node", "id": 1150961776, "lat": 9.15222, "lon": 41.53, "tags": {"is_in:country": "Ethiopia", "is_in:country_code": "ET", "name": "Duban Get Shet'", "place": "locality", "source": "GeoDatabase"}}, {"type": "node", "id": 1150962402, "lat": 9.24194, "lon": 41.62028, "tags": {"is_in:country": "Ethiopia", "is_in:country_code": "ET", "name": "Oylo Shet'", "place": "locality", "source": "GeoDatabase"}}, {"type": "node", "id": 1150962920, "lat": 9.13833, "lon": 41.84917, "tags": {"is_in:country": "Ethiopia", "is_in:country_code": "ET", "name": "Goro Jilo Korebta", "place": "locality", "source": "GeoDatabase"}}, {"type": "node", "id": 1150963340, "lat": 9.30861, "lon": 41.84028, "tags": {"is_in:country": "Ethiopia", "is_in:country_code": "ET", "name": "Boru", "place": "locality", "source": "GeoDatabase"}}, {"type": "node", "id": 1150963824, "lat": 9.05944, "lon": 41.78278, "tags": {"is_in:country": "Ethiopia", "is_in:country_code": "ET", "name": "Uorsi", "place": "locality", "source": "GeoDatabase"}}, {"type": "node", "id": 1150967347, "lat": 9.03167, "lon": 41.70056, "tags": {"is_in:country": "Ethiopia", "is_in:country_code": "ET", "name": "Badu", "place": "locality", "source": "GeoDatabase"}}, {"type": "node", "id": 1150968922, "lat": 9.3225, "lon": 41.78333, "tags": {"is_in:country": "Ethiopia", "is_in:country_code": "ET", "name": "Goro", "place": "locality", "source": "GeoDatabase"}}, {"type": "node", "id": 1150969277, "lat": 9.37944, "lon": 41.85333, "tags": {"is_in:country": "Ethiopia", "is_in:country_code": "ET", "name": "Dulu", "place": "locality", "source": "GeoDatabase"}}, {"type": "node", "id": 1150970326, "lat": 9.2575, "lon": 41.88583, "tags": {"is_in:country": "Ethiopia", "is_in:country_code": "ET", "name": "Ibrahim", "place": "locality", "source": "GeoDatabase"}}, {"type": "node", "id": 1150971502, "lat": 9.3575, "lon": 41.77083, "tags": {"alt_name": "Water", "is_in:country": "Ethiopia", "is_in:country_code": "ET", "name": "Uoter", "place": "town", "source": "GeoDatabase"}}, {"type": "node", "id": 1150972963, "lat": 9.30722, "lon": 41.80417, "tags": {"is_in:country": "Ethiopia", "is_in:country_code": "ET", "name": "Beda", "place": "locality", "source": "GeoDatabase"}}, {"type": "node", "id": 1150973538, "lat": 9.25, "lon": 41.78333, "tags": {"is_in:country": "Ethiopia", "is_in:country_code": "ET", "name": "Geldid Maryam Bete Kristiyan", "place": "locality", "source": "GeoDatabase"}}, {"type": "node", "id": 1150978182, "lat": 9.18333, "lon": 41.63333, "tags": {"is_in:country": "Ethiopia", "is_in:country_code": "ET", "name": "Radiba", "place": "locality", "source": "GeoDatabase"}}, {"type": "node", "id": 1150978375, "lat": 9.0338026, "lon": 41.8843138, "tags": {"amenity": "place_of_worship", "is_in:country": "Ethiopia", "is_in:country_code": "ET", "name": "Dogu Medhane `Alem Bete Kristiyan", "place": "locality", "source": "GeoDatabase"}}, {"type": "node", "id": 1150979927, "lat": 9.3296234, "lon": 41.7540168, "tags": {"is_in:country": "Ethiopia", "is_in:country_code": "ET", "name": "Debal", "place": "locality", "source": "GeoDatabase"}}, {"type": "node", "id": 1150981381, "lat": 9.26222, "lon": 41.86056, "tags": {"is_in:country": "Ethiopia", "is_in:country_code": "ET", "name": "Dawe", "place": "locality", "source": "GeoDatabase"}}, {"type": "node", "id": 1151003189, "lat": 9.08333, "lon": 41.75, "tags": {"is_in:country": "Ethiopia", "is_in:country_code": "ET", "name": "Garamullata", "place": "locality", "source": "GeoDatabase"}}, {"type": "node", "id": 1151003871, "lat": 9.32028, "lon": 41.61722, "tags": {"is_in:country": "Ethiopia", "is_in:country_code": "ET", "name": "Harewo", "place": "locality", "source": "GeoDatabase"}}, {"type": "node", "id": 1151004179, "lat": 9.2, "lon": 41.76667, "tags": {"is_in:country": "Ethiopia", "is_in:country_code": "ET", "name": "Birbirsa Merk'Oriyos Bete Kristiyan", "place": "locality", "source": "GeoDatabase"}}, {"type": "node", "id": 2151480929, "lat": 9.0541346, "lon": 41.6102666, "tags": {"place": "village"}}, {"type": "node", "id": 2151502298, "lat": 9.1747295, "lon": 41.7881507, "tags": {"place": "village"}}, {"type": "node", "id": 2151527425, "lat": 9.0317792, "lon": 41.8476528, "tags": {"place": "village"}}, {"type": "node", "id": 2151545572, "lat": 9.2693337, "lon": 41.8349279, "tags": {"place": "village"}}, {"type": "node", "id": 2151545715, "lat": 9.2900119, "lon": 41.7918752, "tags": {"place": "village"}}, {"type": "node", "id": 2151545797, "lat": 9.268835, "lon": 41.8619753, "tags": {"place": "village"}}, {"type": "node", "id": 2151545958, "lat": 9.272774, "lon": 41.8255842, "tags": {"place": "village"}}, {"type": "node", "id": 2151546014, "lat": 9.2682007, "lon": 41.8555809, "tags": {"place": "village"}}, {"type": "node", "id": 2151546061, "lat": 9.2691532, "lon": 41.7666727, "tags": {"place": "village"}}, {"type": "node", "id": 2151546080, "lat": 9.2468682, "lon": 41.8741372, "tags": {"place": "village"}}, {"type": "node", "id": 2151546248, "lat": 9.2923359, "lon": 41.8771008, "tags": {"name": "Daawwee / Dawo", "name:en": "Dawo", "name:om": "Daawwee", "place": "town"}}, {"type": "node", "id": 2208650613, "lat": 9.0736364, "lon": 41.5455957, "tags": {"place": "village"}}, {"type": "node", "id": 3328358050, "lat": 9.3409612, "lon": 41.8032125, "tags": {"place": "hamlet"}}, {"type": "node", "id": 3328358051, "lat": 9.3391179, "lon": 41.7960954, "tags": {"place": "hamlet"}}, {"type": "node", "id": 9238775000, "lat": 9.1379442, "lon": 41.83568, "tags": {"name": "Girawa", "place": "village"}}, {"type": "node", "id": 10292058870, "lat": 9.3212106, "lon": 41.7144309, "tags": {"place": "village"}}, {"type": "node", "id": 10293486489, "lat": 9.3603725, "lon": 41.534922, "tags": {"place": "hamlet"}}, {"type": "node", "id": 10294012232, "lat": 9.2161264, "lon": 41.5686052, "tags": {"place": "village"}}, {"type": "node", "id": 10295317052, "lat": 9.230826, "lon": 41.6028886, "tags": {"place": "hamlet"}}, {"type": "node", "id": 10295599989, "lat": 9.3554116, "lon": 41.5838314, "tags": {"place": "village"}}, {"type": "node", "id": 10297073850, "lat": 9.1616402, "lon": 41.5288571, "tags": {"place": "village"}}, {"type": "node", "id": 10297449266, "lat": 9.2225202, "lon": 41.5312278, "tags": {"place": "village"}}, {"type": "node", "id": 10622094974, "lat": 9.1894605, "lon": 41.5733546, "tags": {"name": "Goro Mutuli 2", "place": "village"}}]}