{"version": 0.6, "generator": "Overpass API 0.7.62.1 084b4234", "osm3s": {"timestamp_osm_base": "2024-09-30T22:49:29Z", "copyright": "The data included in this document is from www.openstreetmap.org. The data is made available under ODbL."}, "elements": [{"type": "node", "id": 1150884025, "lat": 6.96667, "lon": 38.78333, "tags": {"is_in:country": "Ethiopia", "is_in:country_code": "ET", "name": "Bebela", "place": "locality", "source": "GeoDatabase"}}, {"type": "node", "id": 1150887261, "lat": 6.73333, "lon": 38.56666, "tags": {"is_in:country": "Ethiopia", "is_in:country_code": "ET", "name": "Holo Terara", "place": "locality", "source": "GeoDatabase"}}, {"type": "node", "id": 1150892511, "lat": 6.66667, "lon": 38.5, "tags": {"is_in:country": "Ethiopia", "is_in:country_code": "ET", "name": "Sisha", "place": "locality", "source": "GeoDatabase"}}, {"type": "node", "id": 1150897911, "lat": 6.73333, "lon": 38.65, "tags": {"is_in:country": "Ethiopia", "is_in:country_code": "ET", "name": "Garamba", "place": "locality", "source": "GeoDatabase"}}, {"type": "node", "id": 1150900107, "lat": 6.6887419, "lon": 38.7164581, "tags": {"addr:country": "ET", "name": "Arbe Gona", "place": "town", "source": "GeoDatabase"}}, {"type": "node", "id": 1150900229, "lat": 6.7, "lon": 38.83333, "tags": {"is_in:country": "Ethiopia", "is_in:country_code": "ET", "name": "Meganamo Shet'", "place": "locality", "source": "GeoDatabase"}}, {"type": "node", "id": 1150904261, "lat": 6.95, "lon": 38.81666, "tags": {"is_in:country": "Ethiopia", "is_in:country_code": "ET", "name": "Sire", "place": "locality", "source": "GeoDatabase"}}, {"type": "node", "id": 1150913362, "lat": 6.8507666, "lon": 38.6868054, "tags": {"is_in:country": "Ethiopia", "is_in:country_code": "ET", "name": "Hoghiso", "place": "village", "source": "GeoDatabase"}}, {"type": "node", "id": 1150915511, "lat": 6.73333, "lon": 38.81666, "tags": {"is_in:country": "Ethiopia", "is_in:country_code": "ET", "name": "Kokosa Bota", "place": "locality", "source": "GeoDatabase"}}, {"type": "node", "id": 1150920620, "lat": 6.739353, "lon": 38.791187, "tags": {"alt_name": "Cocossa", "country": "ET", "name": "Kokosa", "place": "town", "source": "GeoDatabase"}}, {"type": "node", "id": 1150923841, "lat": 6.65, "lon": 38.71667, "tags": {"is_in:country": "Ethiopia", "is_in:country_code": "ET", "name": "Goromti Shet'", "place": "locality", "source": "GeoDatabase"}}, {"type": "node", "id": 1150925652, "lat": 6.98333, "lon": 38.63333, "tags": {"is_in:country": "Ethiopia", "is_in:country_code": "ET", "name": "Melge Bota", "place": "locality", "source": "GeoDatabase"}}, {"type": "node", "id": 1150929037, "lat": 6.83333, "lon": 38.5, "tags": {"is_in:country": "Ethiopia", "is_in:country_code": "ET", "name": "Ladu", "place": "locality", "source": "GeoDatabase"}}, {"type": "node", "id": 1150933541, "lat": 6.98333, "lon": 38.85, "tags": {"is_in:country": "Ethiopia", "is_in:country_code": "ET", "name": "Banta", "place": "locality", "source": "GeoDatabase"}}, {"type": "node", "id": 1150936084, "lat": 6.78333, "lon": 38.9, "tags": {"is_in:country": "Ethiopia", "is_in:country_code": "ET", "name": "Tarura", "place": "locality", "source": "GeoDatabase"}}, {"type": "node", "id": 1150937253, "lat": 6.9700823, "lon": 38.5701198, "tags": {"is_in:country": "Ethiopia", "is_in:country_code": "ET", "name": "Gogi", "place": "locality", "source": "GeoDatabase"}}, {"type": "node", "id": 1150937946, "lat": 6.86667, "lon": 38.75, "tags": {"is_in:country": "Ethiopia", "is_in:country_code": "ET", "name": "Ebano", "place": "locality", "source": "GeoDatabase"}}, {"type": "node", "id": 1150944935, "lat": 6.98333, "lon": 38.73333, "tags": {"is_in:country": "Ethiopia", "is_in:country_code": "ET", "name": "Melelo Bota", "place": "locality", "source": "GeoDatabase"}}, {"type": "node", "id": 1150958121, "lat": 6.83333, "lon": 38.83333, "tags": {"is_in:country": "Ethiopia", "is_in:country_code": "ET", "name": "Gorte", "place": "locality", "source": "GeoDatabase"}}, {"type": "node", "id": 1150966986, "lat": 6.75, "lon": 38.5, "tags": {"is_in:country": "Ethiopia", "is_in:country_code": "ET", "name": "Sidamo", "place": "locality", "source": "GeoDatabase"}}, {"type": "node", "id": 1150969992, "lat": 6.9859304, "lon": 38.7030041, "tags": {"is_in:country": "Ethiopia", "is_in:country_code": "ET", "name": "Guguma", "place": "village", "source": "GeoDatabase"}}, {"type": "node", "id": 1150976286, "lat": 6.95, "lon": 38.86667, "tags": {"is_in:country": "Ethiopia", "is_in:country_code": "ET", "name": "Nago", "place": "locality", "source": "GeoDatabase"}}, {"type": "node", "id": 1150977539, "lat": 6.65, "lon": 38.5, "tags": {"is_in:country": "Ethiopia", "is_in:country_code": "ET", "name": "Goridama Bota", "place": "locality", "source": "GeoDatabase"}}, {"type": "node", "id": 1445259708, "lat": 6.7557212, "lon": 38.50786, "tags": {"name": "Woncho", "place": "town"}}, {"type": "node", "id": 3204575367, "lat": 6.7800646, "lon": 38.8588878, "tags": {"place": "hamlet"}}, {"type": "node", "id": 3204575368, "lat": 6.7874471, "lon": 38.8135702, "tags": {"place": "hamlet"}}, {"type": "node", "id": 3204599940, "lat": 6.6617797, "lon": 38.8736248, "tags": {"name": "Bura", "place": "village"}}, {"type": "node", "id": 4703775191, "lat": 6.9890697, "lon": 38.4968098, "tags": {"name": "Haweela Tula", "place": "village"}}, {"type": "node", "id": 4748306258, "lat": 6.9797987, "lon": 38.5553458, "tags": {"name": "Borja", "name:en": "Borja", "place": "village"}}, {"type": "node", "id": 5335530678, "lat": 6.7699794, "lon": 38.5987374, "tags": {"place": "hamlet", "source": "Bing"}}, {"type": "node", "id": 5335530679, "lat": 6.8059823, "lon": 38.6066923, "tags": {"place": "village", "source": "Bing"}}, {"type": "node", "id": 5335530680, "lat": 6.8384346, "lon": 38.5959202, "tags": {"place": "village", "source": "Bing"}}, {"type": "node", "id": 5335530681, "lat": 6.8593264, "lon": 38.6355928, "tags": {"place": "village", "source": "Bing"}}, {"type": "node", "id": 5335530682, "lat": 6.858871, "lon": 38.665891, "tags": {"place": "village", "source": "Bing"}}, {"type": "node", "id": 5335530683, "lat": 6.878521, "lon": 38.6539042, "tags": {"place": "hamlet", "source": "Bing"}}, {"type": "node", "id": 5335530684, "lat": 6.8641624, "lon": 38.548366, "tags": {"place": "hamlet", "source": "Bing"}}, {"type": "node", "id": 5335530685, "lat": 6.8769685, "lon": 38.5831153, "tags": {"admin_level": "6", "capital": "6", "name": "Gorche", "place": "village", "source": "Bing"}}, {"type": "node", "id": 5335530686, "lat": 6.9018821, "lon": 38.563377, "tags": {"place": "hamlet", "source": "Bing"}}, {"type": "node", "id": 5335530687, "lat": 6.8926262, "lon": 38.6083683, "tags": {"place": "village", "source": "Bing"}}]}