{"version": 0.6, "generator": "Overpass API 0.7.62.1 084b4234", "osm3s": {"timestamp_osm_base": "2024-09-30T22:42:13Z", "copyright": "The data included in this document is from www.openstreetmap.org. The data is made available under ODbL."}, "elements": [{"type": "node", "id": 1104331823, "lat": 5.9112911, "lon": 39.6387861, "tags": {"alt_name": "Welabu", "name": "Bidre", "place": "town", "source": "GeoDatabase"}}, {"type": "node", "id": 1150882618, "lat": 5.88333, "lon": 39.65, "tags": {"is_in:country": "Ethiopia", "is_in:country_code": "ET", "name": "Addadi", "place": "locality", "source": "GeoDatabase"}}, {"type": "node", "id": 1150891068, "lat": 5.98333, "lon": 39.75, "tags": {"is_in:country": "Ethiopia", "is_in:country_code": "ET", "name": "Ora", "place": "locality", "source": "GeoDatabase"}}, {"type": "node", "id": 1150898485, "lat": 5.96667, "lon": 39.8, "tags": {"is_in:country": "Ethiopia", "is_in:country_code": "ET", "name": "Rabbi", "place": "locality", "source": "GeoDatabase"}}, {"type": "node", "id": 1150910719, "lat": 5.78333, "lon": 39.68333, "tags": {"is_in:country": "Ethiopia", "is_in:country_code": "ET", "name": "Meda Welabu", "place": "locality", "source": "GeoDatabase"}}, {"type": "node", "id": 1150935680, "lat": 5.95, "lon": 39.98333, "tags": {"is_in:country": "Ethiopia", "is_in:country_code": "ET", "name": "Didimtu", "place": "locality", "source": "GeoDatabase"}}, {"type": "node", "id": 1150938703, "lat": 5.93333, "lon": 39.61667, "tags": {"is_in:country": "Ethiopia", "is_in:country_code": "ET", "name": "Oda", "place": "locality", "source": "GeoDatabase"}}, {"type": "node", "id": 1150951801, "lat": 5.75, "lon": 39.76667, "tags": {"is_in:country": "Ethiopia", "is_in:country_code": "ET", "name": "Maddittu", "place": "locality", "source": "GeoDatabase"}}, {"type": "node", "id": 1150962636, "lat": 5.63333, "lon": 39.75, "tags": {"is_in:country": "Ethiopia", "is_in:country_code": "ET", "name": "Arsi Cormoso", "place": "locality", "source": "GeoDatabase"}}, {"type": "node", "id": 1150973505, "lat": 5.88333, "lon": 39.71667, "tags": {"is_in:country": "Ethiopia", "is_in:country_code": "ET", "name": "Matago", "place": "locality", "source": "GeoDatabase"}}, {"type": "node", "id": 1151004864, "lat": 5.96667, "lon": 39.76667, "tags": {"is_in:country": "Ethiopia", "is_in:country_code": "ET", "name": "Gobelle", "place": "locality", "source": "GeoDatabase"}}, {"type": "node", "id": 2102041956, "lat": 5.8189485, "lon": 39.889565, "tags": {"place": "village"}}, {"type": "node", "id": 3168617243, "lat": 5.7733444, "lon": 39.6383346, "tags": {"place": "hamlet"}}, {"type": "node", "id": 3206343265, "lat": 5.9680572, "lon": 39.6844242, "tags": {"place": "hamlet"}}, {"type": "node", "id": 10595421337, "lat": 5.8048477, "lon": 39.925003, "tags": {"name": "Karsadula", "place": "village"}}]}