{"version": 0.6, "generator": "Overpass API 0.7.62.1 084b4234", "osm3s": {"timestamp_osm_base": "2024-09-30T23:57:58Z", "copyright": "The data included in this document is from www.openstreetmap.org. The data is made available under ODbL."}, "elements": [{"type": "node", "id": 1150900535, "lat": 6.67139, "lon": 45.52333, "tags": {"is_in:country_code": "ET", "is_in:county": "Ethiopia", "name": "Doldol", "place": "village", "source": "GeoDatabase"}}, {"type": "node", "id": 3128005413, "lat": 6.8865499, "lon": 45.5674475, "tags": {"place": "village"}}, {"type": "node", "id": 10034980534, "lat": 6.6430463, "lon": 45.5544855, "tags": {"alt_name": "Miirkhaliifo", "name": "Mirkhalifo", "place": "village", "waterway": "water_point"}}, {"type": "node", "id": 10244335702, "lat": 6.6561272, "lon": 45.3760203, "tags": {"name": "Durwa Hararaf", "place": "village"}}, {"type": "node", "id": 10245240576, "lat": 6.5549327, "lon": 45.3900818, "tags": {"alt_name": "Neefkuceliye;Neefkuelioye;Neefkuceshe;Neefkueliye;Nefkeceshe;", "name": "Nefkueliye", "place": "village"}}, {"type": "node", "id": 11002777914, "lat": 6.8607991, "lon": 45.3878628, "tags": {"alt_name": "Marehan Farise;Mareexaan Fariisay;Merrehan Farise", "name": "Merehan Farise", "place": "village", "waterway": "dam"}}, {"type": "node", "id": 12018317728, "lat": 6.9185389, "lon": 45.4728259, "tags": {"place": "hamlet"}}]}