{"version": 0.6, "generator": "Overpass API 0.7.62.1 084b4234", "osm3s": {"timestamp_osm_base": "2024-09-30T18:14:26Z", "copyright": "The data included in this document is from www.openstreetmap.org. The data is made available under ODbL."}, "elements": [{"type": "node", "id": 306617422, "lat": 3.7709417, "lon": 39.2270676, "tags": {"created_by": "Potlatch 0.10e", "name": "El Ley", "place": "town"}}, {"type": "node", "id": 1150698211, "lat": 3.68333, "lon": 39.06666, "tags": {"is_in:country": "Ethiopia", "is_in:country_code": "ET", "name": "Sure Agal", "place": "locality", "source": "GeoDatabase"}}, {"type": "node", "id": 1150881490, "lat": 3.66667, "lon": 39.31666, "tags": {"is_in:country": "Ethiopia", "is_in:country_code": "ET", "name": "Laga Jara Hote", "place": "locality", "source": "GeoDatabase"}}, {"type": "node", "id": 1150883287, "lat": 3.66667, "lon": 39.13333, "tags": {"is_in:country": "Ethiopia", "is_in:country_code": "ET", "name": "Jamokk", "place": "locality", "source": "GeoDatabase"}}, {"type": "node", "id": 1150885452, "lat": 3.68333, "lon": 38.96667, "tags": {"is_in:country": "Ethiopia", "is_in:country_code": "ET", "name": "Urabessa", "place": "locality", "source": "GeoDatabase"}}, {"type": "node", "id": 1150885884, "lat": 3.66667, "lon": 39.2, "tags": {"is_in:country": "Ethiopia", "is_in:country_code": "ET", "name": "Arbo", "place": "locality", "source": "GeoDatabase"}}, {"type": "node", "id": 1150889715, "lat": 3.91667, "lon": 39.06666, "tags": {"is_in:country": "Ethiopia", "is_in:country_code": "ET", "name": "Boke Gofa", "place": "locality", "source": "GeoDatabase"}}, {"type": "node", "id": 1150893561, "lat": 3.9, "lon": 39.13333, "tags": {"is_in:country": "Ethiopia", "is_in:country_code": "ET", "name": "Demb", "place": "locality", "source": "GeoDatabase"}}, {"type": "node", "id": 1150896391, "lat": 3.83333, "lon": 39.03333, "tags": {"is_in:country": "Ethiopia", "is_in:country_code": "ET", "name": "Gof", "place": "locality", "source": "GeoDatabase"}}, {"type": "node", "id": 1150898639, "lat": 3.7, "lon": 39.23333, "tags": {"is_in:country": "Ethiopia", "is_in:country_code": "ET", "name": "Hara Roba", "place": "locality", "source": "GeoDatabase"}}, {"type": "node", "id": 1150902116, "lat": 3.83333, "lon": 39.23333, "tags": {"is_in:country": "Ethiopia", "is_in:country_code": "ET", "name": "Dima", "place": "locality", "source": "GeoDatabase"}}, {"type": "node", "id": 1150913347, "lat": 3.96667, "lon": 39.08333, "tags": {"is_in:country": "Ethiopia", "is_in:country_code": "ET", "name": "Uamore", "place": "locality", "source": "GeoDatabase"}}, {"type": "node", "id": 1150918633, "lat": 3.90472, "lon": 39.1, "tags": {"is_in:country": "Ethiopia", "is_in:country_code": "ET", "name": "El Gof", "place": "locality", "source": "GeoDatabase"}}, {"type": "node", "id": 1150924187, "lat": 3.93333, "lon": 39.03333, "tags": {"is_in:country": "Ethiopia", "is_in:country_code": "ET", "name": "Lele", "place": "locality", "source": "GeoDatabase"}}, {"type": "node", "id": 1150927250, "lat": 3.81667, "lon": 39.05, "tags": {"is_in:country": "Ethiopia", "is_in:country_code": "ET", "name": "El Gof", "place": "locality", "source": "GeoDatabase"}}, {"type": "node", "id": 1150933479, "lat": 3.73333, "lon": 39.28333, "tags": {"is_in:country": "Ethiopia", "is_in:country_code": "ET", "name": "El Futto", "place": "locality", "source": "GeoDatabase"}}, {"type": "node", "id": 1150938643, "lat": 3.73333, "lon": 38.95, "tags": {"is_in:country": "Ethiopia", "is_in:country_code": "ET", "name": "Kotula", "place": "locality", "source": "GeoDatabase"}}, {"type": "node", "id": 1150938846, "lat": 3.83333, "lon": 39.0, "tags": {"is_in:country": "Ethiopia", "is_in:country_code": "ET", "name": "Moyale Bota", "place": "locality", "source": "GeoDatabase"}}, {"type": "node", "id": 1150939327, "lat": 3.81667, "lon": 39.28333, "tags": {"is_in:country": "Ethiopia", "is_in:country_code": "ET", "name": "Hiciunni", "place": "locality", "source": "GeoDatabase"}}, {"type": "node", "id": 1150945081, "lat": 3.7, "lon": 38.98333, "tags": {"is_in:country": "Ethiopia", "is_in:country_code": "ET", "name": "Cotulla", "place": "locality", "source": "GeoDatabase"}}, {"type": "node", "id": 1150968478, "lat": 4.05, "lon": 39.03333, "tags": {"is_in:country": "Ethiopia", "is_in:country_code": "ET", "name": "Burchuma", "place": "locality", "source": "GeoDatabase"}}, {"type": "node", "id": 1150972117, "lat": 3.86667, "lon": 39.06666, "tags": {"is_in:country": "Ethiopia", "is_in:country_code": "ET", "name": "El Gof Polis Sefer", "place": "locality", "source": "GeoDatabase"}}, {"type": "node", "id": 1150982883, "lat": 3.8, "lon": 39.03333, "tags": {"is_in:country": "Ethiopia", "is_in:country_code": "ET", "name": "Gof", "place": "locality", "source": "GeoDatabase"}}, {"type": "node", "id": 1151002131, "lat": 3.86667, "lon": 39.23333, "tags": {"is_in:country": "Ethiopia", "is_in:country_code": "ET", "name": "Boran", "place": "locality", "source": "GeoDatabase"}}]}