{"version": 0.6, "generator": "Overpass API 0.7.62.1 084b4234", "osm3s": {"timestamp_osm_base": "2024-09-30T22:37:15Z", "copyright": "The data included in this document is from www.openstreetmap.org. The data is made available under ODbL."}, "elements": [{"type": "node", "id": 1150882465, "lat": 4.48333, "lon": 37.05, "tags": {"name": "Darar", "place": "locality", "source": "GeoDatabase"}}, {"type": "node", "id": 1150886889, "lat": 4.46667, "lon": 36.88333, "tags": {"is_in:country_code": "ET", "name": "El Dima", "place": "locality", "source": "GeoDatabase"}}, {"type": "node", "id": 1150902063, "lat": 4.81667, "lon": 36.75, "tags": {"is_in:country": "Ethiopia", "is_in:country_code": "ET", "name": "Asile", "place": "locality", "source": "GeoDatabase"}}, {"type": "node", "id": 1150913717, "lat": 4.4, "lon": 36.95, "tags": {"is_in:country": "Ethiopia", "is_in:country_code": "ET", "name": "Alala", "place": "locality", "source": "GeoDatabase"}}, {"type": "node", "id": 1150925722, "lat": 4.58333, "lon": 37.08333, "tags": {"is_in:country": "Ethiopia", "is_in:country_code": "ET", "name": "Badda Iccinni", "place": "locality", "source": "GeoDatabase"}}, {"type": "node", "id": 1150938882, "lat": 4.81667, "lon": 36.95, "tags": {"is_in:country": "Ethiopia", "is_in:country_code": "ET", "name": "Sagan River", "place": "locality", "source": "GeoDatabase"}}, {"type": "node", "id": 1150950669, "lat": 4.5, "lon": 37.01667, "tags": {"name": "Salamadi", "place": "locality"}}, {"type": "node", "id": 1150955543, "lat": 4.63333, "lon": 36.83333, "tags": {"name": "Ch'Ew Bahir", "place": "locality", "source": "GeoDatabase"}}, {"type": "node", "id": 1150970125, "lat": 4.7, "lon": 37.06666, "tags": {"name": "K'Umbi Yeterara Senselet", "place": "locality", "source": "GeoDatabase"}}, {"type": "node", "id": 1150980253, "lat": 4.45, "lon": 36.65, "tags": {"name": "Garba Merile", "place": "locality", "source": "GeoDatabase"}}]}