{"version": 0.6, "generator": "Overpass API 0.7.62.1 084b4234", "osm3s": {"timestamp_osm_base": "2024-09-30T23:34:41Z", "copyright": "The data included in this document is from www.openstreetmap.org. The data is made available under ODbL."}, "elements": [{"type": "node", "id": 1150881017, "lat": 7.81667, "lon": 43.76667, "tags": {"is_in:country_code": "ET", "is_in:county": "Ethiopia", "name": "Hen", "place": "locality", "source": "GeoDatabase"}}, {"type": "node", "id": 1150882529, "lat": 7.6044958, "lon": 43.7743848, "tags": {"is_in:country_code": "ET", "is_in:county": "Ethiopia", "name": "Birkot", "place": "village", "source": "GeoDatabase"}}, {"type": "node", "id": 1150885650, "lat": 7.53222, "lon": 43.77778, "tags": {"is_in:country_code": "ET", "is_in:county": "Ethiopia", "name": "Giedabeileh", "place": "locality", "source": "GeoDatabase"}}, {"type": "node", "id": 1150888737, "lat": 7.54556, "lon": 43.88139, "tags": {"is_in:country_code": "ET", "is_in:county": "Ethiopia", "name": "God Adde", "place": "locality", "source": "GeoDatabase"}}, {"type": "node", "id": 1150893956, "lat": 7.69222, "lon": 43.71278, "tags": {"is_in:country": "Ethiopia", "is_in:country_code": "ET", "name": "Hin", "place": "locality", "source": "GeoDatabase"}}, {"type": "node", "id": 1150894669, "lat": 7.69778, "lon": 43.86194, "tags": {"is_in:country_code": "ET", "is_in:county": "Ethiopia", "name": "Khamanle", "place": "locality", "source": "GeoDatabase"}}, {"type": "node", "id": 1150902033, "lat": 7.81667, "lon": 43.9, "tags": {"is_in:country_code": "ET", "is_in:county": "Ethiopia", "name": "Genu Gadu", "place": "locality", "source": "GeoDatabase"}}, {"type": "node", "id": 1150921088, "lat": 7.66667, "lon": 43.58333, "tags": {"is_in:country": "Ethiopia", "is_in:country_code": "ET", "name": "Burta Hen", "place": "locality", "source": "GeoDatabase"}}, {"type": "node", "id": 1150924762, "lat": 7.8671969, "lon": 43.6709152, "tags": {"is_in:country": "Ethiopia", "is_in:country_code": "ET", "name": "Sasabeneh", "place": "locality", "source": "GeoDatabase"}}, {"type": "node", "id": 1150945596, "lat": 7.82528, "lon": 43.73472, "tags": {"is_in:country_code": "ET", "is_in:county": "Ethiopia", "name": "Mugwen", "place": "locality", "source": "GeoDatabase"}}, {"type": "node", "id": 1150951149, "lat": 7.55, "lon": 43.8, "tags": {"is_in:country_code": "ET", "is_in:county": "Ethiopia", "name": "Grabrehor", "place": "locality", "source": "GeoDatabase"}}, {"type": "node", "id": 1150969880, "lat": 7.64806, "lon": 43.80305, "tags": {"is_in:country_code": "ET", "is_in:county": "Ethiopia", "name": "Tug Jerer", "place": "locality", "source": "GeoDatabase"}}, {"type": "node", "id": 3127881447, "lat": 7.4854308, "lon": 43.816115, "tags": {"place": "village"}}, {"type": "node", "id": 3171122937, "lat": 7.7641015, "lon": 43.724308, "tags": {"place": "hamlet"}}, {"type": "node", "id": 11328847156, "lat": 7.6522521, "lon": 43.7688446, "tags": {"place": "village"}}, {"type": "node", "id": 11328863269, "lat": 7.7138463, "lon": 43.6668375, "tags": {"place": "hamlet"}}]}