{"version": 0.6, "generator": "Overpass API 0.7.62.1 084b4234", "osm3s": {"timestamp_osm_base": "2024-09-30T23:33:35Z", "copyright": "The data included in this document is from www.openstreetmap.org. The data is made available under ODbL."}, "elements": [{"type": "node", "id": 1150891378, "lat": 8.53333, "lon": 45.43333, "tags": {"fixme": "location probably wrong", "name": "Golgudari", "place": "locality", "source": "GeoDatabase"}}, {"type": "node", "id": 1150897175, "lat": 8.46194, "lon": 45.55222, "tags": {"name": "Durukhsi", "place": "locality", "source": "GeoDatabase"}}, {"type": "node", "id": 1150898366, "lat": 8.56667, "lon": 45.33333, "tags": {"fixme": "check location", "name": "Goramaho", "place": "locality", "source": "GeoDatabase"}}, {"type": "node", "id": 1150898405, "lat": 8.52944, "lon": 45.39444, "tags": {"name": "Godorkale", "place": "locality", "source": "GeoDatabase"}}, {"type": "node", "id": 1150903256, "lat": 8.58778, "lon": 45.24055, "tags": {"name": "Lan Mulaho", "place": "locality", "source": "GeoDatabase"}}, {"type": "node", "id": 1150931174, "lat": 8.46667, "lon": 45.51667, "tags": {"is_in:country_code": "ET", "is_in:county": "Ethiopia", "name": "Balleh Bodomadu", "place": "locality", "source": "GeoDatabase"}}, {"type": "node", "id": 1150943257, "lat": 8.56667, "lon": 45.25, "tags": {"name": "Damal Abodi", "place": "locality", "source": "GeoDatabase"}}, {"type": "node", "id": 1150973723, "lat": 8.49333, "lon": 45.52667, "tags": {"name": "Deruksi", "place": "locality", "source": "GeoDatabase"}}, {"type": "node", "id": 1151004528, "lat": 8.5868603, "lon": 45.2513774, "tags": {"name": "Haji Saleh", "place": "locality", "source": "GeoDatabase"}}, {"type": "node", "id": 1151004647, "lat": 8.55583, "lon": 45.2975, "tags": {"name": "Khaudaro", "place": "locality", "source": "GeoDatabase"}}, {"type": "node", "id": 1404222027, "lat": 8.4949289, "lon": 45.528798, "tags": {"name": "Yucub Yabooh", "pcode": "NC-3815-N12-001", "place": "village", "source": "UNDP - 2006, GTZ - 2002"}}, {"type": "node", "id": 1404222739, "lat": 8.5905636, "lon": 45.2415779, "tags": {"alt_name": "Haji Saleh;Haji Salah;Haji Salax;Bilciljabe;Bililjabe;Bilcijabe", "name": "Xaaji Saalax", "pcode": "NC-3815-K06-001", "place": "village", "source": "GTZ - 2002, UNDP - 1997, FSAU"}}, {"type": "node", "id": 1404223777, "lat": 8.611885, "lon": 45.3322216, "tags": {"alt_name": "Goroyo Xun", "name": "Goraya Xun Hoose", "pcode": "NC-3815-K08-001", "place": "village", "source": "UNDP - 2006, GTZ - 2002, UNDP - 1997"}}, {"type": "node", "id": 1404225339, "lat": 8.54973, "lon": 45.5138, "tags": {"name": "Ali Faarah", "pcode": "NC-3815-L12-002", "place": "village", "source": "FSAU"}}, {"type": "node", "id": 1404225455, "lat": 8.47091, "lon": 45.59901, "tags": {"name": "Riyo Xidho", "pcode": "NC-3815-N14-001", "place": "village", "source": "UNDP - 2006, GTZ - 2002"}}, {"type": "node", "id": 1404229923, "lat": 8.5350869, "lon": 45.4074605, "tags": {"fixme": "check village?", "name": "Qool Goodire", "pcode": "NC-3815-M09-001", "place": "village", "source": "UNDP - 2006"}}, {"type": "node", "id": 1404230849, "lat": 8.5999141, "lon": 45.2526843, "tags": {"alt_name": "Bilciljabe;Bililjabe", "name": "Bilcijabe", "pcode": "NC-3815-K06-002", "place": "hamlet", "source": "UNDP - 1997"}}, {"type": "node", "id": 1404231555, "lat": 8.56186, "lon": 45.32607, "tags": {"alt_name": "Gorayo Xun Sare", "name": "Goroyo Sare", "pcode": "NC-3815-L08-001", "place": "village", "source": "UNDP - 2006, GTZ - 2002"}}, {"type": "node", "id": 1404231870, "lat": 8.5171407, "lon": 45.4615894, "tags": {"alt_name": "Durukhs", "name": "Duruqsi", "pcode": "NC-3815-M11-001", "place": "village", "source": "UNDP - 2006, GTZ - 2002, UNDP - 1997"}}, {"type": "node", "id": 1404233130, "lat": 8.54895, "lon": 45.51321, "tags": {"alt_name": "Cali Ciise", "name": "Cali Sahid", "pcode": "NC-3815-L12-001", "place": "village", "source": "UNDP - 2006, GTZ - 2002, UNDP - 1997"}}, {"type": "node", "id": 1404233495, "lat": 8.562089, "lon": 45.5840219, "tags": {"alt_name": "Bilcile", "name": "Ceel Bilcile", "pcode": "NC-3815-L13-001", "place": "village", "source": "UNDP - 2006, GTZ - 2002"}}, {"type": "node", "id": 7352129723, "lat": 8.4797841, "lon": 45.3959731}, {"type": "node", "id": 7352129724, "lat": 8.4795477, "lon": 45.3960186}, {"type": "node", "id": 7352129725, "lat": 8.4794164, "lon": 45.3958669}, {"type": "node", "id": 7352129726, "lat": 8.4792476, "lon": 45.3955862}, {"type": "node", "id": 7352129727, "lat": 8.4793114, "lon": 45.3952941}, {"type": "node", "id": 7352129728, "lat": 8.4794502, "lon": 45.3952562}, {"type": "node", "id": 7352129729, "lat": 8.4796565, "lon": 45.39537}, {"type": "node", "id": 7352129730, "lat": 8.4798291, "lon": 45.3955824}, {"type": "node", "id": 7352129731, "lat": 8.4798554, "lon": 45.3957948}, {"type": "way", "id": 786316094, "nodes": [7352129731, 7352129730, 7352129729, 7352129728, 7352129727, 7352129726, 7352129725, 7352129724, 7352129723, 7352129731], "tags": {"place": "islet"}}]}