{"version": 0.6, "generator": "Overpass API 0.7.62.1 084b4234", "osm3s": {"timestamp_osm_base": "2024-09-30T20:45:58Z", "copyright": "The data included in this document is from www.openstreetmap.org. The data is made available under ODbL."}, "elements": [{"type": "node", "id": 1404221366, "lat": 2.9048638, "lon": 43.8174331, "tags": {"name": "Warabaale Yare", "pcode": "NA-3806-C07-003", "place": "village", "source": "UNDP - 2006"}}, {"type": "node", "id": 1404221382, "lat": 2.9634054, "lon": 43.7579483, "tags": {"name": "Ganber", "pcode": "NA-3806-A06-001", "place": "hamlet", "source": "UNDP - 1997", "source:name": "UNSOA field mission and SPOT5 images data capture", "source:ref": "UNSOA field mission and SPOT5 images data capture"}}, {"type": "node", "id": 1404221396, "lat": 2.89606, "lon": 43.7353, "tags": {"name": "Kurkuri", "pcode": "NA-3806-C06-004", "place": "hamlet", "source": "UNDP - 2006"}}, {"type": "node", "id": 1404221677, "lat": 2.76575, "lon": 43.785931, "tags": {"name": "Macalim Midan", "pcode": "NA-3806-F07-002", "place": "locality", "source": "UNDP - 1997"}}, {"type": "node", "id": 1404221875, "lat": 2.91661, "lon": 43.70339, "tags": {"name": "Buulo Mandero", "pcode": "NA-3806-C05-005", "place": "hamlet", "source": "UNDP - 2006"}}, {"type": "node", "id": 1404222004, "lat": 2.98426, "lon": 43.69384, "tags": {"name": "Dugsiilow", "pcode": "NA-3806-A05-005", "place": "hamlet", "source": "UNDP - 2006, FSAU"}}, {"type": "node", "id": 1404222018, "lat": 2.9717485, "lon": 43.8095758, "tags": {"alt_name": "Warisha; Dhato", "name": "Jemeecada", "pcode": "NA-3806-A07-002", "place": "village", "source": "UNDP - 2006, FSAU"}}, {"type": "node", "id": 1404222047, "lat": 2.98945, "lon": 43.684158, "tags": {"name": "Daauudow", "pcode": "NA-3806-A05-006", "place": "hamlet", "source": "UNDP - 1997"}}, {"type": "node", "id": 1404222141, "lat": 2.97496, "lon": 43.73968, "tags": {"name": "Kuuji Waraabay", "pcode": "NA-3806-A06-004", "place": "hamlet", "source": "UNDP - 2006"}}, {"type": "node", "id": 1404222203, "lat": 2.9120391, "lon": 43.8300634, "tags": {"alt_name": "Dooy-Gaab", "name": "Bulo Banoi", "pcode": "NA-3806-C08-002", "place": "village", "source": "UNDP - 2006", "source:name": "UNSOA field mission and SPOT5 images data capture"}}, {"type": "node", "id": 1404222366, "lat": 2.878, "lon": 43.778648, "tags": {"name": "Siigolay", "pcode": "NA-3806-C07-001", "place": "locality", "source": "UNDP - 1997"}}, {"type": "node", "id": 1404222674, "lat": 2.96463, "lon": 43.89497, "tags": {"alt_name": "Qadiidli-Wiin", "name": "Qadiidle", "pcode": "NA-3806-A09-002", "place": "village", "source": "UNDP - 2006, UNDP - 1997", "source:name": "UNSOA field mission and SPOT5 images data capture"}}, {"type": "node", "id": 1404222717, "lat": 2.970985, "lon": 43.7698843, "tags": {"fixme": "check !!", "name": "Baayale Sh. Aden", "pcode": "NA-3806-A06-003", "place": "village", "source": "UNDP - 2006"}}, {"type": "node", "id": 1404222792, "lat": 3.0912828, "lon": 43.5457414, "tags": {"name": "Gamarey", "pcode": "NA-3802-X01-003", "place": "isolated_dwelling", "source": "UNDP - 1997"}}, {"type": "node", "id": 1404222804, "lat": 2.8042373, "lon": 43.9247793, "tags": {"alt_name": "Kuunya Korey", "name": "Kuunya", "pcode": "NA-3806-E10-001", "place": "hamlet", "source": "UNDP - 2006, UNDP - 1997, FSAU", "source:name": "UNSOA field mission and SPOT5 images data capture"}}, {"type": "node", "id": 1404222806, "lat": 2.869011, "lon": 43.761287, "tags": {"fixme": "is in the right position??", "name": "Rowli", "pcode": "NA-3806-D06-002", "place": "village", "source": "UNDP - 2006"}}, {"type": "node", "id": 1404223050, "lat": 2.9208012, "lon": 43.7051817, "tags": {"name": "Raydable", "pcode": "NA-3806-B05-001", "place": "hamlet", "source": "UNDP - 2006"}}, {"type": "node", "id": 1404223070, "lat": 3.08768, "lon": 43.652451, "tags": {"name": "Oagaduud", "pcode": "NA-3802-X04-002", "place": "hamlet", "source": "UNDP - 1997"}}, {"type": "node", "id": 1404223098, "lat": 3.08747, "lon": 43.59531, "tags": {"name": "Dhahiro", "pcode": "NA-3802-X03-003", "place": "hamlet", "source": "UNDP - 1997"}}, {"type": "node", "id": 1404223123, "lat": 2.9974829, "lon": 43.7732832, "tags": {"name": "Baanyale Mubaarak", "pcode": "NA-3806-A06-007", "place": "hamlet", "source": "UNDP - 1997", "source:name": "UNSOA field mission and SPOT5 images data capture"}}, {"type": "node", "id": 1404223137, "lat": 3.01429, "lon": 43.785648, "tags": {"alt_name": "Kunyo Warabe", "name": "Kuniyo Warabe", "place": "hamlet", "source": "UNSOA I: E043N03_16, SPOT5 image based data capture using different Ancillary Sources coming from UNSOA field mission.", "source:date": "2008-03-03"}}, {"type": "node", "id": 1404223166, "lat": 2.9125078, "lon": 43.8092936, "tags": {"alt_name": "Warabale", "name": "Waraabalow", "pcode": "NA-3806-C07-005", "place": "village", "source": "UNDP - 2006, UNDP - 1997", "source:name": "UNSOA field mission and SPOT5 images data capture"}}, {"type": "node", "id": 1404223182, "lat": 2.7962008, "lon": 43.7718993, "tags": {"name": "Dereboshile", "pcode": "NA-3806-E06-001", "place": "hamlet", "source": "UNDP - 1997"}}, {"type": "node", "id": 1404223425, "lat": 2.8858539, "lon": 43.8742991, "tags": {"alt_name": "Cabdi Ureen", "name": "Abdi Uurane", "pcode": "NA-3806-C09-002", "place": "village", "source": "UNDP - 2006, UNDP - 1997", "source:name": "UNSOA field mission and SPOT5 images data capture"}}, {"type": "node", "id": 1404223451, "lat": 2.8726296, "lon": 43.8872026, "tags": {"alt_name": "Sabit; Zabit", "name": "Sabid", "pcode": "NA-3806-D09-002", "place": "village", "source": "UNDP - 2006, UNDP - 1997", "source:name": "UNSOA field mission and SPOT5 images data capture"}}, {"type": "node", "id": 1404223532, "lat": 2.9454442, "lon": 43.7992521, "tags": {"name": "Kaaysiney", "pcode": "NA-3806-B07-003", "place": "isolated_dwelling", "source": "UNDP - 2006, UNDP - 1997", "source:name": "UNSOA field mission and SPOT5 images data capture"}}, {"type": "node", "id": 1404223560, "lat": 2.9712328, "lon": 43.888726, "tags": {"alt_name": "Curunlow", "name": "Qurunlow", "pcode": "NA-3806-A09-003", "place": "hamlet", "source": "UNDP - 1997", "source:name": "UNSOA field mission and SPOT5 images data capture"}}, {"type": "node", "id": 1404223565, "lat": 3.035125, "lon": 43.81613, "tags": {"name": "Kuunyi", "pcode": "NA-3802-Z07-003", "place": "locality", "source": "UNDP - 2006"}}, {"type": "node", "id": 1404223706, "lat": 3.0528626, "lon": 43.6218319, "tags": {"name": "Dadjenai", "pcode": "NA-3802-Y03-003", "place": "hamlet", "source": "UNDP - 1997"}}, {"type": "node", "id": 1404223790, "lat": 3.03446, "lon": 43.717209, "tags": {"name": "Lawiilay", "pcode": "NA-3802-Z05-002", "place": "locality", "source": "UNDP - 1997"}}, {"type": "node", "id": 1404223978, "lat": 3.10042, "lon": 43.603531, "tags": {"name": "Saoow", "pcode": "NA-3802-X03-004", "place": "locality", "source": "UNDP - 1997"}}, {"type": "node", "id": 1404224120, "lat": 3.06742, "lon": 43.76515, "tags": {"name": "Dhanbalka", "pcode": "NA-3802-Y06-001", "place": "village", "source": "UNDP - 2006"}}, {"type": "node", "id": 1404224129, "lat": 2.8597593, "lon": 43.9098595, "tags": {"name": "Doyaleey", "pcode": "NA-3806-D10-006", "place": "village", "source": "UNDP - 2006"}}, {"type": "node", "id": 1404224157, "lat": 2.83925, "lon": 43.77496, "tags": {"name": "Weelbisigle", "pcode": "NA-3806-D07-002", "place": "locality", "source": "UNDP - 1997"}}, {"type": "node", "id": 1404224202, "lat": 3.0287471, "lon": 43.8794186, "tags": {"name": "Warqadey", "pcode": "NA-3802-Z09-001", "place": "village", "source": "UNDP - 2006"}}, {"type": "node", "id": 1404224233, "lat": 2.98105, "lon": 43.80595, "tags": {"name": "Jemeecada", "pcode": "NA-3806-A07-003", "place": "locality", "source": "UNDP - 1997"}}, {"type": "node", "id": 1404224570, "lat": 2.95895, "lon": 43.80868, "tags": {"name": "Mogdiile", "pcode": "NA-3806-A07-001", "place": "village", "source": "UNDP - 2006"}}, {"type": "node", "id": 1404224691, "lat": 3.0809326, "lon": 43.6068983, "tags": {"name": "Guwela", "pcode": "NA-3802-Y03-001", "place": "hamlet", "source": "UNDP - 1997"}}, {"type": "node", "id": 1404224776, "lat": 2.9814729, "lon": 43.7601966, "tags": {"name": "Baanyaale", "pcode": "NA-3806-A06-006", "place": "hamlet", "source": "UNDP - 1997", "source:name": "UNSOA field mission and SPOT5 images data capture"}}, {"type": "node", "id": 1404224791, "lat": 3.0325362, "lon": 43.6383376, "tags": {"name": "Borama \u0628\u0648\u0631\u0627\u0645\u0627", "name:ar": "\u0628\u0648\u0631\u0627\u0645\u0627", "pcode": "NA-3802-Z04-002", "place": "hamlet", "source": "UNDP - 1997"}}, {"type": "node", "id": 1404225130, "lat": 3.00871, "lon": 43.764019, "tags": {"name": "Baanyale Banka", "pcode": "NA-3802-Z06-001", "place": "village", "source": "UNDP - 1997"}}, {"type": "node", "id": 1404225205, "lat": 3.02558, "lon": 43.650749, "tags": {"name": "Madina", "pcode": "NA-3802-Z04-001", "place": "locality", "source": "UNDP - 1997"}}, {"type": "node", "id": 1404225458, "lat": 2.7523, "lon": 43.8325, "tags": {"name": "Bulo Tugar", "pcode": "NA-3806-F08-001", "place": "locality", "source": "UNDP - 1997"}}, {"type": "node", "id": 1404225520, "lat": 2.9469151, "lon": 43.7639279, "tags": {"name": "Gallow", "pcode": "NA-3806-B06-003", "place": "isolated_dwelling", "source": "UNDP - 1997", "source:name": "UNSOA field mission and SPOT5 images data capture", "source:ref": "UNSOA field mission and SPOT5 images data capture"}}, {"type": "node", "id": 1404225524, "lat": 2.92294, "lon": 43.70419, "tags": {"name": "Irwerka", "pcode": "NA-3806-B05-002", "place": "hamlet", "source": "UNDP - 2006"}}, {"type": "node", "id": 1404225793, "lat": 2.70193, "lon": 43.925091, "tags": {"name": "Darabqooy", "pcode": "NA-3806-H10-005", "place": "isolated_dwelling", "source": "UNDP - 1997"}}, {"type": "node", "id": 1404225801, "lat": 2.9213704, "lon": 43.7733557, "tags": {"name": "Caashe", "pcode": "NA-3806-B07-002", "place": "hamlet", "source": "UNDP - 1997", "source:name": "UNSOA field mission and SPOT5 images data capture"}}, {"type": "node", "id": 1404225877, "lat": 2.7507875, "lon": 43.8049897, "tags": {"name": "Heydabta", "pcode": "NA-3806-F07-001", "place": "hamlet", "source": "UNDP - 1997"}}, {"type": "node", "id": 1404226292, "lat": 2.8953, "lon": 43.733971, "tags": {"name": "Kurankuro", "pcode": "NA-3806-C06-003", "place": "hamlet", "source": "UNDP - 1997"}}, {"type": "node", "id": 1404226300, "lat": 2.88459, "lon": 43.77197, "tags": {"alt_name": "Islan Wiyn", "name": "Asalin-Wiini", "pcode": "NA-3806-C06-001", "place": "locality", "source": "UNDP - 2006, UNDP - 1997"}}, {"type": "node", "id": 1404226304, "lat": 2.9855984, "lon": 43.8060216, "tags": {"alt_name": "Golli", "name": "Gol", "pcode": "NA-3806-A07-005", "place": "hamlet", "source": "UNDP - 2006, UNDP - 1997", "source:name": "UNSOA field mission and SPOT5 images data capture"}}, {"type": "node", "id": 1404226544, "lat": 3.0862233, "lon": 43.5538268, "tags": {"name": "Aroos Ibir", "pcode": "NA-3802-X02-001", "place": "hamlet", "source": "UNDP - 1997"}}, {"type": "node", "id": 1404226580, "lat": 2.93973, "lon": 43.765839, "tags": {"name": "Kunyogo", "pcode": "NA-3806-B06-001", "place": "locality", "source": "UNDP - 1997"}}, {"type": "node", "id": 1404226610, "lat": 2.8933371, "lon": 43.8044394, "tags": {"alt_name": "Aliyow Dooyow", "name": "Caliyow Dooyo", "pcode": "NA-3806-C07-002", "place": "village", "source": "UNDP - 2006, UNDP - 1997", "source:name": "UNSOA field mission and SPOT5 images data capture"}}, {"type": "node", "id": 1404226619, "lat": 2.9643306, "lon": 43.9185537, "tags": {"name": "Orogdi", "pcode": "NA-3806-A10-003", "place": "hamlet", "source": "UNDP - 2006"}}, {"type": "node", "id": 1404226715, "lat": 3.09078, "lon": 43.88554, "tags": {"name": "Tinjiroow", "pcode": "NA-3802-X09-003", "place": "locality", "source": "UNDP - 1997"}}, {"type": "node", "id": 1404226861, "lat": 3.03232, "lon": 43.82595, "tags": {"alt_name": "Grangrasle", "name": "Garangarasle", "pcode": "NA-3802-Z08-002", "place": "hamlet", "source": "UNDP - 2006, UNDP - 1997"}}, {"type": "node", "id": 1404226903, "lat": 2.9439773, "lon": 43.9162747, "tags": {"alt_name": "Roobli-Sheekh", "name": "Rooble Shiikh", "pcode": "NA-3806-B10-005", "place": "village", "source": "UNDP - 2006, UNDP - 1997", "source:name": "UNSOA field mission and SPOT5 images data capture"}}, {"type": "node", "id": 1404227615, "lat": 3.033106, "lon": 43.9173043, "tags": {"name": "Samakay Gadudi", "pcode": "NA-3802-Z10-005", "place": "village", "source": "UNDP - 2006"}}, {"type": "node", "id": 1404227678, "lat": 3.06037, "lon": 43.77232, "tags": {"alt_name": "Gonownog", "name": "Korow-Rooge", "pcode": "NA-3802-Y06-002", "place": "village", "source": "UNDP - 2006, UNDP - 1997"}}, {"type": "node", "id": 1404227758, "lat": 3.0684706, "lon": 43.5512477, "tags": {"name": "Galoshe", "pcode": "NA-3802-Y01-002", "place": "hamlet", "source": "UNDP - 1997"}}, {"type": "node", "id": 1404228004, "lat": 2.9735346, "lon": 43.693566, "tags": {"name": "Murmurka", "pcode": "NA-3806-A05-002", "place": "hamlet", "source": "UNDP - 2006"}}, {"type": "node", "id": 1404228029, "lat": 2.8547725, "lon": 43.8140057, "tags": {"name": "Buulo Hanyow", "pcode": "NA-3806-D07-004", "place": "hamlet", "source": "UNDP - 1997", "source:name": "UNSOA field mission and SPOT5 images data capture"}}, {"type": "node", "id": 1404228225, "lat": 2.9947534, "lon": 43.7990639, "tags": {"alt_name": "Lowi-Buul", "name": "Low Buulo", "pcode": "NA-3806-A07-006", "place": "hamlet", "source": "UNDP - 2006, UNDP - 1997", "source:name": "UNSOA field mission and SPOT5 images data capture"}}, {"type": "node", "id": 1404228247, "lat": 3.0670163, "lon": 43.6033397, "tags": {"name": "Makuudo", "pcode": "NA-3802-Y03-005", "place": "village", "source": "UNDP - 2006, FSAU"}}, {"type": "node", "id": 1404228256, "lat": 2.8742418, "lon": 43.8970684, "tags": {"name": "Caliyow Maadow", "pcode": "NA-3806-D09-003", "place": "hamlet", "source": "UNDP - 2006"}}, {"type": "node", "id": 1404228342, "lat": 3.0456833, "lon": 43.6220521, "tags": {"name": "Waraji", "pcode": "NA-3802-Y03-006", "place": "hamlet", "source": "UNDP - 1997"}}, {"type": "node", "id": 1404228417, "lat": 2.728745, "lon": 43.63409, "tags": {"name": "Jamacadda", "pcode": "NA-3806-G03-003", "place": "hamlet", "source": "UNDP - 2006"}}, {"type": "node", "id": 1404228516, "lat": 2.69481, "lon": 43.628479, "tags": {"name": "Dhafaad Fuurka", "pcode": "NA-3806-H03-002", "place": "village", "source": "UNDP - 1997"}}, {"type": "node", "id": 1404228697, "lat": 3.04523, "lon": 43.91254, "tags": {"name": "Isnaarka", "pcode": "NA-3802-Y10-005", "place": "village", "source": "UNDP - 2006"}}, {"type": "node", "id": 1404228707, "lat": 3.0340214, "lon": 43.5517087, "tags": {"name": "Deg Gonay", "pcode": "NA-3802-Z02-001", "place": "hamlet", "source": "UNDP - 1997"}}, {"type": "node", "id": 1404229318, "lat": 3.0572068, "lon": 43.6510347, "tags": {"name": "Daudow", "pcode": "NA-3802-Y04-001", "place": "hamlet", "source": "UNDP - 2006, FSAU"}}, {"type": "node", "id": 1404229577, "lat": 3.10123, "lon": 43.5613, "tags": {"alt_name": "Hara", "name": "Haarri", "pcode": "NA-3802-X02-004", "place": "village", "source": "UNDP - 2006, UNDP - 1997"}}, {"type": "node", "id": 1404229729, "lat": 2.7675089, "lon": 43.8111623, "tags": {"name": "Shawgah", "pcode": "NA-3806-F07-003", "place": "isolated_dwelling", "source": "UNDP - 1997", "source:name": "UNSOA field mission and SPOT5 images data capture", "source:ref": "UNSOA field mission and SPOT5 images data capture"}}, {"type": "node", "id": 1404229797, "lat": 2.8144172, "lon": 43.9118751, "tags": {"alt_name": "Kerrow Deqa; Keerow Diiga", "name": "Jemeecada Kerrow Deqa", "pcode": "NA-3806-E10-002", "place": "hamlet", "source": "UNDP - 2006, UNDP - 1997", "source:name": "UNSOA field mission and SPOT5 images data capture"}}, {"type": "node", "id": 1404229801, "lat": 3.1003689, "lon": 43.9013672, "tags": {"name": "Goormay", "pcode": "NA-3802-X09-002", "place": "locality", "source": "UNDP - 1997"}}, {"type": "node", "id": 1404229913, "lat": 3.0743575, "lon": 43.628795, "tags": {"name": "Tifow", "pcode": "NA-3802-Y03-004", "place": "hamlet", "source": "UNDP - 1997"}}, {"type": "node", "id": 1404229940, "lat": 2.982705, "lon": 43.8756622, "tags": {"alt_name": "Shinbir", "name": "Shimbire", "pcode": "NA-3806-A09-004", "place": "hamlet", "source": "UNDP - 2006, UNDP - 1997, FSAU"}}, {"type": "node", "id": 1404230005, "lat": 2.83773, "lon": 43.78529, "tags": {"name": "Xanyayi", "pcode": "NA-3806-D07-001", "place": "locality", "source": "UNDP - 1997"}}, {"type": "node", "id": 1404230141, "lat": 2.87894, "lon": 43.90129, "tags": {"name": "Raydabow", "pcode": "NA-3806-C09-001", "place": "village", "source": "UNDP - 2006, UNDP - 1997", "source:name": "UNSOA field mission and SPOT5 images data capture"}}, {"type": "node", "id": 1404230321, "lat": 2.9571934, "lon": 43.8086529, "tags": {"alt_name": "War Isho", "name": "Madi-Wiini", "pcode": "NA-3806-B07-005", "place": "village", "source": "UNDP - 2006, UNDP - 1997"}}, {"type": "node", "id": 1404230351, "lat": 2.97833, "lon": 43.7034341, "tags": {"name": "War Gaduud", "pcode": "NA-3806-A05-004", "place": "hamlet", "source": "UNDP - 1997"}}, {"type": "node", "id": 1404230364, "lat": 3.08067, "lon": 43.79295, "tags": {"name": "Idaw Madow", "pcode": "NA-3802-Y07-001", "place": "locality", "source": "UNDP - 1997"}}, {"type": "node", "id": 1404230438, "lat": 2.89331, "lon": 43.74963, "tags": {"alt_name": "Islan Yaray", "name": "Asalin Yarey", "pcode": "NA-3806-C06-002", "place": "hamlet", "source": "UNDP - 2006, UNDP - 1997"}}, {"type": "node", "id": 1404230482, "lat": 2.71382, "lon": 43.62031, "tags": {"alt_name": "Lowiga", "name": "Lowiiqa", "pcode": "NA-3806-G03-001", "place": "hamlet", "source": "UNDP - 2006, UNDP - 1997"}}, {"type": "node", "id": 1404230610, "lat": 2.9539037, "lon": 43.770694, "tags": {"name": "Barkhadlow", "pcode": "NA-3806-B06-004", "place": "hamlet", "source": "UNDP - 1997", "source:name": "UNSOA field mission and SPOT5 images data capture"}}, {"type": "node", "id": 1404230717, "lat": 3.1, "lon": 43.85969, "tags": {"name": "Lafa", "pcode": "NA-3802-X08-003", "place": "village", "source": "UNDP - 2006"}}, {"type": "node", "id": 1404230745, "lat": 2.8428526, "lon": 43.8820013, "tags": {"name": "Hoosow", "pcode": "NA-3806-D09-001", "place": "hamlet", "source": "UNDP - 2006, UNDP - 1997", "source:name": "UNSOA field mission and SPOT5 images data capture"}}, {"type": "node", "id": 1404230802, "lat": 2.963978, "lon": 43.9093287, "tags": {"alt_name": "Qadiidli-Yarey", "name": "Qadiidle Xarey", "pcode": "NA-3806-A09-001", "place": "hamlet", "source": "UNDP - 2006, UNDP - 1997", "source:name": "UNSOA field mission and SPOT5 images data capture"}}, {"type": "node", "id": 1404230891, "lat": 2.99306, "lon": 43.721882, "tags": {"name": "Waabomte", "pcode": "NA-3806-A05-007", "place": "hamlet", "source": "UNDP - 1997"}}, {"type": "node", "id": 1404231017, "lat": 2.7686295, "lon": 43.7986956, "tags": {"name": "Xudow", "pcode": "NA-3806-F07-005", "place": "isolated_dwelling", "source": "UNDP - 1997", "source:name": "UNSOA field mission and SPOT5 images data capture", "source:ref": "UNSOA field mission and SPOT5 images data capture"}}, {"type": "node", "id": 1404231151, "lat": 2.7536637, "lon": 43.849223, "tags": {"name": "Shillow", "pcode": "NA-3806-F08-002", "place": "isolated_dwelling", "source": "UNDP - 1997", "source:name": "UNSOA field mission and SPOT5 images data capture", "source:ref": "UNSOA field mission and SPOT5 images data capture"}}, {"type": "node", "id": 1404231242, "lat": 2.8975341, "lon": 43.8536981, "tags": {"alt_name": "Qorontoola", "name": "Qorantole", "pcode": "NA-3806-C08-001", "place": "village", "source": "UNDP - 2006, UNDP - 1997"}}, {"type": "node", "id": 1404231299, "lat": 2.9786, "lon": 43.820801, "tags": {"name": "Bulo Gasei", "pcode": "NA-3806-A08-001", "place": "locality", "source": "UNDP - 1997"}}, {"type": "node", "id": 1404231389, "lat": 2.95639, "lon": 43.716511, "tags": {"name": "Showle", "pcode": "NA-3806-B05-008", "place": "hamlet", "source": "UNDP - 1997"}}, {"type": "node", "id": 1404231644, "lat": 2.987362, "lon": 43.7860006, "tags": {"name": "Maxamuudow", "pcode": "NA-3806-A07-004", "place": "hamlet", "source": "UNDP - 1997"}}, {"type": "node", "id": 1404231660, "lat": 2.95258, "lon": 43.80986, "tags": {"name": "Aleemi", "pcode": "NA-3806-B07-004", "place": "locality", "source": "UNDP - 2006"}}, {"type": "node", "id": 1404231777, "lat": 2.756251, "lon": 43.8592441, "tags": {"name": "Kaysannay", "pcode": "NA-3806-F08-003", "place": "hamlet", "source": "UNDP - 1997", "source:name": "UNSOA field mission and SPOT5 images data capture", "source:ref": "UNSOA field mission and SPOT5 images data capture"}}, {"type": "node", "id": 1404231822, "lat": 3.09437, "lon": 43.820549, "tags": {"name": "Buur Halab", "pcode": "NA-3802-X08-001", "place": "locality", "source": "UNDP - 1997"}}, {"type": "node", "id": 1404231894, "lat": 2.76414, "lon": 43.84619, "tags": {"name": "Buulo Towsiile", "pcode": "NA-3806-F08-004", "place": "locality", "source": "UNDP - 2006"}}, {"type": "node", "id": 1404231913, "lat": 2.692576, "lon": 43.7074686, "tags": {"name": "Mansuur", "pcode": "NA-3806-H05-001", "place": "village", "source": "UNDP - 1997"}}, {"type": "node", "id": 1404232007, "lat": 2.97552, "lon": 43.738289, "tags": {"name": "Gaal Looge", "pcode": "NA-3806-A06-005", "place": "hamlet", "source": "UNDP - 1997"}}, {"type": "node", "id": 1404232246, "lat": 3.0700401, "lon": 43.599083, "tags": {"name": "Maar", "pcode": "NA-3802-Y03-002", "place": "hamlet", "source": "UNDP - 1997"}}, {"type": "node", "id": 1404232372, "lat": 3.0736934, "lon": 43.5596779, "tags": {"name": "Ashagow", "pcode": "NA-3802-Y02-002", "place": "hamlet", "source": "UNDP - 1997"}}, {"type": "node", "id": 1404232391, "lat": 2.87039, "lon": 43.760471, "tags": {"name": "Ruudah", "pcode": "NA-3806-D06-003", "place": "hamlet", "source": "UNDP - 1997", "source:name": "UNSOA field mission and SPOT5 images data capture"}}, {"type": "node", "id": 1404232528, "lat": 2.85562, "lon": 43.77981, "tags": {"alt_name": "Dhun Dhufay", "name": "Dhun Dhufaay", "pcode": "NA-3806-D07-003", "place": "hamlet", "source": "UNDP - 2006, UNDP - 1997", "source:name": "UNSOA field mission and SPOT5 images data capture"}}, {"type": "node", "id": 1404232556, "lat": 3.0953836, "lon": 43.5922925, "tags": {"name": "Shagow", "pcode": "NA-3802-X03-005", "place": "hamlet", "source": "UNDP - 1997"}}, {"type": "node", "id": 1404232567, "lat": 3.0504107, "lon": 43.8990078, "tags": {"name": "Ghelai", "pcode": "NA-3802-Y09-004", "place": "village", "source": "UNDP - 1997"}}, {"type": "node", "id": 1404233020, "lat": 2.92805, "lon": 43.670929, "tags": {"name": "Dhulbaanta", "place": "isolated_dwelling", "source": "UNSOA field mission", "source:date": "2008-03-03"}}, {"type": "node", "id": 1404233085, "lat": 3.02881, "lon": 43.751011, "tags": {"name": "Baanyala Gool Galool", "pcode": "NA-3802-Z06-002", "place": "locality", "source": "UNDP - 1997"}}, {"type": "node", "id": 1404233145, "lat": 2.726945, "lon": 43.63425, "tags": {"alt_name": "Baas Ma Lah", "name": "Basmala", "pcode": "NA-3806-G03-002", "place": "hamlet", "source": "UNDP - 2006, UNDP - 1997"}}, {"type": "node", "id": 1404233167, "lat": 2.8144523, "lon": 43.8888204, "tags": {"alt_name": "Galool Oonle", "name": "Goloonle", "pcode": "NA-3806-E09-001", "place": "hamlet", "source": "UNDP - 2006, UNDP - 1997", "source:name": "UNSOA field mission and SPOT5 images data capture"}}, {"type": "node", "id": 1404233177, "lat": 2.8869804, "lon": 43.8671555, "tags": {"name": "Lufa", "pcode": "NA-3806-C09-003", "place": "village", "source": "UNDP - 2006"}}, {"type": "node", "id": 1404233306, "lat": 2.9712103, "lon": 43.7696318, "tags": {"alt_name": "Gal Madowle", "name": "Gal Madowle", "pcode": "NA-3806-A06-002", "place": "hamlet", "source": "UNDP - 1997", "source:name": "UNSOA field mission and SPOT5 images data capture", "source:ref": "UNSOA field mission and SPOT5 images data capture"}}, {"type": "node", "id": 1404233350, "lat": 3.06538, "lon": 43.87549, "tags": {"alt_name": "Gawan", "name": "Gawaan", "pcode": "NA-3802-Y09-002", "place": "village", "source": "UNDP - 2006, UNDP - 1997"}}, {"type": "node", "id": 1404233373, "lat": 3.0715855, "lon": 43.5620919, "tags": {"name": "Med Cerba", "pcode": "NA-3802-Y02-001", "place": "hamlet", "source": "UNDP - 1997"}}, {"type": "node", "id": 1404233381, "lat": 2.9059703, "lon": 43.8177684, "tags": {"name": "Miriqlay", "pcode": "NA-3806-C07-004", "place": "hamlet", "source": "UNDP - 1997", "source:name": "UNSOA field mission and SPOT5 images data capture"}}, {"type": "node", "id": 1404233439, "lat": 2.93309, "lon": 43.69705, "tags": {"name": "Koorow", "pcode": "NA-3806-B05-005", "place": "village", "source": "UNDP - 2006"}}, {"type": "node", "id": 1404233637, "lat": 2.7695, "lon": 43.7771, "tags": {"name": "Abac Gurei", "pcode": "NA-3806-F07-004", "place": "locality", "source": "UNDP - 1997"}}, {"type": "node", "id": 1404233692, "lat": 2.9184765, "lon": 43.8032034, "tags": {"name": "Buulo Iman", "pcode": "NA-3806-B07-001", "place": "hamlet", "source": "UNDP - 2006"}}, {"type": "node", "id": 5982125008, "lat": 3.0426954, "lon": 43.8018947}, {"type": "node", "id": 5982125019, "lat": 3.041324, "lon": 43.801193}, {"type": "node", "id": 5982125063, "lat": 3.0417976, "lon": 43.8014881}, {"type": "node", "id": 5982125080, "lat": 3.04221, "lon": 43.7993971}, {"type": "node", "id": 5982125090, "lat": 3.0431239, "lon": 43.7994335}, {"type": "node", "id": 5982125103, "lat": 3.0435096, "lon": 43.8020084}, {"type": "node", "id": 5982125125, "lat": 3.0433425, "lon": 43.8000826}, {"type": "node", "id": 5982125126, "lat": 3.0436677, "lon": 43.8013674}, {"type": "node", "id": 5984061782, "lat": 3.0998214, "lon": 43.8617002}, {"type": "node", "id": 5984061783, "lat": 3.0970333, "lon": 43.8618262}, {"type": "node", "id": 5984063589, "lat": 3.1005285, "lon": 43.8591038}, {"type": "node", "id": 5984063619, "lat": 3.100964, "lon": 43.8600479}, {"type": "node", "id": 5984063625, "lat": 3.0981732, "lon": 43.8608419}, {"type": "node", "id": 5984063626, "lat": 3.0999516, "lon": 43.8574998}, {"type": "node", "id": 5984063638, "lat": 3.0982413, "lon": 43.862265}, {"type": "node", "id": 5984063652, "lat": 3.100182, "lon": 43.8617876}, {"type": "node", "id": 5984063653, "lat": 3.1014835, "lon": 43.8607324}, {"type": "node", "id": 5984063670, "lat": 3.1011338, "lon": 43.8610806}, {"type": "node", "id": 5984063674, "lat": 3.0991786, "lon": 43.8588871}, {"type": "node", "id": 5984063682, "lat": 3.0990892, "lon": 43.8590856}, {"type": "node", "id": 5984063895, "lat": 3.1007069, "lon": 43.8614067}, {"type": "node", "id": 5984063910, "lat": 3.0990678, "lon": 43.8583045}, {"type": "node", "id": 5984063922, "lat": 3.1007428, "lon": 43.8598119}, {"type": "node", "id": 5984063926, "lat": 3.0994374, "lon": 43.8615714}, {"type": "node", "id": 5984063932, "lat": 3.0976118, "lon": 43.8610441}, {"type": "node", "id": 5984063933, "lat": 3.0989162, "lon": 43.8616551}, {"type": "node", "id": 5984063934, "lat": 3.0975331, "lon": 43.8622318}, {"type": "node", "id": 5984063936, "lat": 3.0991213, "lon": 43.8596402}, {"type": "node", "id": 5984063943, "lat": 3.1002141, "lon": 43.8583313}, {"type": "node", "id": 5984063945, "lat": 3.0990768, "lon": 43.8600265}, {"type": "node", "id": 5984063947, "lat": 3.0976751, "lon": 43.8623794}, {"type": "node", "id": 5984063952, "lat": 3.0990142, "lon": 43.8592518}, {"type": "node", "id": 5984064086, "lat": 3.0987999, "lon": 43.8606042}, {"type": "node", "id": 6008712862, "lat": 2.6981069, "lon": 43.6582676, "tags": {"alt_name": "Isgoy", "name": "Isgooy", "pcode": "NA-3806-H04-004", "place": "village", "source": "UNDP - 2006, UNDP - 1997"}}, {"type": "node", "id": 6114997249, "lat": 3.030723, "lon": 43.6216351, "tags": {"place": "hamlet"}}, {"type": "node", "id": 6114997381, "lat": 3.0915444, "lon": 43.7435567, "tags": {"place": "isolated_dwelling"}}, {"type": "node", "id": 6114997382, "lat": 3.0779783, "lon": 43.7389734, "tags": {"place": "hamlet"}}, {"type": "node", "id": 6123587738, "lat": 2.9170334, "lon": 43.7710842, "tags": {"place": "hamlet"}}, {"type": "node", "id": 6123587807, "lat": 2.9628093, "lon": 43.8097268, "tags": {"name": "War Isho", "place": "hamlet", "source:name": "UNSOA field mission and SPOT5 images data capture"}}, {"type": "node", "id": 6123588059, "lat": 2.924933, "lon": 43.8007951, "tags": {"place": "hamlet"}}, {"type": "node", "id": 6123588104, "lat": 2.9027744, "lon": 43.8484687, "tags": {"place": "hamlet"}}, {"type": "node", "id": 6123588159, "lat": 2.9062584, "lon": 43.8399762, "tags": {"name": "Qorontoola", "place": "hamlet", "source:name": "UNSOA field mission and SPOT5 images data capture"}}, {"type": "node", "id": 6123588402, "lat": 2.8819977, "lon": 43.8801295, "tags": {"place": "hamlet"}}, {"type": "node", "id": 6123588622, "lat": 2.8792374, "lon": 43.9057385, "tags": {"place": "hamlet"}}, {"type": "node", "id": 6123588948, "lat": 2.9905488, "lon": 43.8760042, "tags": {"name": "Shinbir", "place": "hamlet", "source:name": "UNSOA field mission and SPOT5 images data capture"}}, {"type": "node", "id": 6127895199, "lat": 2.840569, "lon": 43.7936772, "tags": {"place": "isolated_dwelling", "source:ref": "UNSOA field mission and SPOT5 images data capture"}}, {"type": "node", "id": 6127895230, "lat": 2.885257, "lon": 43.7571782, "tags": {"place": "isolated_dwelling", "source:ref": "UNSOA field mission and SPOT5 images data capture"}}, {"type": "node", "id": 6127895241, "lat": 2.9150678, "lon": 43.8355682, "tags": {"place": "hamlet", "source:ref": "UNSOA field mission and SPOT5 images data capture"}}, {"type": "node", "id": 6127895243, "lat": 2.9081224, "lon": 43.8385334, "tags": {"place": "hamlet", "source:ref": "UNSOA field mission and SPOT5 images data capture"}}, {"type": "node", "id": 6127895266, "lat": 2.9106087, "lon": 43.8375664, "tags": {"place": "hamlet", "source:ref": "UNSOA field mission and SPOT5 images data capture"}}, {"type": "node", "id": 6127895268, "lat": 2.9824197, "lon": 43.804266, "tags": {"place": "isolated_dwelling", "source:ref": "UNSOA field mission and SPOT5 images data capture"}}, {"type": "node", "id": 6127902987, "lat": 2.8916858, "lon": 43.7526639, "tags": {"place": "hamlet", "source:ref": "UNSOA field mission and SPOT5 images data capture"}}, {"type": "node", "id": 6127902988, "lat": 2.991833, "lon": 43.8015612, "tags": {"place": "hamlet", "source:ref": "UNSOA field mission and SPOT5 images data capture"}}, {"type": "node", "id": 6127903036, "lat": 2.836731, "lon": 43.7993908, "tags": {"place": "hamlet"}}, {"type": "node", "id": 6127903047, "lat": 2.7963905, "lon": 43.7623396, "tags": {"place": "hamlet", "source:ref": "UNSOA field mission and SPOT5 images data capture"}}, {"type": "node", "id": 6127903048, "lat": 2.8136614, "lon": 43.7681567, "tags": {"place": "isolated_dwelling", "source:ref": "UNSOA field mission and SPOT5 images data capture"}}, {"type": "node", "id": 6127903050, "lat": 2.835509, "lon": 43.8007217, "tags": {"place": "hamlet", "source:ref": "UNSOA field mission and SPOT5 images data capture"}}, {"type": "node", "id": 6127903051, "lat": 2.7822158, "lon": 43.7638859, "tags": {"place": "isolated_dwelling", "source:ref": "UNSOA field mission and SPOT5 images data capture"}}, {"type": "node", "id": 6127903063, "lat": 2.8908768, "lon": 43.8526706, "tags": {"place": "hamlet", "source:ref": "UNSOA field mission and SPOT5 images data capture"}}, {"type": "node", "id": 6127903290, "lat": 2.9097827, "lon": 43.8348278, "tags": {"place": "hamlet", "source:ref": "UNSOA field mission and SPOT5 images data capture"}}, {"type": "node", "id": 6127903305, "lat": 2.9160154, "lon": 43.778175, "tags": {"place": "hamlet", "source:ref": "UNSOA field mission and SPOT5 images data capture"}}, {"type": "node", "id": 6127903341, "lat": 2.9317041, "lon": 43.7917248, "tags": {"place": "village", "source:ref": "UNSOA field mission and SPOT5 images data capture"}}, {"type": "node", "id": 6127903343, "lat": 2.8965377, "lon": 43.8006832, "tags": {"place": "hamlet", "source:ref": "UNSOA field mission and SPOT5 images data capture"}}, {"type": "node", "id": 6127903521, "lat": 2.8883165, "lon": 43.7618724, "tags": {"name": "Islan Wiyn", "place": "hamlet", "source:name": "UNSOA field mission and SPOT5 images data capture", "source:ref": "UNSOA field mission and SPOT5 images data capture"}}, {"type": "node", "id": 6130486064, "lat": 2.9608432, "lon": 43.9234418}, {"type": "node", "id": 6130486065, "lat": 2.9600557, "lon": 43.9240077}, {"type": "node", "id": 6130486066, "lat": 2.959753, "lon": 43.9239621}, {"type": "node", "id": 6130486067, "lat": 2.9592896, "lon": 43.9239863}, {"type": "node", "id": 6130486068, "lat": 2.9580414, "lon": 43.9243725}, {"type": "node", "id": 6130486069, "lat": 2.957653, "lon": 43.9245415}, {"type": "node", "id": 6130486070, "lat": 2.9574306, "lon": 43.9246595}, {"type": "node", "id": 6130486071, "lat": 2.9573824, "lon": 43.9248607}, {"type": "node", "id": 6130486072, "lat": 2.9575378, "lon": 43.9250538}, {"type": "node", "id": 6130486073, "lat": 2.9580253, "lon": 43.9252308}, {"type": "node", "id": 6130486074, "lat": 2.9583253, "lon": 43.925212}, {"type": "node", "id": 6130486075, "lat": 2.9589869, "lon": 43.9248607}, {"type": "node", "id": 6130486076, "lat": 2.9593512, "lon": 43.9243886}, {"type": "node", "id": 6130486077, "lat": 2.959445, "lon": 43.9242035}, {"type": "node", "id": 6130486078, "lat": 2.9600664, "lon": 43.9242035}, {"type": "node", "id": 6130486079, "lat": 2.9604361, "lon": 43.9243779}, {"type": "node", "id": 6130486080, "lat": 2.960787, "lon": 43.9245012}, {"type": "node", "id": 6130486081, "lat": 2.9602298, "lon": 43.9239943}, {"type": "node", "id": 6130486082, "lat": 2.9607334, "lon": 43.9235383}, {"type": "node", "id": 6130486083, "lat": 2.9611968, "lon": 43.9234605}, {"type": "node", "id": 6130486084, "lat": 2.9615664, "lon": 43.9244395}, {"type": "node", "id": 6130486085, "lat": 2.9620432, "lon": 43.9252013}, {"type": "node", "id": 6130486086, "lat": 2.9615557, "lon": 43.9259469}, {"type": "node", "id": 6130486087, "lat": 2.9612825, "lon": 43.9259255}, {"type": "node", "id": 6130486088, "lat": 2.9609557, "lon": 43.9256358}, {"type": "node", "id": 6130486089, "lat": 2.9610575, "lon": 43.9252174}, {"type": "node", "id": 6130486090, "lat": 2.9609825, "lon": 43.9245415}, {"type": "node", "id": 6130486091, "lat": 2.9609691, "lon": 43.9234069}, {"type": "node", "id": 6130486364, "lat": 2.9586621, "lon": 43.925079}, {"type": "node", "id": 6130486489, "lat": 2.9610947, "lon": 43.9247098}, {"type": "node", "id": 6130486501, "lat": 2.9611015, "lon": 43.9234272}, {"type": "node", "id": 6130486529, "lat": 2.9573101, "lon": 43.9247462}, {"type": "node", "id": 6130486555, "lat": 2.9598875, "lon": 43.9241549}, {"type": "node", "id": 6130486567, "lat": 2.9614306, "lon": 43.9238975}, {"type": "node", "id": 6130486696, "lat": 2.9585011, "lon": 43.924115}, {"type": "node", "id": 6130486735, "lat": 2.9617693, "lon": 43.9248136}, {"type": "node", "id": 6130486762, "lat": 2.9618822, "lon": 43.925726}, {"type": "node", "id": 6130486926, "lat": 2.9610637, "lon": 43.9258342}, {"type": "node", "id": 6130486965, "lat": 2.9592093, "lon": 43.9246101}, {"type": "node", "id": 6130486991, "lat": 2.961178, "lon": 43.9249121}, {"type": "node", "id": 6130487003, "lat": 2.9603876, "lon": 43.9239157}, {"type": "node", "id": 6130487019, "lat": 2.9620393, "lon": 43.9253628}, {"type": "node", "id": 6130487031, "lat": 2.9577797, "lon": 43.9251885}, {"type": "node", "id": 6130487056, "lat": 2.9602351, "lon": 43.9242767}, {"type": "node", "id": 6130487068, "lat": 2.9612808, "lon": 43.9235275}, {"type": "node", "id": 6130487196, "lat": 2.9578535, "lon": 43.9244424}, {"type": "node", "id": 6130487235, "lat": 2.9615645, "lon": 43.92421}, {"type": "node", "id": 6130487264, "lat": 2.9588517, "lon": 43.9240051}, {"type": "node", "id": 6130487303, "lat": 2.9619108, "lon": 43.9249891}, {"type": "node", "id": 6130487330, "lat": 2.9617532, "lon": 43.9258669}, {"type": "node", "id": 6130487368, "lat": 2.9596174, "lon": 43.9241476}, {"type": "node", "id": 6130487395, "lat": 2.9609453, "lon": 43.9254305}, {"type": "node", "id": 6130786819, "lat": 2.9996546, "lon": 43.6912475, "tags": {"place": "isolated_dwelling", "source": "UNSOA field mission", "source:date": "2008-03-03"}}, {"type": "node", "id": 6130786820, "lat": 2.9812564, "lon": 43.7106398, "tags": {"place": "isolated_dwelling", "source": "UNSOA field mission", "source:date": "2008-03-03"}}, {"type": "node", "id": 6130786821, "lat": 2.9655044, "lon": 43.7374566, "tags": {"place": "isolated_dwelling", "source": "UNSOA field mission", "source:date": "2008-03-03"}}, {"type": "node", "id": 6130786822, "lat": 2.9700874, "lon": 43.6886071, "tags": {"place": "isolated_dwelling", "source": "UNSOA field mission", "source:date": "2008-03-03"}}, {"type": "node", "id": 6130786823, "lat": 2.9668704, "lon": 43.6888546, "tags": {"place": "isolated_dwelling", "source": "UNSOA field mission", "source:date": "2008-03-03"}}, {"type": "node", "id": 6130786824, "lat": 2.9653856, "lon": 43.6891211, "tags": {"place": "isolated_dwelling", "source": "UNSOA field mission", "source:date": "2008-03-03"}}, {"type": "node", "id": 6130786825, "lat": 2.962833, "lon": 43.689282, "tags": {"place": "isolated_dwelling", "source": "UNSOA field mission", "source:date": "2008-03-03"}}, {"type": "node", "id": 6130786826, "lat": 2.9668704, "lon": 43.7020463, "tags": {"place": "isolated_dwelling", "source": "UNSOA field mission", "source:date": "2008-03-03"}}, {"type": "node", "id": 6130786827, "lat": 2.9697828, "lon": 43.6936516, "tags": {"place": "isolated_dwelling", "source": "UNSOA field mission", "source:date": "2008-03-03"}}, {"type": "node", "id": 6130786828, "lat": 2.968279, "lon": 43.6983914, "tags": {"place": "isolated_dwelling", "source": "UNSOA field mission", "source:date": "2008-03-03"}}, {"type": "node", "id": 6130786829, "lat": 2.9603602, "lon": 43.6957074, "tags": {"place": "isolated_dwelling", "source": "UNSOA field mission", "source:date": "2008-03-03"}}, {"type": "node", "id": 6130786830, "lat": 2.965438, "lon": 43.6610775, "tags": {"place": "isolated_dwelling", "source": "UNSOA field mission", "source:date": "2008-03-03"}}, {"type": "node", "id": 6130786831, "lat": 2.9509048, "lon": 43.653591, "tags": {"place": "isolated_dwelling", "source": "UNSOA field mission", "source:date": "2008-03-03"}}, {"type": "node", "id": 6130786832, "lat": 2.9342597, "lon": 43.6944036, "tags": {"place": "isolated_dwelling", "source": "UNSOA field mission", "source:date": "2008-03-03"}}, {"type": "node", "id": 6130786833, "lat": 2.9373766, "lon": 43.6825769, "tags": {"place": "isolated_dwelling", "source": "UNSOA field mission", "source:date": "2008-03-03"}}, {"type": "node", "id": 6130786834, "lat": 2.9159969, "lon": 43.72113, "tags": {"place": "isolated_dwelling", "source": "UNSOA field mission", "source:date": "2008-03-03"}}, {"type": "node", "id": 6130786835, "lat": 2.9015147, "lon": 43.7259413, "tags": {"place": "hamlet", "source": "UNSOA field mission", "source:date": "2008-03-03"}}, {"type": "node", "id": 6130786836, "lat": 2.893782, "lon": 43.7413212, "tags": {"place": "isolated_dwelling", "source": "UNSOA field mission", "source:date": "2008-03-03"}}, {"type": "node", "id": 6130786837, "lat": 2.8913645, "lon": 43.7419875, "tags": {"place": "isolated_dwelling", "source": "UNSOA field mission", "source:date": "2008-03-03"}}, {"type": "node", "id": 6130786838, "lat": 2.8928112, "lon": 43.7413403, "tags": {"place": "isolated_dwelling", "source": "UNSOA field mission", "source:date": "2008-03-03"}}, {"type": "node", "id": 6130786839, "lat": 2.84019, "lon": 43.7348474, "tags": {"place": "isolated_dwelling", "source": "UNSOA field mission", "source:date": "2008-03-03"}}, {"type": "node", "id": 6130786840, "lat": 2.8640609, "lon": 43.6811003, "tags": {"place": "isolated_dwelling", "source": "UNSOA field mission", "source:date": "2008-03-03"}}, {"type": "node", "id": 6130786841, "lat": 2.8593569, "lon": 43.5904102, "tags": {"place": "isolated_dwelling", "source": "UNSOA field mission", "source:date": "2008-03-03"}}, {"type": "node", "id": 6130786842, "lat": 2.8833331, "lon": 43.6068785, "tags": {"place": "isolated_dwelling", "source": "UNSOA field mission", "source:date": "2008-03-03"}}, {"type": "node", "id": 6130786845, "lat": 2.9462079, "lon": 43.6066247, "tags": {"place": "isolated_dwelling", "source": "UNSOA field mission", "source:date": "2008-03-03"}}, {"type": "node", "id": 6130786847, "lat": 2.9333157, "lon": 43.5710734, "tags": {"place": "isolated_dwelling", "source": "UNSOA field mission", "source:date": "2008-03-03"}}, {"type": "node", "id": 6130786856, "lat": 2.9410514, "lon": 43.6312558, "tags": {"name": "Afjiinow", "place": "isolated_dwelling", "source": "UNSOA field mission", "source:date": "2008-03-03"}}, {"type": "node", "id": 6137108208, "lat": 2.9321976, "lon": 43.69775}, {"type": "node", "id": 6183742573, "lat": 2.9785735, "lon": 43.7223444, "tags": {"place": "isolated_dwelling", "source": "UNSOA field mission", "source:date": "2008-03-03"}}, {"type": "node", "id": 6183742574, "lat": 2.9790864, "lon": 43.7159722, "tags": {"place": "isolated_dwelling", "source": "UNSOA field mission", "source:date": "2008-03-03"}}, {"type": "node", "id": 6183742575, "lat": 2.9897547, "lon": 43.6885953, "tags": {"place": "isolated_dwelling", "source": "UNSOA field mission", "source:date": "2008-03-03"}}, {"type": "node", "id": 6183742576, "lat": 2.9739407, "lon": 43.7043524, "tags": {"place": "isolated_dwelling", "source": "UNSOA field mission", "source:date": "2008-03-03"}}, {"type": "node", "id": 6183742577, "lat": 2.9083173, "lon": 43.678246, "tags": {"place": "isolated_dwelling", "source": "UNSOA field mission", "source:date": "2008-03-03"}}, {"type": "node", "id": 6183742578, "lat": 2.8980311, "lon": 43.668838, "tags": {"place": "isolated_dwelling", "source": "UNSOA field mission", "source:date": "2008-03-03"}}, {"type": "node", "id": 6183742579, "lat": 2.7614664, "lon": 43.5856888, "tags": {"place": "isolated_dwelling", "source": "UNSOA field mission", "source:date": "2008-03-03"}}, {"type": "node", "id": 6207546416, "lat": 2.9323852, "lon": 43.6977285}, {"type": "node", "id": 6207546417, "lat": 2.9326262, "lon": 43.6976427}, {"type": "node", "id": 6207546418, "lat": 2.9330226, "lon": 43.6975622}, {"type": "node", "id": 6207546419, "lat": 2.9333012, "lon": 43.6975622}, {"type": "node", "id": 6207546420, "lat": 2.9336173, "lon": 43.6975193}, {"type": "node", "id": 6207546421, "lat": 2.9338745, "lon": 43.6974388}, {"type": "node", "id": 6207546422, "lat": 2.9341799, "lon": 43.6974013}, {"type": "node", "id": 6207546423, "lat": 2.934496, "lon": 43.6972779}, {"type": "node", "id": 6207546424, "lat": 2.934587, "lon": 43.6971921}, {"type": "node", "id": 6207546425, "lat": 2.9346727, "lon": 43.697074}, {"type": "node", "id": 6207546426, "lat": 2.9349138, "lon": 43.6968004}, {"type": "node", "id": 6207546427, "lat": 2.9350745, "lon": 43.696661}, {"type": "node", "id": 6207546428, "lat": 2.9354281, "lon": 43.696543}, {"type": "node", "id": 6207546429, "lat": 2.9357389, "lon": 43.6964142}, {"type": "node", "id": 6207546431, "lat": 2.9361387, "lon": 43.6962623}, {"type": "node", "id": 6207546432, "lat": 2.9364406, "lon": 43.6958724}, {"type": "node", "id": 6207546433, "lat": 2.9363549, "lon": 43.6956793}, {"type": "node", "id": 6207546434, "lat": 2.9361031, "lon": 43.6955023}, {"type": "node", "id": 6207546435, "lat": 2.9358888, "lon": 43.6954969}, {"type": "node", "id": 6207546436, "lat": 2.9355888, "lon": 43.6955076}, {"type": "node", "id": 6207546437, "lat": 2.9352835, "lon": 43.695513}, {"type": "node", "id": 6207546438, "lat": 2.9350638, "lon": 43.6954862}, {"type": "node", "id": 6207546439, "lat": 2.9347799, "lon": 43.6953735}, {"type": "node", "id": 6207546440, "lat": 2.9344745, "lon": 43.6953413}, {"type": "node", "id": 6207546441, "lat": 2.9341691, "lon": 43.6954486}, {"type": "node", "id": 6207546442, "lat": 2.933987, "lon": 43.695572}, {"type": "node", "id": 6207546443, "lat": 2.9335102, "lon": 43.6957759}, {"type": "node", "id": 6207546444, "lat": 2.932925, "lon": 43.6957953}, {"type": "node", "id": 6207546445, "lat": 2.9321333, "lon": 43.6960816}, {"type": "node", "id": 6207546446, "lat": 2.9319779, "lon": 43.6961245}, {"type": "node", "id": 6207546447, "lat": 2.9317583, "lon": 43.6962748}, {"type": "node", "id": 6207546448, "lat": 2.9317315, "lon": 43.6966395}, {"type": "node", "id": 6207546449, "lat": 2.9317529, "lon": 43.6969078}, {"type": "node", "id": 6207546450, "lat": 2.9318119, "lon": 43.6971599}, {"type": "node", "id": 6207546451, "lat": 2.9320637, "lon": 43.6976319}, {"type": "node", "id": 6207755204, "lat": 3.0359815, "lon": 43.8825381}, {"type": "node", "id": 6210296270, "lat": 3.036935, "lon": 43.7961012}, {"type": "node", "id": 6210296271, "lat": 3.0391689, "lon": 43.7966484}, {"type": "node", "id": 6210296272, "lat": 3.0411134, "lon": 43.7988424}, {"type": "node", "id": 6210296273, "lat": 3.0408081, "lon": 43.799293}, {"type": "node", "id": 6210296274, "lat": 3.0407117, "lon": 43.7997919}, {"type": "node", "id": 6210296275, "lat": 3.040942, "lon": 43.8009506}, {"type": "node", "id": 6210296276, "lat": 3.041617, "lon": 43.7989497}, {"type": "node", "id": 6210296277, "lat": 3.0388699, "lon": 43.7979186}, {"type": "node", "id": 6210296278, "lat": 3.0365433, "lon": 43.7970834}, {"type": "node", "id": 6210296279, "lat": 3.0361139, "lon": 43.7975476}, {"type": "node", "id": 6210296280, "lat": 3.0400102, "lon": 43.8020987}, {"type": "node", "id": 6210296281, "lat": 3.0400638, "lon": 43.799356}, {"type": "node", "id": 6210296282, "lat": 3.0391528, "lon": 43.7972402}, {"type": "node", "id": 6210296283, "lat": 3.0352765, "lon": 43.7993942}, {"type": "node", "id": 6210296284, "lat": 3.0353724, "lon": 43.8000025}, {"type": "node", "id": 6210296286, "lat": 3.0372976, "lon": 43.8008317}, {"type": "node", "id": 6210296287, "lat": 3.0405867, "lon": 43.8004446}, {"type": "node", "id": 6210296289, "lat": 3.0388458, "lon": 43.7976516}, {"type": "node", "id": 6210296290, "lat": 3.0359389, "lon": 43.7977257}, {"type": "node", "id": 6210296291, "lat": 3.0411999, "lon": 43.8021786}, {"type": "node", "id": 6210296292, "lat": 3.0399462, "lon": 43.7990001}, {"type": "node", "id": 6210296293, "lat": 3.039298, "lon": 43.796855}, {"type": "node", "id": 6210296294, "lat": 3.0353221, "lon": 43.7997377}, {"type": "node", "id": 6210296295, "lat": 3.035774, "lon": 43.800273}, {"type": "node", "id": 6210296296, "lat": 3.0399208, "lon": 43.798053}, {"type": "node", "id": 6210296297, "lat": 3.0385412, "lon": 43.7958596}, {"type": "node", "id": 6210296298, "lat": 3.0376647, "lon": 43.8010826}, {"type": "node", "id": 6210296299, "lat": 3.0402562, "lon": 43.7999223}, {"type": "node", "id": 6210296300, "lat": 3.03862, "lon": 43.8018258}, {"type": "node", "id": 6210296302, "lat": 3.0386255, "lon": 43.7978393}, {"type": "node", "id": 6210296303, "lat": 3.0355666, "lon": 43.7978808}, {"type": "node", "id": 6210296304, "lat": 3.0411605, "lon": 43.801506}, {"type": "node", "id": 6210296305, "lat": 3.0389779, "lon": 43.7964392}, {"type": "node", "id": 6210296307, "lat": 3.036105, "lon": 43.800244}, {"type": "node", "id": 6210296308, "lat": 3.039253, "lon": 43.7978678}, {"type": "node", "id": 6210296309, "lat": 3.0378829, "lon": 43.7957708}, {"type": "node", "id": 6210296310, "lat": 3.0381776, "lon": 43.8012591}, {"type": "node", "id": 6210296311, "lat": 3.0403609, "lon": 43.79981}, {"type": "node", "id": 6210296312, "lat": 3.0392536, "lon": 43.8020822}, {"type": "node", "id": 6210296313, "lat": 3.0405893, "lon": 43.7995653}, {"type": "node", "id": 6210296315, "lat": 3.0352216, "lon": 43.7988088}, {"type": "node", "id": 6210296316, "lat": 3.0388298, "lon": 43.7962788}, {"type": "node", "id": 6210296318, "lat": 3.0367072, "lon": 43.8002664}, {"type": "node", "id": 6210296319, "lat": 3.0408069, "lon": 43.8010145}, {"type": "node", "id": 6210296320, "lat": 3.0390049, "lon": 43.7978689}, {"type": "node", "id": 6210296321, "lat": 3.036685, "lon": 43.797048}, {"type": "node", "id": 6210296322, "lat": 3.0361609, "lon": 43.7966948}, {"type": "node", "id": 6210296323, "lat": 3.0404403, "lon": 43.799725}, {"type": "node", "id": 6210296324, "lat": 3.039772, "lon": 43.8021151}, {"type": "node", "id": 6210296325, "lat": 3.0404207, "lon": 43.7993917}, {"type": "node", "id": 6210296326, "lat": 3.0385559, "lon": 43.7976679}, {"type": "node", "id": 6210296327, "lat": 3.0354833, "lon": 43.7991895}, {"type": "node", "id": 6210296328, "lat": 3.0398119, "lon": 43.7989257}, {"type": "node", "id": 6210296329, "lat": 3.0399822, "lon": 43.7986306}, {"type": "node", "id": 6210296330, "lat": 3.0371761, "lon": 43.8004606}, {"type": "node", "id": 6210296331, "lat": 3.0405899, "lon": 43.8006986}, {"type": "node", "id": 6210296340, "lat": 3.0522717, "lon": 43.8062882}, {"type": "node", "id": 6210296341, "lat": 3.0522771, "lon": 43.806079}, {"type": "node", "id": 6210296342, "lat": 3.052336, "lon": 43.8058644}, {"type": "node", "id": 6210296343, "lat": 3.0523039, "lon": 43.8056445}, {"type": "node", "id": 6210296344, "lat": 3.0522774, "lon": 43.8054744}, {"type": "node", "id": 6210296345, "lat": 3.0519824, "lon": 43.8054192}, {"type": "node", "id": 6210296346, "lat": 3.0517467, "lon": 43.8052744}, {"type": "node", "id": 6210296347, "lat": 3.0515968, "lon": 43.8050759}, {"type": "node", "id": 6210296348, "lat": 3.0513611, "lon": 43.8050598}, {"type": "node", "id": 6210296349, "lat": 3.0511736, "lon": 43.8051403}, {"type": "node", "id": 6210296350, "lat": 3.0510289, "lon": 43.8053924}, {"type": "node", "id": 6210296351, "lat": 3.0510718, "lon": 43.805623}, {"type": "node", "id": 6210296352, "lat": 3.0512218, "lon": 43.8057572}, {"type": "node", "id": 6210296353, "lat": 3.0513021, "lon": 43.8058376}, {"type": "node", "id": 6210296354, "lat": 3.0510771, "lon": 43.8061219}, {"type": "node", "id": 6210296355, "lat": 3.0511575, "lon": 43.8062131}, {"type": "node", "id": 6210296356, "lat": 3.0511682, "lon": 43.8063097}, {"type": "node", "id": 6210296357, "lat": 3.0511254, "lon": 43.8065082}, {"type": "node", "id": 6210296358, "lat": 3.0510771, "lon": 43.8067067}, {"type": "node", "id": 6210296359, "lat": 3.05097, "lon": 43.8067549}, {"type": "node", "id": 6210296360, "lat": 3.0507879, "lon": 43.806873}, {"type": "node", "id": 6210296361, "lat": 3.0506915, "lon": 43.8070768}, {"type": "node", "id": 6210296362, "lat": 3.0506807, "lon": 43.8073611}, {"type": "node", "id": 6210296363, "lat": 3.0506218, "lon": 43.8073611}, {"type": "node", "id": 6210296364, "lat": 3.0503915, "lon": 43.8074738}, {"type": "node", "id": 6210296365, "lat": 3.0504611, "lon": 43.8077688}, {"type": "node", "id": 6210296366, "lat": 3.0506593, "lon": 43.807919}, {"type": "node", "id": 6210296367, "lat": 3.0507772, "lon": 43.8079405}, {"type": "node", "id": 6210296368, "lat": 3.0509218, "lon": 43.8079995}, {"type": "node", "id": 6210296369, "lat": 3.0510343, "lon": 43.8082302}, {"type": "node", "id": 6210296370, "lat": 3.0512486, "lon": 43.8083374}, {"type": "node", "id": 6210296371, "lat": 3.0514307, "lon": 43.808375}, {"type": "node", "id": 6210296372, "lat": 3.0515807, "lon": 43.8083482}, {"type": "node", "id": 6210296373, "lat": 3.051661, "lon": 43.8084286}, {"type": "node", "id": 6210296374, "lat": 3.0515646, "lon": 43.8086164}, {"type": "node", "id": 6210296375, "lat": 3.051661, "lon": 43.8089114}, {"type": "node", "id": 6210296376, "lat": 3.0518753, "lon": 43.8089383}, {"type": "node", "id": 6210296377, "lat": 3.0519289, "lon": 43.8090831}, {"type": "node", "id": 6210296378, "lat": 3.0518539, "lon": 43.8092709}, {"type": "node", "id": 6210296379, "lat": 3.0518967, "lon": 43.8094532}, {"type": "node", "id": 6210296380, "lat": 3.0519449, "lon": 43.8097054}, {"type": "node", "id": 6210296381, "lat": 3.0521378, "lon": 43.8098985}, {"type": "node", "id": 6210296382, "lat": 3.0525824, "lon": 43.8102526}, {"type": "node", "id": 6210296383, "lat": 3.0534127, "lon": 43.8109231}, {"type": "node", "id": 6210296384, "lat": 3.054618, "lon": 43.8109177}, {"type": "node", "id": 6210296385, "lat": 3.0542163, "lon": 43.80889}, {"type": "node", "id": 6210296386, "lat": 3.0535734, "lon": 43.8086647}, {"type": "node", "id": 6210296387, "lat": 3.0533431, "lon": 43.8086325}, {"type": "node", "id": 6210296388, "lat": 3.0535359, "lon": 43.8084769}, {"type": "node", "id": 6210296389, "lat": 3.0540181, "lon": 43.8079673}, {"type": "node", "id": 6210296390, "lat": 3.0538359, "lon": 43.8077473}, {"type": "node", "id": 6210296391, "lat": 3.0533645, "lon": 43.8076401}, {"type": "node", "id": 6210296392, "lat": 3.0531234, "lon": 43.8077635}, {"type": "node", "id": 6210296393, "lat": 3.0529735, "lon": 43.8077635}, {"type": "node", "id": 6210296394, "lat": 3.0528235, "lon": 43.8077366}, {"type": "node", "id": 6210296395, "lat": 3.0527431, "lon": 43.807506}, {"type": "node", "id": 6210296396, "lat": 3.0528609, "lon": 43.8073718}, {"type": "node", "id": 6210296397, "lat": 3.0529199, "lon": 43.8071841}, {"type": "node", "id": 6210296398, "lat": 3.0527217, "lon": 43.8069963}, {"type": "node", "id": 6210296399, "lat": 3.0527699, "lon": 43.8069266}, {"type": "node", "id": 6210296400, "lat": 3.0529252, "lon": 43.8068408}, {"type": "node", "id": 6210296401, "lat": 3.0531181, "lon": 43.8066101}, {"type": "node", "id": 6210296402, "lat": 3.0531984, "lon": 43.8064867}, {"type": "node", "id": 6210296403, "lat": 3.0531342, "lon": 43.8063258}, {"type": "node", "id": 6210296404, "lat": 3.0530645, "lon": 43.80624}, {"type": "node", "id": 6210296405, "lat": 3.0527538, "lon": 43.8062453}, {"type": "node", "id": 6210296406, "lat": 3.0524646, "lon": 43.8064545}, {"type": "node", "id": 6210296412, "lat": 3.0091352, "lon": 43.7627855}, {"type": "node", "id": 6210296413, "lat": 3.0084864, "lon": 43.7639798}, {"type": "node", "id": 6210296414, "lat": 3.010057, "lon": 43.7640447}, {"type": "node", "id": 6210296415, "lat": 3.0084372, "lon": 43.7634702}, {"type": "node", "id": 6210296416, "lat": 3.0096762, "lon": 43.7646979}, {"type": "node", "id": 6210296417, "lat": 3.0102735, "lon": 43.7645906}, {"type": "node", "id": 6210296418, "lat": 3.0096729, "lon": 43.7650117}, {"type": "node", "id": 6210296419, "lat": 3.0086387, "lon": 43.7632564}, {"type": "node", "id": 6210296420, "lat": 3.008829, "lon": 43.7642653}, {"type": "node", "id": 6210296421, "lat": 3.0090194, "lon": 43.7644557}, {"type": "node", "id": 6210296422, "lat": 3.0094968, "lon": 43.7649018}, {"type": "node", "id": 6210296423, "lat": 3.008829, "lon": 43.7631232}, {"type": "node", "id": 6210296424, "lat": 3.0090762, "lon": 43.7648186}, {"type": "node", "id": 6210296425, "lat": 3.0084794, "lon": 43.7641329}, {"type": "node", "id": 6210296426, "lat": 3.010064, "lon": 43.7635389}, {"type": "node", "id": 6210296427, "lat": 3.00848, "lon": 43.7636463}, {"type": "node", "id": 6210296428, "lat": 3.0097731, "lon": 43.7629282}, {"type": "node", "id": 6210296429, "lat": 3.0084814, "lon": 43.7636718}, {"type": "node", "id": 6210296430, "lat": 3.0092102, "lon": 43.7647194}, {"type": "node", "id": 6210296431, "lat": 3.0102487, "lon": 43.7642401}, {"type": "node", "id": 6210296432, "lat": 3.0085086, "lon": 43.7633322}, {"type": "node", "id": 6210296433, "lat": 3.0098959, "lon": 43.7647194}, {"type": "node", "id": 6210296434, "lat": 3.0091084, "lon": 43.7650439}, {"type": "node", "id": 6210296435, "lat": 3.0091003, "lon": 43.7645528}, {"type": "node", "id": 6210296436, "lat": 3.0088181, "lon": 43.7631308}, {"type": "node", "id": 6210296437, "lat": 3.010011, "lon": 43.7646389}, {"type": "node", "id": 6210296438, "lat": 3.0086323, "lon": 43.7642412}, {"type": "node", "id": 6210296439, "lat": 3.0099605, "lon": 43.7632252}, {"type": "node", "id": 6210296440, "lat": 3.0089508, "lon": 43.7643871}, {"type": "node", "id": 6210296441, "lat": 3.0088862, "lon": 43.7628186}, {"type": "node", "id": 6210297244, "lat": 3.0272792, "lon": 43.9224895}, {"type": "node", "id": 6210297245, "lat": 3.0267444, "lon": 43.9238174}, {"type": "node", "id": 6210297247, "lat": 3.0286801, "lon": 43.9241633}, {"type": "node", "id": 6210297248, "lat": 3.0288703, "lon": 43.9220101}, {"type": "node", "id": 6210297249, "lat": 3.0283499, "lon": 43.9220969}, {"type": "node", "id": 6210297251, "lat": 3.0263527, "lon": 43.9233483}, {"type": "node", "id": 6210297252, "lat": 3.0282007, "lon": 43.9243452}, {"type": "node", "id": 6210297253, "lat": 3.026494, "lon": 43.9227632}, {"type": "node", "id": 6210297254, "lat": 3.0270034, "lon": 43.9239807}, {"type": "node", "id": 6210297256, "lat": 3.0271609, "lon": 43.9240706}, {"type": "node", "id": 6210297257, "lat": 3.0277432, "lon": 43.9223349}, {"type": "node", "id": 6210297258, "lat": 3.0265185, "lon": 43.9236899}, {"type": "node", "id": 6210297260, "lat": 3.0283986, "lon": 43.9220788}, {"type": "node", "id": 6210297261, "lat": 3.0264073, "lon": 43.9234494}, {"type": "node", "id": 6210297262, "lat": 3.0281752, "lon": 43.9233982}, {"type": "node", "id": 6210297263, "lat": 3.0287149, "lon": 43.9238495}, {"type": "node", "id": 6210297264, "lat": 3.0262416, "lon": 43.9230478}, {"type": "node", "id": 6210297266, "lat": 3.026283, "lon": 43.923123}, {"type": "node", "id": 6210297267, "lat": 3.0277392, "lon": 43.9244171}, {"type": "node", "id": 6210297268, "lat": 3.0327535, "lon": 43.917238}, {"type": "node", "id": 6210297269, "lat": 3.0325925, "lon": 43.9175015}, {"type": "node", "id": 6210297270, "lat": 3.0355423, "lon": 43.9170527}, {"type": "node", "id": 6210297272, "lat": 3.0321128, "lon": 43.9199872}, {"type": "node", "id": 6210297273, "lat": 3.034067, "lon": 43.9170667}, {"type": "node", "id": 6210297274, "lat": 3.0327406, "lon": 43.9185762}, {"type": "node", "id": 6210297275, "lat": 3.0313131, "lon": 43.9185146}, {"type": "node", "id": 6210297276, "lat": 3.0357609, "lon": 43.9163435}, {"type": "node", "id": 6210297278, "lat": 3.0350378, "lon": 43.9152964}, {"type": "node", "id": 6210297279, "lat": 3.0332777, "lon": 43.918301}, {"type": "node", "id": 6210297280, "lat": 3.0312893, "lon": 43.9179435}, {"type": "node", "id": 6210297281, "lat": 3.0350394, "lon": 43.9181276}, {"type": "node", "id": 6210297282, "lat": 3.031206, "lon": 43.9184551}, {"type": "node", "id": 6210297283, "lat": 3.031812, "lon": 43.9181678}, {"type": "node", "id": 6210297284, "lat": 3.0323728, "lon": 43.9165147}, {"type": "node", "id": 6210297385, "lat": 3.0311822, "lon": 43.920668}, {"type": "node", "id": 6210297387, "lat": 3.0324909, "lon": 43.9192284}, {"type": "node", "id": 6210297388, "lat": 3.0333436, "lon": 43.9176187}, {"type": "node", "id": 6210297389, "lat": 3.0363311, "lon": 43.9168803}, {"type": "node", "id": 6210297390, "lat": 3.03098, "lon": 43.9191928}, {"type": "node", "id": 6210297391, "lat": 3.0355128, "lon": 43.9158734}, {"type": "node", "id": 6210297392, "lat": 3.0351321, "lon": 43.9161708}, {"type": "node", "id": 6210297393, "lat": 3.0307896, "lon": 43.9206799}, {"type": "node", "id": 6210297394, "lat": 3.033752, "lon": 43.9186217}, {"type": "node", "id": 6210297396, "lat": 3.0316819, "lon": 43.9190024}, {"type": "node", "id": 6210297397, "lat": 3.0330961, "lon": 43.9168192}, {"type": "node", "id": 6210297398, "lat": 3.0361958, "lon": 43.9172941}, {"type": "node", "id": 6210297399, "lat": 3.0321737, "lon": 43.9175206}, {"type": "node", "id": 6210297401, "lat": 3.0316224, "lon": 43.9199899}, {"type": "node", "id": 6210297402, "lat": 3.034086, "lon": 43.9165908}, {"type": "node", "id": 6210297403, "lat": 3.0319073, "lon": 43.9187407}, {"type": "node", "id": 6210297404, "lat": 3.0363078, "lon": 43.9159601}, {"type": "node", "id": 6210297406, "lat": 3.0356907, "lon": 43.915321}, {"type": "node", "id": 6210297407, "lat": 3.0357083, "lon": 43.9172888}, {"type": "node", "id": 6210297408, "lat": 3.0330874, "lon": 43.9180345}, {"type": "node", "id": 6210297409, "lat": 3.0315153, "lon": 43.9174676}, {"type": "node", "id": 6210297410, "lat": 3.0346562, "lon": 43.9184194}, {"type": "node", "id": 6210297411, "lat": 3.0355155, "lon": 43.9167952}, {"type": "node", "id": 6210297412, "lat": 3.0358958, "lon": 43.9159048}, {"type": "node", "id": 6210297413, "lat": 3.0310985, "lon": 43.9183989}, {"type": "node", "id": 6210297414, "lat": 3.0316343, "lon": 43.9182648}, {"type": "node", "id": 6210297415, "lat": 3.0330085, "lon": 43.9188981}, {"type": "node", "id": 6210297416, "lat": 3.0326012, "lon": 43.9168573}, {"type": "node", "id": 6210297417, "lat": 3.032859, "lon": 43.9178061}, {"type": "node", "id": 6210297419, "lat": 3.032525, "lon": 43.9194666}, {"type": "node", "id": 6210297420, "lat": 3.0338195, "lon": 43.9175616}, {"type": "node", "id": 6210297421, "lat": 3.034918, "lon": 43.9172416}, {"type": "node", "id": 6210297422, "lat": 3.0311822, "lon": 43.9190262}, {"type": "node", "id": 6210297423, "lat": 3.0351916, "lon": 43.9159924}, {"type": "node", "id": 6210297424, "lat": 3.0352064, "lon": 43.9165384}, {"type": "node", "id": 6210297425, "lat": 3.0305754, "lon": 43.9203468}, {"type": "node", "id": 6210297426, "lat": 3.0346951, "lon": 43.9152964}, {"type": "node", "id": 6210297427, "lat": 3.0334784, "lon": 43.9183837}, {"type": "node", "id": 6210297429, "lat": 3.035177, "lon": 43.9177081}, {"type": "node", "id": 6210297430, "lat": 3.0334007, "lon": 43.9168383}, {"type": "node", "id": 6210297431, "lat": 3.0318501, "lon": 43.9175777}, {"type": "node", "id": 6210297432, "lat": 3.032446, "lon": 43.9186513}, {"type": "node", "id": 6210297434, "lat": 3.0315272, "lon": 43.9203349}, {"type": "node", "id": 6210297435, "lat": 3.0336672, "lon": 43.9162482}, {"type": "node", "id": 6210297436, "lat": 3.0323243, "lon": 43.9189072}, {"type": "node", "id": 6210297437, "lat": 3.0335149, "lon": 43.9172}, {"type": "node", "id": 6210297438, "lat": 3.0363571, "lon": 43.9164968}, {"type": "node", "id": 6210297439, "lat": 3.0307705, "lon": 43.9191677}, {"type": "node", "id": 6210297440, "lat": 3.0356824, "lon": 43.915386}, {"type": "node", "id": 6210297441, "lat": 3.0351842, "lon": 43.9160098}, {"type": "node", "id": 6210297442, "lat": 3.0317176, "lon": 43.9169323}, {"type": "node", "id": 6210297443, "lat": 3.0342755, "lon": 43.9185265}, {"type": "node", "id": 6210297445, "lat": 3.0315391, "lon": 43.9186217}, {"type": "node", "id": 6210297446, "lat": 3.0186327, "lon": 43.8845431}, {"type": "node", "id": 6210297447, "lat": 3.0168135, "lon": 43.8873748}, {"type": "node", "id": 6210297448, "lat": 3.0184502, "lon": 43.8884629}, {"type": "node", "id": 6210297449, "lat": 3.0192679, "lon": 43.8865319}, {"type": "node", "id": 6210297450, "lat": 3.0196454, "lon": 43.8870306}, {"type": "node", "id": 6210297451, "lat": 3.0159745, "lon": 43.8868673}, {"type": "node", "id": 6210297453, "lat": 3.0194997, "lon": 43.8854861}, {"type": "node", "id": 6210297454, "lat": 3.0165331, "lon": 43.8868916}, {"type": "node", "id": 6210297455, "lat": 3.0182255, "lon": 43.8887173}, {"type": "node", "id": 6210297457, "lat": 3.0190916, "lon": 43.8878226}, {"type": "node", "id": 6210297458, "lat": 3.0162143, "lon": 43.8857452}, {"type": "node", "id": 6210297459, "lat": 3.0172514, "lon": 43.8883456}, {"type": "node", "id": 6210297460, "lat": 3.0185586, "lon": 43.8880224}, {"type": "node", "id": 6210297461, "lat": 3.017445, "lon": 43.8884412}, {"type": "node", "id": 6210297462, "lat": 3.0182934, "lon": 43.8843854}, {"type": "node", "id": 6210297463, "lat": 3.0169377, "lon": 43.8875509}, {"type": "node", "id": 6210297464, "lat": 3.018508, "lon": 43.8883395}, {"type": "node", "id": 6210297465, "lat": 3.0195152, "lon": 43.8862343}, {"type": "node", "id": 6210297466, "lat": 3.0196134, "lon": 43.8858962}, {"type": "node", "id": 6210297468, "lat": 3.0192274, "lon": 43.8844986}, {"type": "node", "id": 6210297469, "lat": 3.0167122, "lon": 43.8873646}, {"type": "node", "id": 6210297470, "lat": 3.0183207, "lon": 43.8886221}, {"type": "node", "id": 6210297472, "lat": 3.0192811, "lon": 43.8873049}, {"type": "node", "id": 6210297473, "lat": 3.0159296, "lon": 43.8866405}, {"type": "node", "id": 6210297474, "lat": 3.0173146, "lon": 43.8883768}, {"type": "node", "id": 6210297475, "lat": 3.0161326, "lon": 43.8869009}, {"type": "node", "id": 6210297476, "lat": 3.0178733, "lon": 43.8886221}, {"type": "node", "id": 6210297477, "lat": 3.0188822, "lon": 43.8880224}, {"type": "node", "id": 6210297478, "lat": 3.016732, "lon": 43.8852115}, {"type": "node", "id": 6210297479, "lat": 3.0170608, "lon": 43.8879694}, {"type": "node", "id": 6210297480, "lat": 3.0188541, "lon": 43.8880251}, {"type": "node", "id": 6210297493, "lat": 3.0254887, "lon": 43.8784687}, {"type": "node", "id": 6210297494, "lat": 3.029886, "lon": 43.8792492}, {"type": "node", "id": 6210297495, "lat": 3.0263644, "lon": 43.8801439}, {"type": "node", "id": 6210297496, "lat": 3.0265738, "lon": 43.881286}, {"type": "node", "id": 6210297497, "lat": 3.0276207, "lon": 43.878069}, {"type": "node", "id": 6210297498, "lat": 3.0287211, "lon": 43.8810046}, {"type": "node", "id": 6210297499, "lat": 3.0291649, "lon": 43.8814507}, {"type": "node", "id": 6210297500, "lat": 3.0305715, "lon": 43.8806686}, {"type": "node", "id": 6210297501, "lat": 3.0252032, "lon": 43.8787733}, {"type": "node", "id": 6210297502, "lat": 3.0296765, "lon": 43.8801026}, {"type": "node", "id": 6210297503, "lat": 3.0290818, "lon": 43.8779837}, {"type": "node", "id": 6210297504, "lat": 3.0294672, "lon": 43.8788494}, {"type": "node", "id": 6210297505, "lat": 3.0296122, "lon": 43.8825166}, {"type": "node", "id": 6210297506, "lat": 3.0291436, "lon": 43.8781832}, {"type": "node", "id": 6210297507, "lat": 3.0268974, "lon": 43.8815525}, {"type": "node", "id": 6210297508, "lat": 3.0271151, "lon": 43.8782689}, {"type": "node", "id": 6210297509, "lat": 3.028761, "lon": 43.8814478}, {"type": "node", "id": 6210297510, "lat": 3.0302286, "lon": 43.8812479}, {"type": "node", "id": 6210297511, "lat": 3.024856, "lon": 43.8791194}, {"type": "node", "id": 6210297512, "lat": 3.0309568, "lon": 43.8796467}, {"type": "node", "id": 6210297513, "lat": 3.0295433, "lon": 43.8783164}, {"type": "node", "id": 6210297514, "lat": 3.0285916, "lon": 43.8781261}, {"type": "node", "id": 6210297515, "lat": 3.0305121, "lon": 43.8811809}, {"type": "node", "id": 6210297516, "lat": 3.0275256, "lon": 43.8811337}, {"type": "node", "id": 6210297517, "lat": 3.029339, "lon": 43.8781232}, {"type": "node", "id": 6210297518, "lat": 3.0266734, "lon": 43.8779832}, {"type": "node", "id": 6210297519, "lat": 3.0291247, "lon": 43.8818675}, {"type": "node", "id": 6210297520, "lat": 3.0262179, "lon": 43.8782626}, {"type": "node", "id": 6210297521, "lat": 3.031072, "lon": 43.8799481}, {"type": "node", "id": 6210297522, "lat": 3.025009, "lon": 43.8794698}, {"type": "node", "id": 6210297523, "lat": 3.0283858, "lon": 43.8781128}, {"type": "node", "id": 6210297524, "lat": 3.0281728, "lon": 43.8809814}, {"type": "node", "id": 6210297525, "lat": 3.0264024, "lon": 43.878088}, {"type": "node", "id": 6210297526, "lat": 3.0259837, "lon": 43.8787543}, {"type": "node", "id": 6210297527, "lat": 3.0301907, "lon": 43.8825756}, {"type": "node", "id": 6210297528, "lat": 3.0293849, "lon": 43.8797162}, {"type": "node", "id": 6210297529, "lat": 3.0254507, "lon": 43.8798012}, {"type": "node", "id": 6210297530, "lat": 3.0306461, "lon": 43.8807839}, {"type": "node", "id": 6210297531, "lat": 3.0266309, "lon": 43.8804865}, {"type": "node", "id": 6210297532, "lat": 3.0280014, "lon": 43.878088}, {"type": "node", "id": 6210297533, "lat": 3.0285895, "lon": 43.880608}, {"type": "node", "id": 6210297534, "lat": 3.0303514, "lon": 43.8797164}, {"type": "node", "id": 6210297535, "lat": 3.0494472, "lon": 43.8988894}, {"type": "node", "id": 6210297536, "lat": 3.0501705, "lon": 43.8997501}, {"type": "node", "id": 6210297537, "lat": 3.0493223, "lon": 43.8993118}, {"type": "node", "id": 6210297538, "lat": 3.050512, "lon": 43.8998472}, {"type": "node", "id": 6210297539, "lat": 3.0512919, "lon": 43.8984046}, {"type": "node", "id": 6210297540, "lat": 3.0496911, "lon": 43.8985742}, {"type": "node", "id": 6210297541, "lat": 3.0510712, "lon": 43.8991274}, {"type": "node", "id": 6210297542, "lat": 3.0510415, "lon": 43.8987389}, {"type": "node", "id": 6210297543, "lat": 3.0499647, "lon": 43.8984671}, {"type": "node", "id": 6210297544, "lat": 3.0500913, "lon": 43.8991149}, {"type": "node", "id": 6210297545, "lat": 3.0510177, "lon": 43.8995795}, {"type": "node", "id": 6210297546, "lat": 3.0505893, "lon": 43.8981816}, {"type": "node", "id": 6210297547, "lat": 3.0495602, "lon": 43.8990917}, {"type": "node", "id": 6210297548, "lat": 3.0504109, "lon": 43.898473}, {"type": "node", "id": 6210297549, "lat": 3.0495424, "lon": 43.8994903}, {"type": "node", "id": 6210297550, "lat": 3.050759, "lon": 43.8998382}, {"type": "node", "id": 6210297551, "lat": 3.0510295, "lon": 43.8981756}, {"type": "node", "id": 6210297552, "lat": 3.0494413, "lon": 43.8986039}, {"type": "node", "id": 6210297553, "lat": 3.0510652, "lon": 43.898937}, {"type": "node", "id": 6210297554, "lat": 3.050393, "lon": 43.8997758}, {"type": "node", "id": 6210297555, "lat": 3.0512584, "lon": 43.8985105}, {"type": "node", "id": 6210297556, "lat": 3.0498458, "lon": 43.8984076}, {"type": "node", "id": 6210297557, "lat": 3.0509701, "lon": 43.8993415}, {"type": "node", "id": 6210297558, "lat": 3.0505834, "lon": 43.8984076}, {"type": "node", "id": 6210297559, "lat": 3.0501908, "lon": 43.8985504}, {"type": "node", "id": 6210297560, "lat": 3.0498949, "lon": 43.8992733}, {"type": "node", "id": 6210297561, "lat": 3.0508392, "lon": 43.8998353}, {"type": "node", "id": 6210297562, "lat": 3.0501678, "lon": 43.8994521}, {"type": "node", "id": 6210297563, "lat": 3.0508332, "lon": 43.8980566}, {"type": "node", "id": 6210297564, "lat": 3.0540277, "lon": 43.8975629}, {"type": "node", "id": 6210297565, "lat": 3.0557409, "lon": 43.8989013}, {"type": "node", "id": 6210297566, "lat": 3.0561632, "lon": 43.8971286}, {"type": "node", "id": 6210297567, "lat": 3.0539936, "lon": 43.897092}, {"type": "node", "id": 6210297568, "lat": 3.0550239, "lon": 43.8984811}, {"type": "node", "id": 6210297569, "lat": 3.0557349, "lon": 43.8979674}, {"type": "node", "id": 6210297570, "lat": 3.0556576, "lon": 43.897551}, {"type": "node", "id": 6210297571, "lat": 3.0547296, "lon": 43.8967882}, {"type": "node", "id": 6210297572, "lat": 3.0548188, "lon": 43.8979793}, {"type": "node", "id": 6210297573, "lat": 3.0563357, "lon": 43.8982529}, {"type": "node", "id": 6210297574, "lat": 3.0560145, "lon": 43.8963123}, {"type": "node", "id": 6210297575, "lat": 3.0538492, "lon": 43.8975496}, {"type": "node", "id": 6210297576, "lat": 3.0553482, "lon": 43.8967644}, {"type": "node", "id": 6210297577, "lat": 3.0541883, "lon": 43.8978306}, {"type": "node", "id": 6210297578, "lat": 3.0557603, "lon": 43.8988873}, {"type": "node", "id": 6210297579, "lat": 3.0562108, "lon": 43.8969204}, {"type": "node", "id": 6210297580, "lat": 3.0538016, "lon": 43.8970737}, {"type": "node", "id": 6210297581, "lat": 3.0553399, "lon": 43.8985794}, {"type": "node", "id": 6210297582, "lat": 3.0555148, "lon": 43.8989073}, {"type": "node", "id": 6210297583, "lat": 3.0559074, "lon": 43.897325}, {"type": "node", "id": 6210297584, "lat": 3.0542932, "lon": 43.8970865}, {"type": "node", "id": 6210297585, "lat": 3.0548723, "lon": 43.8982594}, {"type": "node", "id": 6210297586, "lat": 3.0561811, "lon": 43.8980685}, {"type": "node", "id": 6210297587, "lat": 3.05561, "lon": 43.8963123}, {"type": "node", "id": 6210297588, "lat": 3.0555684, "lon": 43.8978127}, {"type": "node", "id": 6210297589, "lat": 3.0549913, "lon": 43.896812}, {"type": "node", "id": 6210297590, "lat": 3.054569, "lon": 43.8979674}, {"type": "node", "id": 6210297591, "lat": 3.0560562, "lon": 43.8984968}, {"type": "node", "id": 6210297592, "lat": 3.0563, "lon": 43.8968834}, {"type": "node", "id": 6210297593, "lat": 3.0538376, "lon": 43.8974339}, {"type": "node", "id": 6210297594, "lat": 3.0554672, "lon": 43.898711}, {"type": "node", "id": 6210297642, "lat": 3.0878972, "lon": 43.8957712}, {"type": "node", "id": 6210297643, "lat": 3.0860352, "lon": 43.8956179}, {"type": "node", "id": 6210297644, "lat": 3.0869196, "lon": 43.8953114}, {"type": "node", "id": 6210297645, "lat": 3.0859734, "lon": 43.895813}, {"type": "node", "id": 6210297646, "lat": 3.0864444, "lon": 43.8970849}, {"type": "node", "id": 6210297647, "lat": 3.0864136, "lon": 43.8956956}, {"type": "node", "id": 6210297648, "lat": 3.085902, "lon": 43.8966459}, {"type": "node", "id": 6210297649, "lat": 3.0875486, "lon": 43.8968838}, {"type": "node", "id": 6210297650, "lat": 3.0859781, "lon": 43.8971408}, {"type": "node", "id": 6210297651, "lat": 3.0875578, "lon": 43.8965354}, {"type": "node", "id": 6210297652, "lat": 3.0865955, "lon": 43.8957164}, {"type": "node", "id": 6210297653, "lat": 3.0859281, "lon": 43.8963482}, {"type": "node", "id": 6210297654, "lat": 3.0874303, "lon": 43.8974058}, {"type": "node", "id": 6210297655, "lat": 3.0874996, "lon": 43.895185}, {"type": "node", "id": 6210297656, "lat": 3.0868466, "lon": 43.8955023}, {"type": "node", "id": 6210297657, "lat": 3.085783, "lon": 43.8959891}, {"type": "node", "id": 6210297658, "lat": 3.0865194, "lon": 43.8971181}, {"type": "node", "id": 6210297659, "lat": 3.0876944, "lon": 43.8963175}, {"type": "node", "id": 6210297660, "lat": 3.0863303, "lon": 43.895656}, {"type": "node", "id": 6210297661, "lat": 3.085802, "lon": 43.8968648}, {"type": "node", "id": 6210297662, "lat": 3.0859733, "lon": 43.8957172}, {"type": "node", "id": 6210297663, "lat": 3.0862303, "lon": 43.8971741}, {"type": "node", "id": 6210297664, "lat": 3.0864784, "lon": 43.8957891}, {"type": "node", "id": 6210297665, "lat": 3.0859418, "lon": 43.8964988}, {"type": "node", "id": 6210297666, "lat": 3.0874581, "lon": 43.8971931}, {"type": "node", "id": 6210297667, "lat": 3.087539, "lon": 43.8966554}, {"type": "node", "id": 6210297668, "lat": 3.086692, "lon": 43.8956893}, {"type": "node", "id": 6210297669, "lat": 3.0858068, "lon": 43.8961224}, {"type": "node", "id": 6210297670, "lat": 3.0873207, "lon": 43.8953859}, {"type": "node", "id": 6210297671, "lat": 3.0865079, "lon": 43.8972035}, {"type": "node", "id": 6210328441, "lat": 3.0519808, "lon": 43.81053, "tags": {"place": "isolated_dwelling", "source": "UNSOA I: E043N03_16, SPOT5 image based data capture using different Ancillary Sources coming from UNSOA field mission.", "source:date": "2008-03-03"}}, {"type": "node", "id": 6210328442, "lat": 3.0529529, "lon": 43.8102384, "tags": {"place": "isolated_dwelling", "source": "UNSOA I: E043N03_16, SPOT5 image based data capture using different Ancillary Sources coming from UNSOA field mission.", "source:date": "2008-03-03"}}, {"type": "node", "id": 6210328446, "lat": 3.0726377, "lon": 43.8735862, "tags": {"place": "hamlet", "source": "UNSOA I: E043N03_16, SPOT5 image based data capture using different Ancillary Sources coming from UNSOA field mission.", "source:date": "2008-03-03"}}, {"type": "node", "id": 6210328447, "lat": 3.0393939, "lon": 43.9205518, "tags": {"place": "isolated_dwelling", "source": "UNSOA I: E043N03_16, SPOT5 image based data capture using different Ancillary Sources coming from UNSOA field mission.", "source:date": "2008-03-03"}}, {"type": "node", "id": 6210328449, "lat": 3.0310773, "lon": 43.9251745, "tags": {"place": "hamlet"}}, {"type": "node", "id": 6210328450, "lat": 3.0206768, "lon": 43.9068443}, {"type": "node", "id": 6210328451, "lat": 3.0206554, "lon": 43.9067826}, {"type": "node", "id": 6210328452, "lat": 3.0205964, "lon": 43.9066833}, {"type": "node", "id": 6210328453, "lat": 3.0205509, "lon": 43.9065814}, {"type": "node", "id": 6210328454, "lat": 3.0205375, "lon": 43.9064768}, {"type": "node", "id": 6210328455, "lat": 3.020583, "lon": 43.9063776}, {"type": "node", "id": 6210328456, "lat": 3.0206259, "lon": 43.9063024}, {"type": "node", "id": 6210328457, "lat": 3.0206634, "lon": 43.9062783}, {"type": "node", "id": 6210328458, "lat": 3.0206366, "lon": 43.9061603}, {"type": "node", "id": 6210328459, "lat": 3.0205911, "lon": 43.9060906}, {"type": "node", "id": 6210328460, "lat": 3.0205241, "lon": 43.9060611}, {"type": "node", "id": 6210328461, "lat": 3.0204866, "lon": 43.905994}, {"type": "node", "id": 6210328462, "lat": 3.0204385, "lon": 43.9059806}, {"type": "node", "id": 6210328474, "lat": 3.0198947, "lon": 43.9068818}, {"type": "node", "id": 6210328475, "lat": 3.0199804, "lon": 43.906855}, {"type": "node", "id": 6210328476, "lat": 3.0200902, "lon": 43.9068416}, {"type": "node", "id": 6210328477, "lat": 3.0201813, "lon": 43.9068308}, {"type": "node", "id": 6210328478, "lat": 3.0203125, "lon": 43.9068255}, {"type": "node", "id": 6210328479, "lat": 3.0204839, "lon": 43.9068443}, {"type": "node", "id": 6210328480, "lat": 3.02065, "lon": 43.9068845}, {"type": "node", "id": 6210328481, "lat": 3.0219062, "lon": 43.8431284}, {"type": "node", "id": 6210328482, "lat": 3.0219169, "lon": 43.8432679}, {"type": "node", "id": 6210328483, "lat": 3.0218794, "lon": 43.8434261}, {"type": "node", "id": 6210328484, "lat": 3.0218152, "lon": 43.843579}, {"type": "node", "id": 6210328485, "lat": 3.021708, "lon": 43.8436863}, {"type": "node", "id": 6210328486, "lat": 3.0216143, "lon": 43.8437775}, {"type": "node", "id": 6210328487, "lat": 3.0215848, "lon": 43.8439652}, {"type": "node", "id": 6210328488, "lat": 3.0215714, "lon": 43.8441128}, {"type": "node", "id": 6210328489, "lat": 3.021475, "lon": 43.8442281}, {"type": "node", "id": 6210328490, "lat": 3.0213411, "lon": 43.8443166}, {"type": "node", "id": 6210328491, "lat": 3.0212071, "lon": 43.8443542}, {"type": "node", "id": 6210328492, "lat": 3.0210839, "lon": 43.844322}, {"type": "node", "id": 6210328493, "lat": 3.0209634, "lon": 43.8442522}, {"type": "node", "id": 6210328494, "lat": 3.0208723, "lon": 43.8441691}, {"type": "node", "id": 6210328495, "lat": 3.0207518, "lon": 43.8440725}, {"type": "node", "id": 6210328496, "lat": 3.0207277, "lon": 43.8439411}, {"type": "node", "id": 6210328497, "lat": 3.0206661, "lon": 43.8438338}, {"type": "node", "id": 6210328498, "lat": 3.0206473, "lon": 43.8437533}, {"type": "node", "id": 6210328499, "lat": 3.0206714, "lon": 43.8436541}, {"type": "node", "id": 6210328500, "lat": 3.0207116, "lon": 43.8435253}, {"type": "node", "id": 6210328501, "lat": 3.0206205, "lon": 43.8433242}, {"type": "node", "id": 6210328502, "lat": 3.0205616, "lon": 43.8433}, {"type": "node", "id": 6210328503, "lat": 3.0204652, "lon": 43.8431954}, {"type": "node", "id": 6210328504, "lat": 3.0204732, "lon": 43.8431472}, {"type": "node", "id": 6210328505, "lat": 3.0206554, "lon": 43.842946}, {"type": "node", "id": 6210328506, "lat": 3.0208214, "lon": 43.8428602}, {"type": "node", "id": 6210328507, "lat": 3.0209205, "lon": 43.8427636}, {"type": "node", "id": 6210328508, "lat": 3.0210518, "lon": 43.8427019}, {"type": "node", "id": 6210328509, "lat": 3.021092, "lon": 43.8426536}, {"type": "node", "id": 6210328510, "lat": 3.0210893, "lon": 43.8424873}, {"type": "node", "id": 6210328511, "lat": 3.0211616, "lon": 43.8423612}, {"type": "node", "id": 6210328512, "lat": 3.0212259, "lon": 43.8420689}, {"type": "node", "id": 6210328513, "lat": 3.0214214, "lon": 43.8417846}, {"type": "node", "id": 6210328514, "lat": 3.0216946, "lon": 43.8418302}, {"type": "node", "id": 6210328515, "lat": 3.0219089, "lon": 43.8423291}, {"type": "node", "id": 6210328516, "lat": 3.0217883, "lon": 43.8424766}, {"type": "node", "id": 6210328517, "lat": 3.0218125, "lon": 43.8426992}, {"type": "node", "id": 6210328518, "lat": 3.0218901, "lon": 43.8429621}, {"type": "node", "id": 6210328531, "lat": 3.0660963, "lon": 43.8929349, "tags": {"place": "isolated_dwelling", "source": "UNSOA I: E043N03_16, SPOT5 image based data capture using different Ancillary Sources coming from UNSOA field mission.", "source:date": "2008-03-03"}}, {"type": "node", "id": 6210328532, "lat": 3.0669791, "lon": 43.8941889, "tags": {"place": "isolated_dwelling", "source": "UNSOA I: E043N03_16, SPOT5 image based data capture using different Ancillary Sources coming from UNSOA field mission.", "source:date": "2008-03-03"}}, {"type": "node", "id": 6210328546, "lat": 3.0751073, "lon": 43.8735194, "tags": {"place": "hamlet", "source": "UNSOA I: E043N03_16, SPOT5 image based data capture using different Ancillary Sources coming from UNSOA field mission.", "source:date": "2008-03-03"}}, {"type": "node", "id": 6210328547, "lat": 3.0789824, "lon": 43.8739067, "tags": {"place": "hamlet", "source": "UNSOA I: E043N03_16, SPOT5 image based data capture using different Ancillary Sources coming from UNSOA field mission.", "source:date": "2008-03-03"}}, {"type": "node", "id": 6210328554, "lat": 3.0826812, "lon": 43.8724674, "tags": {"name": "Leked", "place": "hamlet", "source": "UNSOA I: E043N03_16, SPOT5 image based data capture using different Ancillary Sources coming from UNSOA field mission.", "source:date": "2008-03-03"}}, {"type": "node", "id": 6210328557, "lat": 3.0834937, "lon": 43.9022159, "tags": {"name": "Bulu Nuru", "place": "hamlet", "source": "UNSOA I: E043N03_16, SPOT5 image based data capture using different Ancillary Sources coming from UNSOA field mission.", "source:date": "2008-03-03"}}, {"type": "node", "id": 6210344487, "lat": 3.1003533, "lon": 43.8583419}, {"type": "node", "id": 6210344488, "lat": 3.1004899, "lon": 43.8585028}, {"type": "node", "id": 6210344489, "lat": 3.1012613, "lon": 43.8601845}, {"type": "node", "id": 6213235065, "lat": 3.0193884, "lon": 43.754712, "tags": {"place": "isolated_dwelling"}}, {"type": "node", "id": 6213570803, "lat": 2.8512606, "lon": 43.9020055, "tags": {"place": "hamlet"}}, {"type": "node", "id": 6213570822, "lat": 2.8515021, "lon": 43.9000992, "tags": {"place": "isolated_dwelling"}}, {"type": "node", "id": 6213570861, "lat": 2.8537104, "lon": 43.896613, "tags": {"place": "isolated_dwelling"}}, {"type": "node", "id": 6213570882, "lat": 2.8566879, "lon": 43.8973331, "tags": {"place": "isolated_dwelling"}}, {"type": "node", "id": 6224457796, "lat": 3.0487737, "lon": 43.9118064, "tags": {"place": "hamlet"}}, {"type": "node", "id": 6224769435, "lat": 3.0360458, "lon": 43.8810039}, {"type": "node", "id": 6227426667, "lat": 3.1015371, "lon": 43.8610288}, {"type": "node", "id": 6227426668, "lat": 3.1013771, "lon": 43.8610616}, {"type": "node", "id": 6227426908, "lat": 3.0996789, "lon": 43.8616467}, {"type": "node", "id": 6232627676, "lat": 3.0760316, "lon": 43.8733113}, {"type": "node", "id": 6235615285, "lat": 3.0048924, "lon": 43.8506627, "tags": {"alt_name": "Moodo-Moodo", "name": "Mooda-Mooda", "place": "village"}}, {"type": "node", "id": 6236151228, "lat": 3.0858423, "lon": 43.8012993}, {"type": "node", "id": 6236151229, "lat": 3.0856977, "lon": 43.8017875}, {"type": "node", "id": 6236151230, "lat": 3.0855155, "lon": 43.8019645}, {"type": "node", "id": 6236151231, "lat": 3.0854298, "lon": 43.802222}, {"type": "node", "id": 6236151232, "lat": 3.085312, "lon": 43.8024098}, {"type": "node", "id": 6236151233, "lat": 3.0852424, "lon": 43.8026512}, {"type": "node", "id": 6236151234, "lat": 3.085012, "lon": 43.8029408}, {"type": "node", "id": 6236151235, "lat": 3.0847924, "lon": 43.8030857}, {"type": "node", "id": 6236151236, "lat": 3.0845406, "lon": 43.8032627}, {"type": "node", "id": 6236151237, "lat": 3.0842246, "lon": 43.8033271}, {"type": "node", "id": 6236151238, "lat": 3.0839514, "lon": 43.8035256}, {"type": "node", "id": 6236151239, "lat": 3.0836675, "lon": 43.8034612}, {"type": "node", "id": 6236151240, "lat": 3.0833997, "lon": 43.8033539}, {"type": "node", "id": 6236151241, "lat": 3.08318, "lon": 43.8031554}, {"type": "node", "id": 6236151242, "lat": 3.083089, "lon": 43.8029569}, {"type": "node", "id": 6236151243, "lat": 3.0830622, "lon": 43.8027424}, {"type": "node", "id": 6236151244, "lat": 3.0831051, "lon": 43.8024849}, {"type": "node", "id": 6236151245, "lat": 3.0832925, "lon": 43.802104}, {"type": "node", "id": 6236151246, "lat": 3.083464, "lon": 43.8019913}, {"type": "node", "id": 6236151247, "lat": 3.0836836, "lon": 43.8018465}, {"type": "node", "id": 6236151248, "lat": 3.0839675, "lon": 43.8017446}, {"type": "node", "id": 6236151249, "lat": 3.0841014, "lon": 43.8017017}, {"type": "node", "id": 6236151250, "lat": 3.0842889, "lon": 43.8015783}, {"type": "node", "id": 6236151251, "lat": 3.084471, "lon": 43.8015139}, {"type": "node", "id": 6236151252, "lat": 3.0847121, "lon": 43.8014334}, {"type": "node", "id": 6236151253, "lat": 3.0848728, "lon": 43.8013583}, {"type": "node", "id": 6236151254, "lat": 3.0850442, "lon": 43.801235}, {"type": "node", "id": 6236151255, "lat": 3.0853281, "lon": 43.801133}, {"type": "node", "id": 6236151256, "lat": 3.0855691, "lon": 43.8011491}, {"type": "node", "id": 6236151257, "lat": 3.0858852, "lon": 43.8015461}, {"type": "node", "id": 6236285697, "lat": 3.0534542, "lon": 43.8969831}, {"type": "node", "id": 6236285698, "lat": 3.0533766, "lon": 43.8970609}, {"type": "node", "id": 6236285699, "lat": 3.0536337, "lon": 43.8973546}, {"type": "node", "id": 6241950949, "lat": 3.0312487, "lon": 43.8803199}, {"type": "node", "id": 6241950985, "lat": 3.0343126, "lon": 43.8822558}, {"type": "node", "id": 6242001812, "lat": 3.0442552, "lon": 43.8016561}, {"type": "node", "id": 6242001813, "lat": 3.0443115, "lon": 43.8014361}, {"type": "node", "id": 6242001940, "lat": 3.0371922, "lon": 43.7961549}, {"type": "node", "id": 6242001941, "lat": 3.035103, "lon": 43.7978768}, {"type": "node", "id": 6247265103, "lat": 3.0023451, "lon": 43.9100387, "tags": {"place": "hamlet"}}, {"type": "node", "id": 6249305252, "lat": 3.07979, "lon": 43.886, "tags": {"name": "Dardhaarow", "place": "locality"}}, {"type": "node", "id": 6278685408, "lat": 3.0541654, "lon": 43.8970888}, {"type": "node", "id": 6291359240, "lat": 3.0715721, "lon": 43.8738853}, {"type": "node", "id": 6291359241, "lat": 3.0716471, "lon": 43.8739979}, {"type": "node", "id": 6291359242, "lat": 3.0716927, "lon": 43.8741361}, {"type": "node", "id": 6291359243, "lat": 3.0719364, "lon": 43.8741428}, {"type": "node", "id": 6291359244, "lat": 3.0721667, "lon": 43.8741106}, {"type": "node", "id": 6291359245, "lat": 3.0724131, "lon": 43.8740623}, {"type": "node", "id": 6291359246, "lat": 3.0727774, "lon": 43.8740891}, {"type": "node", "id": 6291359247, "lat": 3.0730291, "lon": 43.8741106}, {"type": "node", "id": 6291359248, "lat": 3.0732006, "lon": 43.8740247}, {"type": "node", "id": 6291359249, "lat": 3.0733238, "lon": 43.8738853}, {"type": "node", "id": 6291359250, "lat": 3.0732541, "lon": 43.8736224}, {"type": "node", "id": 6291359251, "lat": 3.0731631, "lon": 43.8735205}, {"type": "node", "id": 6291359252, "lat": 3.0730184, "lon": 43.8733703}, {"type": "node", "id": 6291359253, "lat": 3.0728256, "lon": 43.873263}, {"type": "node", "id": 6291359254, "lat": 3.0725484, "lon": 43.8733569}, {"type": "node", "id": 6291359255, "lat": 3.0723971, "lon": 43.8733113}, {"type": "node", "id": 6291359256, "lat": 3.0722364, "lon": 43.8733596}, {"type": "node", "id": 6291359257, "lat": 3.0720689, "lon": 43.8732348}, {"type": "node", "id": 6291359258, "lat": 3.0717703, "lon": 43.8732831}, {"type": "node", "id": 6291359259, "lat": 3.0744219, "lon": 43.8729411}, {"type": "node", "id": 6291359260, "lat": 3.074379, "lon": 43.8731664}, {"type": "node", "id": 6291359261, "lat": 3.0743576, "lon": 43.8733703}, {"type": "node", "id": 6291359262, "lat": 3.0744915, "lon": 43.8735902}, {"type": "node", "id": 6291359263, "lat": 3.0746415, "lon": 43.8738531}, {"type": "node", "id": 6291359264, "lat": 3.0747754, "lon": 43.8741749}, {"type": "node", "id": 6291359265, "lat": 3.074829, "lon": 43.8743359}, {"type": "node", "id": 6291359266, "lat": 3.0749361, "lon": 43.8744914}, {"type": "node", "id": 6291359267, "lat": 3.075145, "lon": 43.8745344}, {"type": "node", "id": 6291359268, "lat": 3.0755682, "lon": 43.8743359}, {"type": "node", "id": 6291359269, "lat": 3.0756754, "lon": 43.8741749}, {"type": "node", "id": 6291359270, "lat": 3.0758146, "lon": 43.8739228}, {"type": "node", "id": 6291359271, "lat": 3.075911, "lon": 43.8737619}, {"type": "node", "id": 6291359272, "lat": 3.0760235, "lon": 43.8735956}, {"type": "node", "id": 6291359273, "lat": 3.0760503, "lon": 43.8734722}, {"type": "node", "id": 6291359274, "lat": 3.0759218, "lon": 43.8731557}, {"type": "node", "id": 6291359275, "lat": 3.0757878, "lon": 43.8730055}, {"type": "node", "id": 6291359276, "lat": 3.0756539, "lon": 43.872807}, {"type": "node", "id": 6291359277, "lat": 3.0756057, "lon": 43.8727373}, {"type": "node", "id": 6291359278, "lat": 3.075279, "lon": 43.8725227}, {"type": "node", "id": 6291359279, "lat": 3.0751343, "lon": 43.8725549}, {"type": "node", "id": 6291359280, "lat": 3.0749576, "lon": 43.8726407}, {"type": "node", "id": 6291359281, "lat": 3.0746415, "lon": 43.8727373}, {"type": "node", "id": 6291359282, "lat": 3.0780644, "lon": 43.8736868}, {"type": "node", "id": 6291359283, "lat": 3.077826, "lon": 43.8738504}, {"type": "node", "id": 6291359284, "lat": 3.0775662, "lon": 43.8740757}, {"type": "node", "id": 6291363085, "lat": 3.0776172, "lon": 43.8744673}, {"type": "node", "id": 6291363086, "lat": 3.0784608, "lon": 43.8751513}, {"type": "node", "id": 6291363087, "lat": 3.0788412, "lon": 43.8747597}, {"type": "node", "id": 6291363088, "lat": 3.0790019, "lon": 43.8746846}, {"type": "node", "id": 6291363089, "lat": 3.0791143, "lon": 43.8745236}, {"type": "node", "id": 6291363090, "lat": 3.0791411, "lon": 43.8743252}, {"type": "node", "id": 6291363091, "lat": 3.0792, "lon": 43.8742232}, {"type": "node", "id": 6291363092, "lat": 3.0793554, "lon": 43.8741696}, {"type": "node", "id": 6291363093, "lat": 3.0799018, "lon": 43.8746819}, {"type": "node", "id": 6291363094, "lat": 3.0800678, "lon": 43.8742393}, {"type": "node", "id": 6291363095, "lat": 3.0802714, "lon": 43.8741374}, {"type": "node", "id": 6291363096, "lat": 3.0804053, "lon": 43.8740569}, {"type": "node", "id": 6291363097, "lat": 3.0805606, "lon": 43.8739067}, {"type": "node", "id": 6291363098, "lat": 3.0806785, "lon": 43.8737512}, {"type": "node", "id": 6291363099, "lat": 3.0807642, "lon": 43.8736224}, {"type": "node", "id": 6291363100, "lat": 3.0807749, "lon": 43.8734293}, {"type": "node", "id": 6291363101, "lat": 3.0806731, "lon": 43.8732254}, {"type": "node", "id": 6291363102, "lat": 3.080175, "lon": 43.8731664}, {"type": "node", "id": 6291363103, "lat": 3.0798643, "lon": 43.8731396}, {"type": "node", "id": 6291363104, "lat": 3.0796232, "lon": 43.8731718}, {"type": "node", "id": 6291363105, "lat": 3.0793768, "lon": 43.8732308}, {"type": "node", "id": 6291363106, "lat": 3.0790608, "lon": 43.8732523}, {"type": "node", "id": 6291363107, "lat": 3.0788679, "lon": 43.873263}, {"type": "node", "id": 6291363108, "lat": 3.0786912, "lon": 43.873263}, {"type": "node", "id": 6291363109, "lat": 3.078568, "lon": 43.8732362}, {"type": "node", "id": 6291363110, "lat": 3.0783483, "lon": 43.8731664}, {"type": "node", "id": 6291363111, "lat": 3.0780805, "lon": 43.8733327}, {"type": "node", "id": 6291363112, "lat": 3.0820873, "lon": 43.8718092}, {"type": "node", "id": 6291363113, "lat": 3.0821569, "lon": 43.8719594}, {"type": "node", "id": 6291363114, "lat": 3.0822801, "lon": 43.8720185}, {"type": "node", "id": 6291363115, "lat": 3.0823417, "lon": 43.8723725}, {"type": "node", "id": 6291363116, "lat": 3.0831774, "lon": 43.8730216}, {"type": "node", "id": 6291363117, "lat": 3.0831479, "lon": 43.8724154}, {"type": "node", "id": 6291363118, "lat": 3.0830033, "lon": 43.8717931}, {"type": "node", "id": 6291363119, "lat": 3.0831104, "lon": 43.8717449}, {"type": "node", "id": 6291363120, "lat": 3.0831854, "lon": 43.8716161}, {"type": "node", "id": 6291363121, "lat": 3.0832122, "lon": 43.8715303}, {"type": "node", "id": 6291363122, "lat": 3.083164, "lon": 43.8714015}, {"type": "node", "id": 6291363123, "lat": 3.0830461, "lon": 43.8713694}, {"type": "node", "id": 6291363124, "lat": 3.0828158, "lon": 43.871423}, {"type": "node", "id": 6291363125, "lat": 3.0826605, "lon": 43.8715249}, {"type": "node", "id": 6291363126, "lat": 3.0825265, "lon": 43.8716161}, {"type": "node", "id": 6291363127, "lat": 3.0823926, "lon": 43.8716268}, {"type": "node", "id": 6291363128, "lat": 3.0821301, "lon": 43.871659}, {"type": "node", "id": 6291363129, "lat": 3.0806089, "lon": 43.8663322}, {"type": "node", "id": 6291363130, "lat": 3.0807267, "lon": 43.866418}, {"type": "node", "id": 6291363131, "lat": 3.0808767, "lon": 43.8664502}, {"type": "node", "id": 6291363132, "lat": 3.0810695, "lon": 43.8664234}, {"type": "node", "id": 6291363133, "lat": 3.0811659, "lon": 43.8663751}, {"type": "node", "id": 6291363134, "lat": 3.0812356, "lon": 43.8662624}, {"type": "node", "id": 6291363135, "lat": 3.0812624, "lon": 43.8661122}, {"type": "node", "id": 6291363136, "lat": 3.0812356, "lon": 43.8659888}, {"type": "node", "id": 6291363137, "lat": 3.0811767, "lon": 43.8658762}, {"type": "node", "id": 6291363138, "lat": 3.081091, "lon": 43.8656911}, {"type": "node", "id": 6291363139, "lat": 3.0808633, "lon": 43.8655623}, {"type": "node", "id": 6291363140, "lat": 3.0806249, "lon": 43.8657045}, {"type": "node", "id": 6291363141, "lat": 3.0807053, "lon": 43.8658923}, {"type": "node", "id": 6291363142, "lat": 3.0805285, "lon": 43.8660532}, {"type": "node", "id": 6301241820, "lat": 3.0358583, "lon": 43.8810092}, {"type": "node", "id": 6301241821, "lat": 3.0356494, "lon": 43.8812238}, {"type": "node", "id": 6301241822, "lat": 3.0353119, "lon": 43.8813901}, {"type": "node", "id": 6301241823, "lat": 3.0352209, "lon": 43.8814384}, {"type": "node", "id": 6301241824, "lat": 3.0350977, "lon": 43.8815778}, {"type": "node", "id": 6301241825, "lat": 3.0348887, "lon": 43.8816959}, {"type": "node", "id": 6301241826, "lat": 3.0347173, "lon": 43.8817817}, {"type": "node", "id": 6301241827, "lat": 3.0345245, "lon": 43.881889}, {"type": "node", "id": 6301241828, "lat": 3.0343691, "lon": 43.8820177}, {"type": "node", "id": 6301241829, "lat": 3.0343959, "lon": 43.882463}, {"type": "node", "id": 6301241830, "lat": 3.0344441, "lon": 43.88264}, {"type": "node", "id": 6301241831, "lat": 3.0343102, "lon": 43.8827258}, {"type": "node", "id": 6301241832, "lat": 3.0339673, "lon": 43.8829243}, {"type": "node", "id": 6301241833, "lat": 3.0338441, "lon": 43.8830906}, {"type": "node", "id": 6301241834, "lat": 3.0337799, "lon": 43.8832569}, {"type": "node", "id": 6301241835, "lat": 3.0339673, "lon": 43.8834554}, {"type": "node", "id": 6301241836, "lat": 3.0342352, "lon": 43.8835037}, {"type": "node", "id": 6301241837, "lat": 3.034487, "lon": 43.8834929}, {"type": "node", "id": 6301241838, "lat": 3.0347387, "lon": 43.8834929}, {"type": "node", "id": 6301241839, "lat": 3.0350066, "lon": 43.8834876}, {"type": "node", "id": 6301241840, "lat": 3.0352369, "lon": 43.8834232}, {"type": "node", "id": 6301241841, "lat": 3.0354512, "lon": 43.8833159}, {"type": "node", "id": 6301241842, "lat": 3.0355958, "lon": 43.8832194}, {"type": "node", "id": 6301241843, "lat": 3.0356441, "lon": 43.8830423}, {"type": "node", "id": 6301241844, "lat": 3.0356601, "lon": 43.8827366}, {"type": "node", "id": 6301241845, "lat": 3.0362922, "lon": 43.8825059}, {"type": "node", "id": 6301241846, "lat": 3.0366297, "lon": 43.882522}, {"type": "node", "id": 6301241847, "lat": 3.0369029, "lon": 43.8824308}, {"type": "node", "id": 6301241848, "lat": 3.0370154, "lon": 43.882302}, {"type": "node", "id": 6301241849, "lat": 3.0369726, "lon": 43.8820338}, {"type": "node", "id": 6301241850, "lat": 3.0368976, "lon": 43.8819212}, {"type": "node", "id": 6301241851, "lat": 3.0367851, "lon": 43.8816529}, {"type": "node", "id": 6301241852, "lat": 3.0367476, "lon": 43.8814706}, {"type": "node", "id": 6301241853, "lat": 3.0367261, "lon": 43.881197}, {"type": "node", "id": 6301241854, "lat": 3.0365601, "lon": 43.8809234}, {"type": "node", "id": 6301241855, "lat": 3.036094, "lon": 43.8809717}, {"type": "node", "id": 6301241987, "lat": 3.0985321, "lon": 43.8576901}, {"type": "node", "id": 6301241988, "lat": 3.0986714, "lon": 43.8572824}, {"type": "node", "id": 6301241989, "lat": 3.0984732, "lon": 43.8571912}, {"type": "node", "id": 6301241990, "lat": 3.0985857, "lon": 43.8569069}, {"type": "node", "id": 6301241991, "lat": 3.0989928, "lon": 43.8566816}, {"type": "node", "id": 6301241992, "lat": 3.0994106, "lon": 43.8566762}, {"type": "node", "id": 6301241993, "lat": 3.0996677, "lon": 43.8570034}, {"type": "node", "id": 6301396814, "lat": 3.0656074, "lon": 43.8941869, "tags": {"place": "isolated_dwelling"}}, {"type": "node", "id": 6301396815, "lat": 3.0680528, "lon": 43.8957211, "tags": {"place": "isolated_dwelling"}}, {"type": "node", "id": 6301396816, "lat": 3.0672037, "lon": 43.895402, "tags": {"place": "isolated_dwelling"}}, {"type": "node", "id": 6307980430, "lat": 2.7386587, "lon": 43.9140996, "tags": {"place": "hamlet"}}, {"type": "node", "id": 6310226844, "lat": 2.7366957, "lon": 43.9102478, "tags": {"place": "isolated_dwelling", "source": "UNSOA III: E043N02_08, SPOT5 image based data capture using different Ancillary Sources coming from UNSOA field mission", "source:date": "2007-02-17"}}, {"type": "node", "id": 6310228435, "lat": 2.7105666, "lon": 43.8486464, "tags": {"place": "isolated_dwelling", "source": "UNSOA III: E043N02_08, SPOT5 image based data capture using different Ancillary Sources coming from UNSOA field mission", "source:date": "2007-02-17"}}, {"type": "node", "id": 6310422376, "lat": 2.7113861, "lon": 43.8772273, "tags": {"place": "isolated_dwelling"}}, {"type": "node", "id": 6330590796, "lat": 2.7414692, "lon": 43.9132225, "tags": {"place": "isolated_dwelling"}}, {"type": "node", "id": 7192721874, "lat": 2.7408342, "lon": 43.8769591, "tags": {"name": "Quunya Harraagow", "pcode": "NA-3806-G09-002", "place": "hamlet", "source": "UNDP - 1997"}}, {"type": "node", "id": 7692659298, "lat": 2.9363637, "lon": 43.6960582}, {"type": "node", "id": 7692659300, "lat": 2.9359278, "lon": 43.6962966}, {"type": "node", "id": 7701440554, "lat": 2.7359823, "lon": 43.9125681, "tags": {"name": "Kunyabuurow", "pcode": "NA-3806-G10-003", "place": "village", "source": "UNDP - 1997"}}, {"type": "node", "id": 7701440555, "lat": 2.7047724, "lon": 43.9249814, "tags": {"name": "Darabqooy", "place": "hamlet"}}, {"type": "node", "id": 7701440556, "lat": 2.7133861, "lon": 43.903631, "tags": {"place": "hamlet"}}, {"type": "node", "id": 7701440557, "lat": 2.7145221, "lon": 43.8796708, "tags": {"place": "hamlet"}}, {"type": "node", "id": 7701440558, "lat": 2.7347391, "lon": 43.8572556, "tags": {"alt_name": "Jembecada", "name": "Jemeecada", "place": "hamlet"}}, {"type": "node", "id": 7701440559, "lat": 2.7452092, "lon": 43.8285559, "tags": {"name": "Dukaanka", "pcode": "NA-3806-G08-002", "place": "village", "source": "UNDP - 1997"}}, {"type": "node", "id": 7701440560, "lat": 2.7494417, "lon": 43.8001996, "tags": {"place": "hamlet"}}, {"type": "node", "id": 7701440562, "lat": 2.7034676, "lon": 43.7565225, "tags": {"alt_name": "Farale", "name": "Farraale", "place": "hamlet", "source": "UNSOA III: E043N02_08, SPOT5 image based data capture using different Ancillary Sources coming from UNSOA field mission", "source:date": "2007-02-17"}}, {"type": "node", "id": 7701440564, "lat": 2.7101791, "lon": 43.8463604, "tags": {"place": "hamlet"}}, {"type": "node", "id": 7701568549, "lat": 2.7166815, "lon": 43.8770342, "tags": {"name": "Mataanyaha", "place": "village", "source": "UNSOA III: E043N02_08, SPOT5 image based data capture using different Ancillary Sources coming from UNSOA field mission", "source:date": "2007-02-17"}}, {"type": "node", "id": 7701818228, "lat": 2.7494422, "lon": 43.881948, "tags": {"place": "hamlet"}}, {"type": "node", "id": 7719205205, "lat": 2.9411257, "lon": 43.7392679, "tags": {"name": "Buulo Xabiibo", "place": "hamlet"}},