{"version": 0.6, "generator": "Overpass API 0.7.62.1 084b4234", "osm3s": {"timestamp_osm_base": "2024-10-01T00:05:11Z", "copyright": "The data included in this document is from www.openstreetmap.org. The data is made available under ODbL."}, "elements": [{"type": "node", "id": 1150880806, "lat": 10.04444, "lon": 42.58889, "tags": {"is_in:country": "Ethiopia", "is_in:country_code": "ET", "name": "Korohor Meda", "place": "locality", "source": "GeoDatabase"}}, {"type": "node", "id": 1150881826, "lat": 9.83861, "lon": 42.52, "tags": {"is_in:country": "Ethiopia", "is_in:country_code": "ET", "name": "Huladolu", "place": "locality", "source": "GeoDatabase"}}, {"type": "node", "id": 1150885696, "lat": 9.93722, "lon": 42.90666, "tags": {"is_in:country": "Ethiopia", "is_in:country_code": "ET", "name": "Elbahe Shet'", "place": "locality", "source": "GeoDatabase", "wikidata": "Q23962273"}}, {"type": "node", "id": 1150886678, "lat": 9.93611, "lon": 42.87278, "tags": {"is_in:country": "Ethiopia", "is_in:country_code": "ET", "name": "Jelo Shet'", "place": "locality", "source": "GeoDatabase", "wikidata": "Q23961492"}}, {"type": "node", "id": 1150886909, "lat": 9.91444, "lon": 42.77917, "tags": {"is_in:country": "Ethiopia", "is_in:country_code": "ET", "name": "Dogle Shet'", "place": "locality", "source": "GeoDatabase", "wikidata": "Q23962369"}}, {"type": "node", "id": 1150887158, "lat": 10.07444, "lon": 42.85778, "tags": {"is_in:country": "Ethiopia", "is_in:country_code": "ET", "name": "Gocti", "place": "locality", "source": "GeoDatabase"}}, {"type": "node", "id": 1150892035, "lat": 9.93361, "lon": 42.7175, "tags": {"is_in:country": "Ethiopia", "is_in:country_code": "ET", "name": "Arabi", "place": "village", "source": "GeoDatabase", "wikidata": "Q55604119"}}, {"type": "node", "id": 1150898422, "lat": 9.74194, "lon": 42.56306, "tags": {"is_in:country": "Ethiopia", "is_in:country_code": "ET", "name": "Gara Hadem", "place": "locality", "source": "GeoDatabase"}}, {"type": "node", "id": 1150898539, "lat": 9.76861, "lon": 42.74889, "tags": {"is_in:country": "Ethiopia", "is_in:country_code": "ET", "name": "Giogi", "place": "locality", "source": "GeoDatabase"}}, {"type": "node", "id": 1150899891, "lat": 9.81833, "lon": 42.58222, "tags": {"is_in:country": "Ethiopia", "is_in:country_code": "ET", "name": "K'Awdera", "place": "locality", "source": "GeoDatabase"}}, {"type": "node", "id": 1150900561, "lat": 10.01667, "lon": 42.61667, "tags": {"is_in:country": "Ethiopia", "is_in:country_code": "ET", "name": "Dembel Shet'", "place": "locality", "source": "GeoDatabase", "wikidata": "Q23962433"}}, {"type": "node", "id": 1150903125, "lat": 10.13333, "lon": 42.93333, "tags": {"name": "Darablei", "place": "locality", "source": "GeoDatabase"}}, {"type": "node", "id": 1150921111, "lat": 9.80278, "lon": 42.91722, "tags": {"is_in:country": "Ethiopia", "is_in:country_code": "ET", "name": "Somadu", "place": "locality", "source": "GeoDatabase"}}, {"type": "node", "id": 1150921689, "lat": 9.91833, "lon": 42.73278, "tags": {"is_in:country": "Ethiopia", "is_in:country_code": "ET", "name": "Shebele Shet'", "place": "locality", "source": "GeoDatabase", "wikidata": "Q23961172"}}, {"type": "node", "id": 1150922575, "lat": 9.96667, "lon": 42.91667, "tags": {"is_in:country": "Ethiopia", "is_in:country_code": "ET", "name": "Lasa'Anot Bota", "place": "locality", "source": "GeoDatabase"}}, {"type": "node", "id": 1150923620, "lat": 10.16667, "lon": 42.66667, "tags": {"is_in:country": "Ethiopia", "is_in:country_code": "ET", "name": "Banka Ellis", "place": "locality", "source": "GeoDatabase"}}, {"type": "node", "id": 1150932615, "lat": 9.83556, "lon": 42.74889, "tags": {"is_in:country": "Ethiopia", "is_in:country_code": "ET", "name": "Giogi", "place": "locality", "source": "GeoDatabase"}}, {"type": "node", "id": 1150935153, "lat": 10.12056, "lon": 42.72583, "tags": {"is_in:country": "Ethiopia", "is_in:country_code": "ET", "name": "Uadi Soca", "place": "locality", "source": "GeoDatabase"}}, {"type": "node", "id": 1150936014, "lat": 9.75111, "lon": 42.8825, "tags": {"is_in:country": "Ethiopia", "is_in:country_code": "ET", "name": "Korolai", "place": "locality", "source": "GeoDatabase"}}, {"type": "node", "id": 1150936955, "lat": 10.01056, "lon": 42.62722, "tags": {"is_in:country": "Ethiopia", "is_in:country_code": "ET", "name": "Gereba'At Shet'", "place": "locality", "source": "GeoDatabase", "wikidata": "Q23962035"}}, {"type": "node", "id": 1150944867, "lat": 9.96278, "lon": 42.49278, "tags": {"is_in:country": "Ethiopia", "is_in:country_code": "ET", "name": "Arabi", "place": "locality", "source": "GeoDatabase"}}, {"type": "node", "id": 1150948936, "lat": 9.92083, "lon": 42.57917, "tags": {"is_in:country": "Ethiopia", "is_in:country_code": "ET", "name": "Harraua", "place": "locality", "source": "GeoDatabase", "wikidata": "Q24028168"}}, {"type": "node", "id": 1150957683, "lat": 9.7375, "lon": 42.74167, "tags": {"is_in:country": "Ethiopia", "is_in:country_code": "ET", "name": "Gureholad", "place": "locality", "source": "GeoDatabase"}}, {"type": "node", "id": 1150960258, "lat": 9.74333, "lon": 42.58861, "tags": {"is_in:country": "Ethiopia", "is_in:country_code": "ET", "name": "Abemso Shet'", "place": "locality", "source": "GeoDatabase", "wikidata": "Q23963129"}}, {"type": "node", "id": 1150960839, "lat": 10.04917, "lon": 42.50416, "tags": {"is_in:country": "Ethiopia", "is_in:country_code": "ET", "name": "Biye Bahi", "place": "locality", "source": "GeoDatabase"}}, {"type": "node", "id": 1150963144, "lat": 9.92972, "lon": 42.84028, "tags": {"is_in:country": "Ethiopia", "is_in:country_code": "ET", "name": "Gogeyti Shet'", "place": "locality", "source": "GeoDatabase", "wikidata": "Q23961962"}}, {"type": "node", "id": 1150963591, "lat": 9.91361, "lon": 42.765, "tags": {"is_in:country": "Ethiopia", "is_in:country_code": "ET", "name": "Kharoue-Shet", "place": "locality", "source": "GeoDatabase"}}, {"type": "node", "id": 1150966710, "lat": 9.9975, "lon": 42.90944, "tags": {"is_in:country": "Ethiopia", "is_in:country_code": "ET", "name": "Guburka'As", "place": "locality", "source": "GeoDatabase"}}, {"type": "node", "id": 1150973718, "lat": 9.73583, "lon": 42.93167, "tags": {"is_in:country": "Ethiopia", "is_in:country_code": "ET", "name": "Ag Giogsi", "place": "locality", "source": "GeoDatabase"}}, {"type": "node", "id": 1150975039, "lat": 9.78583, "lon": 42.77528, "tags": {"is_in:country": "Ethiopia", "is_in:country_code": "ET", "name": "Sciabellei", "place": "locality", "source": "GeoDatabase"}}, {"type": "node", "id": 1150978644, "lat": 10.1, "lon": 42.75778, "tags": {"is_in:country": "Ethiopia", "is_in:country_code": "ET", "name": "Odah Shet'", "place": "locality", "source": "GeoDatabase"}}, {"type": "node", "id": 1151005067, "lat": 9.95111, "lon": 42.69417, "tags": {"is_in:country": "Ethiopia", "is_in:country_code": "ET", "name": "Arabi Shet'", "place": "locality", "source": "GeoDatabase", "wikidata": "Q23962828"}}, {"type": "node", "id": 10602151730, "lat": 9.8108724, "lon": 42.6029152, "tags": {"name": "Dambel", "place": "village"}}]}