{"version": 0.6, "generator": "Overpass API 0.7.62.1 084b4234", "osm3s": {"timestamp_osm_base": "2024-10-01T00:27:28Z", "copyright": "The data included in this document is from www.openstreetmap.org. The data is made available under ODbL."}, "elements": [{"type": "node", "id": 1150881988, "lat": 6.51667, "lon": 38.05, "tags": {"is_in:country": "Ethiopia", "is_in:country_code": "ET", "name": "Kola Shet'", "place": "locality", "source": "GeoDatabase"}}, {"type": "node", "id": 1150882248, "lat": 6.66667, "lon": 37.83333, "tags": {"is_in:country": "Ethiopia", "is_in:country_code": "ET", "name": "Abela Tekil", "place": "locality", "source": "GeoDatabase"}}, {"type": "node", "id": 1150883613, "lat": 6.53333, "lon": 38.1, "tags": {"is_in:country": "Ethiopia", "is_in:country_code": "ET", "name": "Ciabi", "place": "locality", "source": "GeoDatabase"}}, {"type": "node", "id": 1150884391, "lat": 6.83333, "lon": 38.08333, "tags": {"is_in:country": "Ethiopia", "is_in:country_code": "ET", "name": "Tora", "place": "locality", "source": "GeoDatabase"}}, {"type": "node", "id": 1150885421, "lat": 6.78333, "lon": 38.06666, "tags": {"is_in:country": "Ethiopia", "is_in:country_code": "ET", "name": "Bilate Irsha", "place": "locality", "source": "GeoDatabase"}}, {"type": "node", "id": 1150886690, "lat": 6.68333, "lon": 37.95, "tags": {"is_in:country": "Ethiopia", "is_in:country_code": "ET", "name": "Guyida Bota", "place": "locality", "source": "GeoDatabase"}}, {"type": "node", "id": 1150900224, "lat": 6.61667, "lon": 38.03333, "tags": {"is_in:country": "Ethiopia", "is_in:country_code": "ET", "name": "Bathara", "place": "locality", "source": "GeoDatabase"}}, {"type": "node", "id": 1150905475, "lat": 6.78333, "lon": 38.1, "tags": {"is_in:country": "Ethiopia", "is_in:country_code": "ET", "name": "T'Ena Bilate Bota", "place": "locality", "source": "GeoDatabase"}}, {"type": "node", "id": 1150911157, "lat": 6.83333, "lon": 37.91667, "tags": {"is_in:country": "Ethiopia", "is_in:country_code": "ET", "name": "Borkoshe Bota", "place": "locality", "source": "GeoDatabase"}}, {"type": "node", "id": 1150916739, "lat": 6.78333, "lon": 38.01667, "tags": {"is_in:country": "Ethiopia", "is_in:country_code": "ET", "name": "Gurbaye Bota", "place": "locality", "source": "GeoDatabase"}}, {"type": "node", "id": 1150925718, "lat": 6.76667, "lon": 37.85, "tags": {"is_in:country": "Ethiopia", "is_in:country_code": "ET", "name": "Umbo", "place": "locality", "source": "GeoDatabase", "wikidata": "Q24025434"}}, {"type": "node", "id": 1150958947, "lat": 6.85, "lon": 38.03333, "tags": {"is_in:country": "Ethiopia", "is_in:country_code": "ET", "name": "Pinta Bota", "place": "locality", "source": "GeoDatabase"}}, {"type": "node", "id": 1150963193, "lat": 6.7, "lon": 37.88333, "tags": {"is_in:country": "Ethiopia", "is_in:country_code": "ET", "name": "Abela", "place": "locality", "source": "GeoDatabase"}}, {"type": "node", "id": 1150970115, "lat": 6.78333, "lon": 37.85, "tags": {"is_in:country": "Ethiopia", "is_in:country_code": "ET", "name": "Gulgula Bota", "place": "locality", "source": "GeoDatabase"}}, {"type": "node", "id": 3859575656, "lat": 6.7641169, "lon": 37.8745733, "tags": {"name": "Hobicha Bada", "place": "town"}}, {"type": "node", "id": 3859576981, "lat": 6.6128036, "lon": 37.9341841, "tags": {"place": "town"}}, {"type": "node", "id": 3859578367, "lat": 6.6270857, "lon": 37.9411565, "tags": {"place": "village"}}, {"type": "node", "id": 3859578391, "lat": 6.6334805, "lon": 37.9331742, "tags": {"place": "village"}}, {"type": "node", "id": 3859578450, "lat": 6.6188588, "lon": 37.9885565, "tags": {"place": "village"}}, {"type": "node", "id": 3859578871, "lat": 6.606112, "lon": 37.9603182, "tags": {"place": "village"}}, {"type": "node", "id": 3859578921, "lat": 6.6635357, "lon": 37.8385733, "tags": {"name": "Paracho", "name:wal": "Paarachcho", "place": "town", "wikidata": "Q109827154", "wikipedia": "en:Faracho"}}, {"type": "node", "id": 3859579089, "lat": 6.5939872, "lon": 37.9705927, "tags": {"place": "village"}}, {"type": "node", "id": 3859579099, "lat": 6.68607, "lon": 37.864499, "tags": {"place": "village"}}, {"type": "node", "id": 11696471766, "lat": 6.8461773, "lon": 37.8754425, "tags": {"name": "Giraara", "place": "town"}}, {"type": "node", "id": 11771688679, "lat": 6.746136, "lon": 38.0496918, "tags": {"name": "Bilate", "name:wal": "Bilaatte", "place": "village"}}]}