{"version": 0.6, "generator": "Overpass API 0.7.62.1 084b4234", "osm3s": {"timestamp_osm_base": "2024-09-30T19:56:45Z", "copyright": "The data included in this document is from www.openstreetmap.org. The data is made available under ODbL."}, "elements": [{"type": "node", "id": 1404221405, "lat": 9.7975, "lon": 50.071602, "tags": {"fixme": "Please, check location!", "name": "Ciddei Jebis", "pcode": "NC-3810-E13-001", "place": "village", "source": "UNDP - 1997"}}, {"type": "node", "id": 1404225217, "lat": 9.56728, "lon": 50.13454, "tags": {"name": "Sarmaan", "pcode": "NC-3810-L14-001", "place": "village", "source": "UNDP - 2006"}}, {"type": "node", "id": 1404225783, "lat": 9.8698, "lon": 49.797001, "tags": {"fixme": "Please, check location!", "name": "Gaal Goble", "pcode": "NC-3810-D07-002", "place": "village", "source": "UNDP - 1997"}}, {"type": "node", "id": 1404226776, "lat": 9.64542, "lon": 49.82511, "tags": {"alt_name": "Qodah", "name": "Qodax", "pcode": "NC-3810-J08-002", "place": "village", "source": "UNDP - 2006, UNDP - 1997, FSAU"}}, {"type": "node", "id": 1404230050, "lat": 9.9516, "lon": 49.9324, "tags": {"fixme": "Please, check location!", "name": "Dalmadot", "pcode": "NC-3810-B10-002", "place": "hamlet", "source": "UNDP - 1997"}}, {"type": "node", "id": 1404230450, "lat": 9.6421609, "lon": 49.8912905, "tags": {"alt_name": "Xunbeys", "name": "Xumbays", "pcode": "NC-3810-J09-001", "place": "village", "source": "UNDP - 2006, UNDP - 1997"}}, {"type": "node", "id": 1404230483, "lat": 9.8852667, "lon": 49.9493484, "tags": {"alt_name": "Dudhoyo", "name": "Duud-Hooyo", "pcode": "NC-3810-C11-003", "place": "village", "source": "UNDP - 2006, UNDP - 1997, FSAU"}}]}