{"version": 0.6, "generator": "Overpass API 0.7.62.1 084b4234", "osm3s": {"timestamp_osm_base": "2024-09-30T19:20:35Z", "copyright": "The data included in this document is from www.openstreetmap.org. The data is made available under ODbL."}, "elements": [{"type": "node", "id": 44930938, "lat": 1.7833, "lon": 35.05, "tags": {"created_by": "JOSM", "is_in": "West pokot,Kenya", "name": "Kunyao", "place": "village"}}, {"type": "node", "id": 1841551590, "lat": 1.5675, "lon": 34.93056, "tags": {"name": "Karita", "place": "hamlet"}}, {"type": "node", "id": 2145024184, "lat": 1.8489493, "lon": 35.0403733, "tags": {"place": "village"}}, {"type": "node", "id": 2229117497, "lat": 1.766667, "lon": 34.85, "tags": {"GNS:dsg_code": "PPL", "GNS:dsg_string": "populated place", "GNS:id": "-1729366", "fixme": "no population estimate available, defaulted to village", "name": "Kotabok", "place": "village", "source": "GNS"}}, {"type": "node", "id": 2229124780, "lat": 1.6, "lon": 34.85, "tags": {"GNS:dsg_code": "PPL", "GNS:dsg_string": "populated place", "GNS:id": "-1734600", "fixme": "no population estimate available, defaulted to village", "name": "Paripari", "place": "village", "source": "GNS"}}, {"type": "node", "id": 10201985616, "lat": 1.7365849, "lon": 34.8861682, "tags": {"name": "Sikotai", "place": "village", "source": "Ubos 2014"}}, {"type": "node", "id": 10202079829, "lat": 1.626456, "lon": 34.9573347, "tags": {"name": "Natirira", "place": "village", "source": "Ubos 2014"}}, {"type": "node", "id": 10202079830, "lat": 1.672908, "lon": 34.9862798, "tags": {"name": "Morupus", "place": "village", "source": "Ubos 2014"}}, {"type": "node", "id": 10202079831, "lat": 1.6245583, "lon": 34.9267825, "tags": {"name": "Lolepon", "place": "village", "source": "Ubos 2014"}}, {"type": "node", "id": 10202079832, "lat": 1.6269222, "lon": 34.8068308, "tags": {"name": "Lochawa", "place": "village", "source": "Ubos 2014"}}, {"type": "node", "id": 10202079833, "lat": 1.6313342, "lon": 34.8313533, "tags": {"name": "Kidikdik", "place": "village", "source": "Ubos 2014"}}, {"type": "node", "id": 10202079834, "lat": 1.6239934, "lon": 34.9056201, "tags": {"name": "Katopoten", "place": "village", "source": "Ubos 2014"}}, {"type": "node", "id": 10202079835, "lat": 1.6763653, "lon": 34.9576318, "tags": {"name": "Kangulet", "place": "village", "source": "Ubos 2014"}}, {"type": "node", "id": 10202079836, "lat": 1.6405066, "lon": 34.905422, "tags": {"name": "Kangonoi", "place": "village", "source": "Ubos 2014"}}, {"type": "node", "id": 10202079837, "lat": 1.6286125, "lon": 34.8792536, "tags": {"name": "Kalokotyo", "place": "village", "source": "Ubos 2014"}}, {"type": "node", "id": 10202079838, "lat": 1.6654688, "lon": 34.9134752, "tags": {"name": "Kalawani", "place": "village", "source": "Ubos 2014"}}, {"type": "node", "id": 10202079839, "lat": 1.6283641, "lon": 34.8540176, "tags": {"name": "Kaichom", "place": "village", "source": "Ubos 2014"}}, {"type": "node", "id": 10202079840, "lat": 1.6906304, "lon": 34.8528654, "tags": {"name": "Hunting Area", "place": "village", "source": "Ubos 2014"}}, {"type": "node", "id": 10202079842, "lat": 1.6159411, "lon": 34.9448311, "tags": {"name": "Compas", "place": "village", "source": "Ubos 2014"}}, {"type": "node", "id": 10202079843, "lat": 1.6562328, "lon": 34.8679718, "tags": {"name": "Cheptuyis", "place": "village", "source": "Ubos 2014"}}, {"type": "node", "id": 10202079844, "lat": 1.6502696, "lon": 34.9542184, "tags": {"name": "Cheptapoyo", "place": "village", "source": "Ubos 2014"}}, {"type": "node", "id": 10202079870, "lat": 1.5280232, "lon": 34.8247649, "tags": {"name": "Taparak", "place": "village", "source": "Ubos 2014"}}, {"type": "node", "id": 10202079871, "lat": 1.556638, "lon": 34.8268892, "tags": {"name": "Riting", "place": "village", "source": "Ubos 2014"}}, {"type": "node", "id": 10202079872, "lat": 1.5906376, "lon": 34.9041445, "tags": {"name": "Ngongosowon", "place": "village", "source": "Ubos 2014"}}, {"type": "node", "id": 10202079873, "lat": 1.5666104, "lon": 34.8586649, "tags": {"name": "Nawoi", "place": "village", "source": "Ubos 2014"}}, {"type": "node", "id": 10202079874, "lat": 1.5956603, "lon": 34.8194382, "tags": {"name": "Namodo", "place": "village", "source": "Ubos 2014"}}, {"type": "node", "id": 10202079877, "lat": 1.5080462, "lon": 34.8271408, "tags": {"name": "Morwo", "place": "village", "source": "Ubos 2014"}}, {"type": "node", "id": 10202079878, "lat": 1.5412313, "lon": 34.8474533, "tags": {"name": "Morwakengan", "place": "village", "source": "Ubos 2014"}}, {"type": "node", "id": 10202079879, "lat": 1.5942903, "lon": 34.8411821, "tags": {"name": "Moromodo", "place": "village", "source": "Ubos 2014"}}, {"type": "node", "id": 10202079880, "lat": 1.5458792, "lon": 34.7960833, "tags": {"name": "Mokogwo", "place": "village", "source": "Ubos 2014"}}, {"type": "node", "id": 10202079881, "lat": 1.5306093, "lon": 34.8599984, "tags": {"name": "Korenyang", "place": "village", "source": "Ubos 2014"}}, {"type": "node", "id": 10202079882, "lat": 1.5541956, "lon": 34.9140313, "tags": {"name": "Katukumwok", "place": "village", "source": "Ubos 2014"}}, {"type": "node", "id": 10202079883, "lat": 1.529158, "lon": 34.841554, "tags": {"name": "Karita", "place": "village", "source": "Ubos 2014"}}, {"type": "node", "id": 10202079884, "lat": 1.5492629, "lon": 34.8623706, "tags": {"name": "Kakengere", "place": "village", "source": "Ubos 2014"}}, {"type": "node", "id": 10202079885, "lat": 1.5866889, "lon": 34.857774, "tags": {"name": "Kaetuku", "place": "village", "source": "Ubos 2014"}}, {"type": "node", "id": 10202079887, "lat": 1.6063342, "lon": 34.892797, "tags": {"name": "Cherelachkochua", "place": "village", "source": "Ubos 2014"}}, {"type": "node", "id": 10202079888, "lat": 1.5154566, "lon": 34.8368653, "tags": {"name": "Chemoikut", "place": "village", "source": "Ubos 2014"}}, {"type": "node", "id": 10202079889, "lat": 1.5812326, "lon": 34.8920906, "tags": {"name": "Akurauyan", "place": "village", "source": "Ubos 2014"}}, {"type": "node", "id": 10202079890, "lat": 1.5661411, "lon": 34.9094706, "tags": {"name": "Abongai", "place": "village", "source": "Ubos 2014"}}, {"type": "node", "id": 10202089417, "lat": 1.7451824, "lon": 34.905184, "tags": {"name": "Pillil", "place": "village", "source": "Ubos 2014"}}, {"type": "node", "id": 10202089418, "lat": 1.8111845, "lon": 34.8937519, "tags": {"name": "Nakwangamoru", "place": "village", "source": "Ubos 2014"}}, {"type": "node", "id": 10202089419, "lat": 1.7752071, "lon": 34.9609865, "tags": {"name": "Motany", "place": "village", "source": "Ubos 2014"}}, {"type": "node", "id": 10202089420, "lat": 1.7076623, "lon": 34.9816124, "tags": {"name": "Morupus", "place": "village", "source": "Ubos 2014"}}, {"type": "node", "id": 10202089421, "lat": 1.7539889, "lon": 34.8457184, "tags": {"name": "Losuko", "place": "village", "source": "Ubos 2014"}}, {"type": "node", "id": 10202089422, "lat": 1.8268154, "lon": 34.8749305, "tags": {"name": "Lorwairwai", "place": "village", "source": "Ubos 2014"}}, {"type": "node", "id": 10202089423, "lat": 1.774243, "lon": 34.8793696, "tags": {"name": "Lomunyan", "place": "village", "source": "Ubos 2014"}}, {"type": "node", "id": 10202089424, "lat": 1.7472435, "lon": 34.9739745, "tags": {"name": "Lomasinik", "place": "village", "source": "Ubos 2014"}}, {"type": "node", "id": 10202089425, "lat": 1.7418098, "lon": 34.848248, "tags": {"name": "Kongodowa", "place": "village", "source": "Ubos 2014"}}, {"type": "node", "id": 10202089426, "lat": 1.7934783, "lon": 34.8820731, "tags": {"name": "Koketai", "place": "village", "source": "Ubos 2014"}}, {"type": "node", "id": 10202089427, "lat": 1.6912059, "lon": 34.9350027, "tags": {"name": "Kodukoi", "place": "village", "source": "Ubos 2014"}}, {"type": "node", "id": 10202089428, "lat": 1.7471295, "lon": 34.8759866, "tags": {"name": "Kodiaka", "place": "village", "source": "Ubos 2014"}}, {"type": "node", "id": 10202089429, "lat": 1.764223, "lon": 34.8641892, "tags": {"name": "Katabok", "place": "village", "source": "Ubos 2014"}}, {"type": "node", "id": 10202089430, "lat": 1.7298971, "lon": 34.8663089, "tags": {"name": "Kapetawoi", "place": "village", "source": "Ubos 2014"}}, {"type": "node", "id": 10202089431, "lat": 1.7134587, "lon": 34.9077178, "tags": {"name": "Kanaroyon", "place": "village", "source": "Ubos 2014"}}, {"type": "node", "id": 10202089432, "lat": 1.7538356, "lon": 34.8236413, "tags": {"name": "Kadekele", "place": "village", "source": "Ubos 2014"}}, {"type": "node", "id": 10202089433, "lat": 1.7091468, "lon": 34.9586985, "tags": {"name": "Dingding", "place": "village", "source": "Ubos 2014"}}, {"type": "node", "id": 10202089434, "lat": 1.7233106, "lon": 34.9385024, "tags": {"name": "Akuryon", "place": "village", "source": "Ubos 2014"}}, {"type": "node", "id": 10202089435, "lat": 1.8270239, "lon": 34.9150947, "tags": {"name": "Akore", "place": "village", "source": "Ubos 2014"}}, {"type": "node", "id": 10202089438, "lat": 1.8746359, "lon": 34.9823183, "tags": {"name": "Nakasepan", "place": "village", "source": "Ubos 2014"}}, {"type": "node", "id": 10202089440, "lat": 1.8712772, "lon": 35.0097461, "tags": {"name": "Motui", "place": "village", "source": "Ubos 2014"}}, {"type": "node", "id": 10202089444, "lat": 1.8632597, "lon": 34.9954447, "tags": {"name": "Kasiasa", "place": "village", "source": "Ubos 2014"}}, {"type": "node", "id": 10202089446, "lat": 1.8721957, "lon": 34.9491912, "tags": {"name": "Kakadama", "place": "village", "source": "Ubos 2014"}}, {"type": "node", "id": 10202089447, "lat": 1.8525876, "lon": 34.9066456, "tags": {"name": "Grazing Area", "place": "village", "source": "Ubos 2014"}}, {"type": "node", "id": 10202089450, "lat": 1.8444801, "lon": 34.9750966, "tags": {"name": "Chemotong", "place": "village", "source": "Ubos 2014"}}, {"type": "node", "id": 10202089451, "lat": 1.8552492, "lon": 34.9914485, "tags": {"name": "Alakas", "place": "village", "source": "Ubos 2014"}}, {"type": "node", "id": 10202089452, "lat": 1.8019199, "lon": 34.9956305, "tags": {"name": "Akoule", "place": "village", "source": "Ubos 2014"}}, {"type": "node", "id": 10924126477, "lat": 1.5284529, "lon": 34.7873961}, {"type": "node", "id": 10924126478, "lat": 1.5265623, "lon": 34.7924089}, {"type": "node", "id": 10924126479, "lat": 1.5237102, "lon": 34.7942096}, {"type": "node", "id": 10924126480, "lat": 1.5217891, "lon": 34.7924383}, {"type": "node", "id": 10924126481, "lat": 1.5199962, "lon": 34.7916448}, {"type": "node", "id": 10924126482, "lat": 1.5184034, "lon": 34.7887797}, {"type": "node", "id": 10924126483, "lat": 1.518584, "lon": 34.7850763}, {"type": "node", "id": 10924126484, "lat": 1.5197747, "lon": 34.7800844}, {"type": "node", "id": 10924126485, "lat": 1.5220107, "lon": 34.7774239}, {"type": "node", "id": 10924126486, "lat": 1.5277798, "lon": 34.7766393}, {"type": "node", "id": 10924126487, "lat": 1.5295579, "lon": 34.7804541}, {"type": "node", "id": 10924126488, "lat": 1.5300554, "lon": 34.7848127}, {"type": "way", "id": 1175621152, "nodes": [10924126477, 10924126478, 10924126479, 10924126480, 10924126481, 10924126482, 10924126483, 10924126484, 10924126485, 10924126486, 10924126487, 10924126488, 10924126477], "tags": {"place": "village"}}]}