{"version": 0.6, "generator": "Overpass API 0.7.62.1 084b4234", "osm3s": {"timestamp_osm_base": "2024-09-30T17:54:45Z", "copyright": "The data included in this document is from www.openstreetmap.org. The data is made available under ODbL."}, "elements": [{"type": "node", "id": 11794148782, "lat": -1.6988141, "lon": 40.5058057, "tags": {"name": "Jalish", "place": "hamlet"}}, {"type": "node", "id": 11804615774, "lat": -1.85148, "lon": 40.2269555, "tags": {"name": "Hara", "place": "hamlet"}}, {"type": "node", "id": 11804615798, "lat": -1.89282, "lon": 40.2529398, "tags": {"name": "Korisa", "place": "hamlet"}}, {"type": "node", "id": 11804615819, "lat": -1.7350295, "lon": 40.3533959, "tags": {"name": "Mail", "place": "hamlet"}}, {"type": "node", "id": 11804615844, "lat": -1.8269215, "lon": 40.26392, "tags": {"name": "Farjana", "place": "hamlet"}}, {"type": "node", "id": 11898637857, "lat": -1.6716212, "lon": 40.510171, "tags": {"name": "Bullaqoqon", "place": "hamlet"}}]}