{"version": 0.6, "generator": "Overpass API 0.7.62.1 084b4234", "osm3s": {"timestamp_osm_base": "2024-09-30T19:09:15Z", "copyright": "The data included in this document is from www.openstreetmap.org. The data is made available under ODbL."}, "elements": [{"type": "node", "id": 44915545, "lat": 0.4666, "lon": 35.0, "tags": {"name": "Sarora", "place": "village"}}, {"type": "node", "id": 44915576, "lat": 0.35, "lon": 35.05, "tags": {"created_by": "JOSM", "is_in": "Nandi,Kenya", "name": "Sang'alo", "place": "village"}}, {"type": "node", "id": 44990193, "lat": 0.4, "lon": 35.0333, "tags": {"name": "Kibebetiet", "place": "village", "wikidata": "Q6404000"}}, {"type": "node", "id": 44997886, "lat": 0.4, "lon": 35.0833, "tags": {"name": "Kapivet", "place": "village"}}, {"type": "node", "id": 44997896, "lat": 0.4, "lon": 35.0833, "tags": {"name": "Kapiyet", "place": "village"}}, {"type": "node", "id": 44998742, "lat": 0.4, "lon": 35.0833, "tags": {"name": "Kabiyet", "place": "village", "wikidata": "Q15231988"}}, {"type": "node", "id": 44998785, "lat": 0.4333, "lon": 35.1166, "tags": {"name": "Kabisaga", "place": "village", "wikidata": "Q6344257"}}, {"type": "node", "id": 44999387, "lat": 0.431221, "lon": 34.997488, "tags": {"name": "Kamamut", "place": "village", "wikidata": "Q6355793"}}, {"type": "node", "id": 45003212, "lat": 0.35, "lon": 35.1166, "tags": {"is_in": "Nandi,Kenya", "name": "Chemuswa", "place": "village", "wikidata": "Q5090686"}}, {"type": "node", "id": 45003217, "lat": 0.35, "lon": 35.1166, "tags": {"created_by": "JOSM", "is_in": "Nandi,Kenya", "name": "Chemuswo", "place": "village"}}, {"type": "node", "id": 2141307283, "lat": 0.6126428, "lon": 35.0493915, "tags": {"place": "village"}}, {"type": "node", "id": 2275401722, "lat": 0.3184601, "lon": 35.1678261, "tags": {"name": "Musoriot", "place": "village"}}, {"type": "node", "id": 3208868325, "lat": 0.523474, "lon": 34.9260253, "tags": {"name": "Kapkoros", "place": "village"}}, {"type": "node", "id": 3208868345, "lat": 0.5232391, "lon": 34.9360793, "tags": {"name": "Chepterwai", "place": "village"}}, {"type": "node", "id": 3209517079, "lat": 0.3431158, "lon": 34.9592491, "tags": {"name": "Kahwega", "place": "village"}}, {"type": "node", "id": 3210815978, "lat": 0.4106356, "lon": 34.9068344, "tags": {"name": "Mukhonje", "place": "village"}}, {"type": "node", "id": 3210815983, "lat": 0.3843533, "lon": 34.9303064, "tags": {"name": "Bulovi", "place": "village"}}, {"type": "node", "id": 3210815989, "lat": 0.3711035, "lon": 34.8862007, "tags": {"name": "Ivakale", "place": "village"}}, {"type": "node", "id": 3210816002, "lat": 0.3766394, "lon": 34.8532197, "tags": {"name": "Kambi-Mwanza", "place": "village"}}, {"type": "node", "id": 3210816010, "lat": 0.4059821, "lon": 34.8586592, "tags": {"name": "Kakoyi", "place": "village"}}, {"type": "node", "id": 3210816018, "lat": 0.3239994, "lon": 34.9304619, "tags": {"name": "Mukhonje", "place": "village"}}, {"type": "node", "id": 3210816028, "lat": 0.3926787, "lon": 34.9422905, "tags": {"name": "Ikoli", "place": "village"}}, {"type": "node", "id": 3210816033, "lat": 0.3441317, "lon": 34.922131, "tags": {"name": "Lukusi", "place": "village"}}, {"type": "node", "id": 3210816053, "lat": 0.3733673, "lon": 34.9110481, "tags": {"name": "Kambiri", "place": "village"}}, {"type": "node", "id": 5200392574, "lat": 0.4340128, "lon": 35.1091578, "tags": {"place": "village"}}, {"type": "node", "id": 6244427411, "lat": 0.6002444, "lon": 35.1534273, "tags": {"name": "Leseru", "place": "village"}}, {"type": "node", "id": 7896001325, "lat": 0.5267205, "lon": 35.2116943, "tags": {"name": "Kipkenyo", "place": "village"}}, {"type": "node", "id": 7896001326, "lat": 0.512771, "lon": 35.1722367, "tags": {"name": "Simat", "place": "hamlet"}}, {"type": "node", "id": 7896001371, "lat": 0.6036182, "lon": 35.1983988, "tags": {"name": "Maili Tisa", "place": "hamlet"}}, {"type": "node", "id": 7907309847, "lat": 0.607747, "lon": 34.9645285, "tags": {"alt_name": "Kipkaren", "name": "Kipkarren", "place": "village"}}, {"type": "node", "id": 10917816811, "lat": 0.4425351, "lon": 34.8535437, "tags": {"name": "Malava", "place": "town"}}, {"type": "node", "id": 11933681392, "lat": 0.4711195, "lon": 34.9118808, "tags": {"name": "Chemuche", "place": "village"}}, {"type": "node", "id": 11937600722, "lat": 0.6263198, "lon": 34.9148396, "tags": {"name": "Bondeni C", "place": "village"}}, {"type": "node", "id": 11937600731, "lat": 0.5897657, "lon": 34.8735817, "tags": {"name": "Vision", "place": "village"}}, {"type": "node", "id": 11937600742, "lat": 0.3607249, "lon": 34.9163694, "tags": {"name": "Shanderema", "place": "village"}}, {"type": "node", "id": 11937881116, "lat": 0.589265, "lon": 34.8734017, "tags": {"name": "Kafusi", "place": "village"}}, {"type": "node", "id": 11937881149, "lat": 0.4716414, "lon": 34.895735, "tags": {"name": "Mukhuyu", "place": "village"}}]}