{"version": 0.6, "generator": "Overpass API 0.7.62.1 084b4234", "osm3s": {"timestamp_osm_base": "2024-09-30T22:26:08Z", "copyright": "The data included in this document is from www.openstreetmap.org. The data is made available under ODbL."}, "elements": [{"type": "node", "id": 458857903, "lat": 6.4046053, "lon": 39.6989189, "tags": {"FIXME": "name? Maslo like the Airport?", "place": "town", "source": "landsat"}}, {"type": "node", "id": 1150633732, "lat": 6.4110735, "lon": 39.8500162, "tags": {"name": "Meslo", "place": "village", "source": "300TDI"}}, {"type": "node", "id": 1150890609, "lat": 6.21667, "lon": 39.76667, "tags": {"is_in:country": "Ethiopia", "is_in:country_code": "ET", "name": "Sof Omar", "place": "locality", "source": "GeoDatabase"}}, {"type": "node", "id": 1150892002, "lat": 6.41667, "lon": 39.75, "tags": {"is_in:country": "Ethiopia", "is_in:country_code": "ET", "name": "Bale", "place": "locality", "source": "GeoDatabase"}}, {"type": "node", "id": 1150892096, "lat": 6.23333, "lon": 39.78333, "tags": {"is_in:country": "Ethiopia", "is_in:country_code": "ET", "name": "Danda", "place": "locality", "source": "GeoDatabase"}}, {"type": "node", "id": 1150911483, "lat": 6.46667, "lon": 39.96667, "tags": {"is_in:country": "Ethiopia", "is_in:country_code": "ET", "name": "Calle", "place": "locality", "source": "GeoDatabase"}}, {"type": "node", "id": 1150921571, "lat": 6.41667, "lon": 39.85, "tags": {"is_in:country": "Ethiopia", "is_in:country_code": "ET", "name": "Isak Gilo", "place": "locality", "source": "GeoDatabase"}}, {"type": "node", "id": 1150921956, "lat": 6.35, "lon": 39.81666, "tags": {"is_in:country": "Ethiopia", "is_in:country_code": "ET", "name": "Yadot Shet'", "place": "locality", "source": "GeoDatabase"}}, {"type": "node", "id": 1150945719, "lat": 6.5, "lon": 40.0, "tags": {"is_in:country": "Ethiopia", "is_in:country_code": "ET", "name": "Delo Awraja", "place": "locality", "source": "GeoDatabase"}}, {"type": "node", "id": 1150973072, "lat": 6.16667, "lon": 39.75, "tags": {"is_in:country": "Ethiopia", "is_in:country_code": "ET", "name": "Angetu", "place": "locality", "source": "GeoDatabase"}}, {"type": "node", "id": 1281236043, "lat": 6.4126517, "lon": 39.8483743, "tags": {"name": "Dolomena", "place": "village"}}, {"type": "node", "id": 7331243001, "lat": 6.486858, "lon": 39.7515931, "tags": {"name": "Manyete", "note": "Manyete coffee village; Sankate Association (Wild Forest Coffee)", "place": "locality", "source": "local knowledge;aerial imagery", "website": "https://balemountains.org/plan-your-trip/activities/coffee/"}}]}