{"version": 0.6, "generator": "Overpass API 0.7.62.1 084b4234", "osm3s": {"timestamp_osm_base": "2024-10-01T00:18:45Z", "copyright": "The data included in this document is from www.openstreetmap.org. The data is made available under ODbL."}, "elements": [{"type": "node", "id": 1148990296, "lat": 7.87471, "lon": 38.0311, "tags": {"name": "Kabul", "place": "village"}}, {"type": "node", "id": 1150882381, "lat": 7.5, "lon": 37.75, "tags": {"is_in:country": "Ethiopia", "is_in:country_code": "ET", "name": "Kambata", "place": "locality", "source": "GeoDatabase"}}, {"type": "node", "id": 1150883048, "lat": 7.81667, "lon": 37.96667, "tags": {"is_in:country": "Ethiopia", "is_in:country_code": "ET", "name": "Muggo", "place": "locality", "source": "GeoDatabase"}}, {"type": "node", "id": 1150883422, "lat": 7.51667, "lon": 37.83333, "tags": {"is_in:country": "Ethiopia", "is_in:country_code": "ET", "name": "Alela Bota", "place": "locality", "source": "GeoDatabase"}}, {"type": "node", "id": 1150886329, "lat": 7.61667, "lon": 38.1, "tags": {"is_in:country": "Ethiopia", "is_in:country_code": "ET", "name": "Shashego Bota", "place": "locality", "source": "GeoDatabase"}}, {"type": "node", "id": 1150886875, "lat": 7.85, "lon": 37.83333, "tags": {"is_in:country": "Ethiopia", "is_in:country_code": "ET", "name": "Indegany", "place": "locality", "source": "GeoDatabase"}}, {"type": "node", "id": 1150887372, "lat": 7.65, "lon": 37.9, "tags": {"is_in:country": "Ethiopia", "is_in:country_code": "ET", "name": "Amairaba", "place": "locality", "source": "GeoDatabase"}}, {"type": "node", "id": 1150890420, "lat": 7.68333, "lon": 37.96667, "tags": {"is_in:country": "Ethiopia", "is_in:country_code": "ET", "name": "Lemo Bota", "place": "locality", "source": "GeoDatabase"}}, {"type": "node", "id": 1150893515, "lat": 7.61667, "lon": 37.75, "tags": {"is_in:country": "Ethiopia", "is_in:country_code": "ET", "name": "Bushana Bota", "place": "locality", "source": "GeoDatabase"}}, {"type": "node", "id": 1150898341, "lat": 7.76667, "lon": 37.78333, "tags": {"is_in:country": "Ethiopia", "is_in:country_code": "ET", "name": "Scerit", "place": "locality", "source": "GeoDatabase", "wikidata": "Q24026357"}}, {"type": "node", "id": 1150902322, "lat": 7.9, "lon": 38.06666, "tags": {"is_in:country": "Ethiopia", "is_in:country_code": "ET", "name": "Yeda'Am", "place": "locality", "source": "GeoDatabase"}}, {"type": "node", "id": 1150903232, "lat": 7.68333, "lon": 37.78333, "tags": {"is_in:country": "Ethiopia", "is_in:country_code": "ET", "name": "Konteb", "place": "locality", "source": "GeoDatabase"}}, {"type": "node", "id": 1150903368, "lat": 7.5, "lon": 38.06666, "tags": {"is_in:country": "Ethiopia", "is_in:country_code": "ET", "name": "Weyira Shet'", "place": "locality", "source": "GeoDatabase", "wikidata": "Q23961204"}}, {"type": "node", "id": 1150910141, "lat": 7.73333, "lon": 38.11667, "tags": {"is_in:country": "Ethiopia", "is_in:country_code": "ET", "name": "Kerate", "place": "locality", "source": "GeoDatabase"}}, {"type": "node", "id": 1150911473, "lat": 7.8, "lon": 37.88333, "tags": {"is_in:country": "Ethiopia", "is_in:country_code": "ET", "name": "Berche Bota", "place": "locality", "source": "GeoDatabase"}}, {"type": "node", "id": 1150919788, "lat": 7.68333, "lon": 38.01667, "tags": {"is_in:country": "Ethiopia", "is_in:country_code": "ET", "name": "Arulilcho Shet'", "place": "locality", "source": "GeoDatabase", "wikidata": "Q23962583"}}, {"type": "node", "id": 1150921558, "lat": 7.85, "lon": 37.78333, "tags": {"is_in:country": "Ethiopia", "is_in:country_code": "ET", "name": "Gobena Bota", "place": "locality", "source": "GeoDatabase"}}, {"type": "node", "id": 1150930857, "lat": 7.7, "lon": 37.81666, "tags": {"is_in:country": "Ethiopia", "is_in:country_code": "ET", "name": "Balezze", "place": "locality", "source": "GeoDatabase"}}, {"type": "node", "id": 1150940833, "lat": 7.88333, "lon": 38.11667, "tags": {"is_in:country": "Ethiopia", "is_in:country_code": "ET", "name": "Wulbareg Bota", "place": "locality", "source": "GeoDatabase"}}, {"type": "node", "id": 1150943018, "lat": 7.71667, "lon": 37.78333, "tags": {"is_in:country": "Ethiopia", "is_in:country_code": "ET", "name": "Kasha", "place": "locality", "source": "GeoDatabase"}}, {"type": "node", "id": 1150949422, "lat": 7.88333, "lon": 37.73333, "tags": {"is_in:country": "Ethiopia", "is_in:country_code": "ET", "name": "K'Ose", "place": "village", "source": "GeoDatabase"}}, {"type": "node", "id": 1150953833, "lat": 7.86667, "lon": 37.93333, "tags": {"is_in:country": "Ethiopia", "is_in:country_code": "ET", "name": "Medaccia", "place": "locality", "source": "GeoDatabase"}}, {"type": "node", "id": 1150955605, "lat": 7.5, "lon": 37.93333, "tags": {"is_in:country": "Ethiopia", "is_in:country_code": "ET", "name": "Gambatta", "place": "locality", "source": "GeoDatabase"}}, {"type": "node", "id": 1150961856, "lat": 7.5928652, "lon": 38.0687493, "tags": {"is_in:country": "Ethiopia", "is_in:country_code": "ET", "name": "Do'esha", "place": "town", "source": "GeoDatabase"}}, {"type": "node", "id": 1150963432, "lat": 7.7995377, "lon": 37.7994032, "tags": {"is_in:country": "Ethiopia", "is_in:country_code": "ET", "name": "Geja", "place": "locality", "source": "GeoDatabase"}}, {"type": "node", "id": 1150967514, "lat": 7.61667, "lon": 37.95, "tags": {"is_in:country": "Ethiopia", "is_in:country_code": "ET", "name": "Lemu", "place": "locality", "source": "GeoDatabase"}}, {"type": "node", "id": 1150972707, "lat": 7.65, "lon": 37.96667, "tags": {"is_in:country": "Ethiopia", "is_in:country_code": "ET", "name": "Fonk'O", "name:am": "\u134e\u1295\u1246", "name:en": "Fonko", "place": "village", "source": "GeoDatabase"}}, {"type": "node", "id": 1151004379, "lat": 7.71667, "lon": 37.8, "tags": {"is_in:country": "Ethiopia", "is_in:country_code": "ET", "name": "Wilo", "place": "locality", "source": "GeoDatabase"}}, {"type": "node", "id": 1235476468, "lat": 7.66556, "lon": 38.0388828, "tags": {"name": "Achamo", "place": "town"}}, {"type": "node", "id": 1235476484, "lat": 7.5887429, "lon": 37.9199863, "tags": {"name": "Belessa", "place": "town"}}, {"type": "node", "id": 1810965488, "lat": 7.697986, "lon": 37.8464672, "tags": {"name": "Tula", "place": "village", "population": "400"}}, {"type": "node", "id": 3370892491, "lat": 7.64413, "lon": 37.9231087, "tags": {"place": "village"}}, {"type": "node", "id": 4343337307, "lat": 7.5155146, "lon": 38.0915211}, {"type": "node", "id": 4343337308, "lat": 7.5145189, "lon": 38.0940973}, {"type": "node", "id": 4343337309, "lat": 7.514923, "lon": 38.0951743}, {"type": "node", "id": 4343337310, "lat": 7.5142159, "lon": 38.0956401}, {"type": "node", "id": 4343337311, "lat": 7.512542, "lon": 38.0962805}, {"type": "node", "id": 4343337312, "lat": 7.5126286, "lon": 38.0990022}, {"type": "node", "id": 4343337313, "lat": 7.5118638, "lon": 38.09973}, {"type": "node", "id": 4343337314, "lat": 7.5104786, "lon": 38.0996863}, {"type": "node", "id": 4343337315, "lat": 7.5069865, "lon": 38.0993079}, {"type": "node", "id": 4343337316, "lat": 7.503379, "lon": 38.0998173}, {"type": "node", "id": 4343337317, "lat": 7.5016474, "lon": 38.0977505}, {"type": "node", "id": 4343337318, "lat": 7.5010124, "lon": 38.0971247}, {"type": "node", "id": 4343337319, "lat": 7.5003631, "lon": 38.0965861}, {"type": "node", "id": 4343337320, "lat": 7.4995117, "lon": 38.0939954}, {"type": "node", "id": 4343337321, "lat": 7.5000168, "lon": 38.0913901}, {"type": "node", "id": 4343337322, "lat": 7.5003342, "lon": 38.0891486}, {"type": "node", "id": 4343337323, "lat": 7.5005074, "lon": 38.0868781}, {"type": "node", "id": 4343337324, "lat": 7.5014309, "lon": 38.0865433}, {"type": "node", "id": 4343337325, "lat": 7.5038263, "lon": 38.0880716}, {"type": "node", "id": 4343337326, "lat": 7.5054281, "lon": 38.0877077}, {"type": "node", "id": 4343337327, "lat": 7.507708, "lon": 38.0863832}, {"type": "node", "id": 4343337328, "lat": 7.5125709, "lon": 38.0866598}, {"type": "node", "id": 4343337329, "lat": 7.5155579, "lon": 38.0865724}, {"type": "node", "id": 4343337330, "lat": 7.5175347, "lon": 38.0870964}, {"type": "node", "id": 4343337331, "lat": 7.5182274, "lon": 38.0874457}, {"type": "node", "id": 4343337332, "lat": 7.5175347, "lon": 38.0917103}, {"type": "node", "id": 4601173879, "lat": 7.5501651, "lon": 37.8528153, "tags": {"alt_name": "Hosaena", "name": "Hossana", "name:en": "Hossana", "place": "town", "wikidata": "Q2754082", "wikipedia": "en:Hosaena"}}, {"type": "node", "id": 5044700732, "lat": 7.5987112, "lon": 38.0666398}, {"type": "node", "id": 5044700733, "lat": 7.597781, "lon": 38.0663783}, {"type": "node", "id": 5044700734, "lat": 7.5963475, "lon": 38.0664398}, {"type": "node", "id": 5044700735, "lat": 7.5948683, "lon": 38.0657783}, {"type": "node", "id": 5044700736, "lat": 7.5923978, "lon": 38.0655629}, {"type": "node", "id": 5044700737, "lat": 7.5901561, "lon": 38.0655475}, {"type": "node", "id": 5044700738, "lat": 7.5891039, "lon": 38.0655014}, {"type": "node", "id": 5044700739, "lat": 7.5880974, "lon": 38.0668552}, {"type": "node", "id": 5044700740, "lat": 7.5876704, "lon": 38.0680244}, {"type": "node", "id": 5044700741, "lat": 7.5875941, "lon": 38.0691629}, {"type": "node", "id": 5044700742, "lat": 7.5877009, "lon": 38.0700552}, {"type": "node", "id": 5044700743, "lat": 7.5880211, "lon": 38.0709475}, {"type": "node", "id": 5044700744, "lat": 7.5886311, "lon": 38.0715475}, {"type": "node", "id": 5044700745, "lat": 7.5893021, "lon": 38.0719475}, {"type": "node", "id": 5044700746, "lat": 7.5900189, "lon": 38.0722706}, {"type": "node", "id": 5044700747, "lat": 7.5907813, "lon": 38.0724706}, {"type": "node", "id": 5044700748, "lat": 7.5915438, "lon": 38.0725014}, {"type": "node", "id": 5044700749, "lat": 7.5930383, "lon": 38.071886}, {"type": "node", "id": 5044700750, "lat": 7.5942125, "lon": 38.0716245}, {"type": "node", "id": 5044700751, "lat": 7.595219, "lon": 38.0715937}, {"type": "node", "id": 5044700752, "lat": 7.5960578, "lon": 38.0714091}, {"type": "node", "id": 5044700753, "lat": 7.5984977, "lon": 38.0703629}, {"type": "node", "id": 11264661069, "lat": 7.7468318, "lon": 37.8946459, "tags": {"name": "Lera", "name:am": "Lera", "place": "town", "wikidata": "Q123052831"}}, {"type": "node", "id": 11422483652, "lat": 7.753, "lon": 37.7545421, "tags": {"capital": "Hosaena", "name": "\u121b\u12d5\u12a8\u120b\u12ca \u12a2\u1275\u12ee\u1335\u12eb \u12ad\u120d\u120b\u12ca \u1218\u1295\u130d\u1235\u1275 / Central Ethiopia Regional State", "name:am": "\u121b\u12d5\u12a8\u120b\u12ca \u12a2\u1275\u12ee\u1335\u12eb \u12ad\u120d\u120b\u12ca \u1218\u1295\u130d\u1235\u1275", "name:en": "Central Ethiopia Regional State", "name:ko": "\uc911\ubd80\uc5d0\ud2f0\uc624\ud53c\uc544\uc8fc", "place": "state", "population": "14901990", "ref": "CE", "source": "GNS;GeoDatabase", "state_code": "CE", "wikidata": "Q122415622", "wikipedia": "en:Central Ethiopia Regional State"}}, {"type": "way", "id": 436444953, "nodes": [4343337307, 4343337308, 4343337309, 4343337310, 4343337311, 4343337312, 4343337313, 4343337314, 4343337315, 4343337316, 4343337317, 4343337318, 4343337319, 4343337320, 4343337321, 4343337322, 4343337323, 4343337324, 4343337325, 4343337326, 4343337327, 4343337328, 4343337329, 4343337330, 4343337331, 4343337332, 4343337307], "tags": {"name": "Bonosha", "place": "town"}}, {"type": "way", "id": 516825030, "nodes": [5044700732, 5044700733, 5044700734, 5044700735, 5044700736, 5044700737, 5044700738, 5044700739, 5044700740, 5044700741, 5044700742, 5044700743, 5044700744, 5044700745, 5044700746, 5044700747, 5044700748, 5044700749, 5044700750, 5044700751, 5044700752, 5044700753, 5044700732], "tags": {"name": "Do'esha", "place": "town"}}]}