{"version": 0.6, "generator": "Overpass API 0.7.62.1 084b4234", "osm3s": {"timestamp_osm_base": "2024-09-30T23:46:51Z", "copyright": "The data included in this document is from www.openstreetmap.org. The data is made available under ODbL."}, "elements": [{"type": "node", "id": 1150883615, "lat": 4.25, "lon": 40.3, "tags": {"is_in:country": "Ethiopia", "is_in:country_code": "ET", "name": "Birib Ladeni", "place": "locality", "source": "GeoDatabase"}}, {"type": "node", "id": 1150887558, "lat": 4.45, "lon": 40.03333, "tags": {"is_in:country": "Ethiopia", "is_in:country_code": "ET", "name": "Gulgullo", "place": "locality", "source": "GeoDatabase"}}, {"type": "node", "id": 1150890596, "lat": 4.33333, "lon": 40.28333, "tags": {"is_in:country": "Ethiopia", "is_in:country_code": "ET", "name": "Gabdie", "place": "locality", "source": "GeoDatabase"}}, {"type": "node", "id": 1150903348, "lat": 4.2, "lon": 40.35, "tags": {"is_in:country": "Ethiopia", "is_in:country_code": "ET", "name": "Aual Ghinda", "place": "locality", "source": "GeoDatabase"}}, {"type": "node", "id": 1150912475, "lat": 4.33333, "lon": 40.15, "tags": {"is_in:country": "Ethiopia", "is_in:country_code": "ET", "name": "Uar Arguio", "place": "locality", "source": "GeoDatabase"}}, {"type": "node", "id": 1150923737, "lat": 4.1747055, "lon": 40.0240925, "tags": {"alt_name": "Ch'Elago", "country": "ET", "name": "Mubarek", "place": "village", "source": "GeoDatabase"}}, {"type": "node", "id": 1150956154, "lat": 4.36667, "lon": 40.15, "tags": {"is_in:country": "Ethiopia", "is_in:country_code": "ET", "name": "Aual Alle", "place": "locality", "source": "GeoDatabase"}}, {"type": "node", "id": 1150957786, "lat": 4.3, "lon": 40.06666, "tags": {"is_in:country": "Ethiopia", "is_in:country_code": "ET", "name": "Cocob", "place": "locality", "source": "GeoDatabase"}}, {"type": "node", "id": 1150968054, "lat": 4.36667, "lon": 40.1, "tags": {"is_in:country": "Ethiopia", "is_in:country_code": "ET", "name": "Huwun", "place": "locality", "source": "GeoDatabase"}}, {"type": "node", "id": 2083937415, "lat": 4.4436935, "lon": 39.9895691, "tags": {"place": "village"}}]}