{"version": 0.6, "generator": "Overpass API 0.7.62.1 084b4234", "osm3s": {"timestamp_osm_base": "2024-09-30T21:28:45Z", "copyright": "The data included in this document is from www.openstreetmap.org. The data is made available under ODbL."}, "elements": [{"type": "node", "id": 1150882254, "lat": 12.49333, "lon": 40.68806, "tags": {"is_in:country_code": "ET", "is_in:county": "Ethiopia", "name": "Kimire Shet'", "place": "locality", "source": "GeoDatabase"}}, {"type": "node", "id": 1150891046, "lat": 12.35861, "lon": 40.73333, "tags": {"is_in:country_code": "ET", "is_in:county": "Ethiopia", "name": "Hodale Terara", "place": "locality", "source": "GeoDatabase"}}, {"type": "node", "id": 1150892748, "lat": 12.6, "lon": 40.48333, "tags": {"name": "Halaite", "place": "locality"}}, {"type": "node", "id": 1150900232, "lat": 12.35, "lon": 40.6, "tags": {"is_in:country_code": "ET", "is_in:county": "Ethiopia", "name": "Dobbah", "place": "locality", "source": "GeoDatabase"}}, {"type": "node", "id": 1150901142, "lat": 12.52444, "lon": 40.65222, "tags": {"is_in:country_code": "ET", "is_in:county": "Ethiopia", "name": "Pianura Maabai", "place": "locality", "source": "GeoDatabase"}}, {"type": "node", "id": 1150918610, "lat": 12.52528, "lon": 40.69028, "tags": {"is_in:country_code": "ET", "is_in:county": "Ethiopia", "name": "Egreru Shet'", "place": "locality", "source": "GeoDatabase"}}, {"type": "node", "id": 1150919226, "lat": 12.58417, "lon": 40.75444, "tags": {"is_in:country_code": "ET", "is_in:county": "Ethiopia", "name": "Ada'Al Yeterara Senselet", "place": "locality", "source": "GeoDatabase"}}, {"type": "node", "id": 1150936762, "lat": 12.58333, "lon": 40.61667, "tags": {"is_in:country_code": "ET", "is_in:county": "Ethiopia", "name": "Gollena", "place": "locality", "source": "GeoDatabase"}}, {"type": "node", "id": 1150977889, "lat": 12.65, "lon": 40.4, "tags": {"is_in:country_code": "ET", "is_in:county": "Ethiopia", "name": "Bar Ali", "place": "locality", "source": "GeoDatabase"}}]}