{"version": 0.6, "generator": "Overpass API 0.7.62.1 084b4234", "osm3s": {"timestamp_osm_base": "2024-10-01T00:06:07Z", "copyright": "The data included in this document is from www.openstreetmap.org. The data is made available under ODbL."}, "elements": [{"type": "node", "id": 1150881783, "lat": 5.73333, "lon": 37.8, "tags": {"is_in:country": "Ethiopia", "is_in:country_code": "ET", "name": "Asmalo Bota", "place": "locality", "source": "GeoDatabase"}}, {"type": "node", "id": 1150885862, "lat": 5.63333, "lon": 37.6, "tags": {"is_in:country": "Ethiopia", "is_in:country_code": "ET", "name": "Cabura", "place": "locality", "source": "GeoDatabase"}}, {"type": "node", "id": 1150889212, "lat": 5.75, "lon": 37.75, "tags": {"is_in:country": "Ethiopia", "is_in:country_code": "ET", "name": "Ilfate", "place": "locality", "source": "GeoDatabase"}}, {"type": "node", "id": 1150892653, "lat": 5.68333, "lon": 37.65, "tags": {"is_in:country": "Ethiopia", "is_in:country_code": "ET", "name": "Faggi", "place": "locality", "source": "GeoDatabase"}}, {"type": "node", "id": 1150896445, "lat": 5.65, "lon": 37.55, "tags": {"is_in:country": "Ethiopia", "is_in:country_code": "ET", "name": "Gireshi", "place": "locality", "source": "GeoDatabase"}}, {"type": "node", "id": 1150918659, "lat": 5.76667, "lon": 37.55, "tags": {"is_in:country": "Ethiopia", "is_in:country_code": "ET", "name": "Dano Island", "place": "locality", "source": "GeoDatabase"}}, {"type": "node", "id": 1150926045, "lat": 5.66667, "lon": 37.8, "tags": {"is_in:country": "Ethiopia", "is_in:country_code": "ET", "name": "Shacha Bota", "place": "locality", "source": "GeoDatabase"}}, {"type": "node", "id": 1150927291, "lat": 5.66667, "lon": 37.55, "tags": {"is_in:country": "Ethiopia", "is_in:country_code": "ET", "name": "Gumaydo Bota", "place": "locality", "source": "GeoDatabase"}}, {"type": "node", "id": 1150955057, "lat": 5.63333, "lon": 37.73333, "tags": {"is_in:country": "Ethiopia", "is_in:country_code": "ET", "name": "Gayo Shet'", "place": "locality", "source": "GeoDatabase", "wikidata": "Q23962157"}}, {"type": "node", "id": 1150970481, "lat": 5.68333, "lon": 37.75, "tags": {"is_in:country": "Ethiopia", "is_in:country_code": "ET", "name": "Bonneia", "place": "locality", "source": "GeoDatabase"}}, {"type": "node", "id": 1150977703, "lat": 5.65, "lon": 37.66667, "tags": {"is_in:country": "Ethiopia", "is_in:country_code": "ET", "name": "Eduley", "place": "locality", "source": "GeoDatabase"}}, {"type": "node", "id": 9351314749, "lat": 5.6362823, "lon": 37.7833332, "tags": {"place": "village"}}]}