{"version": 0.6, "generator": "Overpass API 0.7.62.1 084b4234", "osm3s": {"timestamp_osm_base": "2024-09-30T23:40:36Z", "copyright": "The data included in this document is from www.openstreetmap.org. The data is made available under ODbL."}, "elements": [{"type": "node", "id": 1150880736, "lat": 6.39472, "lon": 43.34972, "tags": {"is_in:country": "Ethiopia", "is_in:country_code": "ET", "name": "Durualeh", "place": "locality", "source": "GeoDatabase"}}, {"type": "node", "id": 1150883857, "lat": 6.195, "lon": 43.45722, "tags": {"is_in:country": "Ethiopia", "is_in:country_code": "ET", "name": "Ghebas", "place": "locality", "source": "GeoDatabase"}}, {"type": "node", "id": 1150904031, "lat": 6.34417, "lon": 43.41583, "tags": {"is_in:country": "Ethiopia", "is_in:country_code": "ET", "name": "Turr", "place": "locality", "source": "GeoDatabase"}}, {"type": "node", "id": 1150910876, "lat": 6.09222, "lon": 43.44417, "tags": {"name": "Afdega", "place": "locality", "source": "GeoDatabase"}}, {"type": "node", "id": 1150933279, "lat": 6.2415505, "lon": 43.6022288, "tags": {"alt_name": "Borgianil", "country": "ET", "name": "Hadhawe", "place": "village", "source": "GeoDatabase"}}, {"type": "node", "id": 1150944654, "lat": 6.28806, "lon": 43.46916, "tags": {"is_in:country": "Ethiopia", "is_in:country_code": "ET", "name": "Hididelli", "place": "locality", "source": "GeoDatabase"}}, {"type": "node", "id": 1150961599, "lat": 6.40111, "lon": 43.76166, "tags": {"is_in:country_code": "ET", "is_in:county": "Ethiopia", "name": "Talcalcal", "place": "locality", "source": "GeoDatabase"}}, {"type": "node", "id": 1150975885, "lat": 6.34722, "lon": 43.6475, "tags": {"is_in:country": "Ethiopia", "is_in:country_code": "ET", "name": "Addao", "place": "locality", "source": "GeoDatabase"}}]}