{"version": 0.6, "generator": "Overpass API 0.7.62.1 084b4234", "osm3s": {"timestamp_osm_base": "2024-09-30T21:10:24Z", "copyright": "The data included in this document is from www.openstreetmap.org. The data is made available under ODbL."}, "elements": [{"type": "node", "id": 1404221355, "lat": 2.2260878, "lon": 44.6893464, "tags": {"name": "Marerawe Jilal", "pcode": "NA-3806-U27-002", "place": "hamlet", "source": "UNDP - 2006"}}, {"type": "node", "id": 1404221364, "lat": 1.98491, "lon": 44.83367, "tags": {"alt_name": "Malable", "name": "October Malable", "pcode": "NA-3810-A30-010", "place": "suburb"}}, {"type": "node", "id": 1404221368, "lat": 2.24172, "lon": 44.63873, "tags": {"name": "Dadbaa", "pcode": "NA-3806-U26-008", "place": "locality", "source": "UNDP - 2006"}}, {"type": "node", "id": 1404221391, "lat": 2.0895264, "lon": 44.9844069, "tags": {"alt_name": "Bulada Macalinka", "name": "Bulcida Macalinka", "pcode": "NA-3806-X33-001", "place": "village"}}, {"type": "node", "id": 1404221421, "lat": 2.1415633, "lon": 44.6798669, "tags": {"name": "Osman Bati", "pcode": "NA-3806-W26-006", "place": "hamlet"}}, {"type": "node", "id": 1404221529, "lat": 2.18433, "lon": 44.65022, "tags": {"name": "Mooyaanow", "pcode": "NA-3806-V26-001", "place": "hamlet", "source": "UNDP - 2006"}}, {"type": "node", "id": 1404221566, "lat": 2.3891617, "lon": 44.8288395, "tags": {"name": "Bulo Aw Mehdi", "pcode": "NA-3806-Q30-007", "place": "isolated_dwelling", "source": "UNDP - 2006", "source:ref": "UNSOA II: E044N02_12, SPOT5 image based data capture using different Ancillary Sources coming from UNSOA field mission."}}, {"type": "node", "id": 1404221601, "lat": 2.2604971, "lon": 44.7192179, "tags": {"name": "Bulo Wiin", "pcode": "NA-3806-T27-002", "place": "hamlet", "source": "UNDP - 2006"}}, {"type": "node", "id": 1404221612, "lat": 2.0283459, "lon": 44.8216513, "tags": {"name": "Galoole", "pcode": "NA-3806-Z30-005", "place": "hamlet"}}, {"type": "node", "id": 1404221744, "lat": 2.37143, "lon": 44.77158, "tags": {"name": "Ban Qiyaamo", "pcode": "NA-3806-R28-007", "place": "village", "source": "UNDP - 2006"}}, {"type": "node", "id": 1404221786, "lat": 2.33527, "lon": 44.81793, "tags": {"name": "Doon Aymaleyka", "pcode": "NA-3806-R29-001", "place": "village", "source": "UNDP - 2006"}}, {"type": "node", "id": 1404221835, "lat": 2.3702, "lon": 44.76417, "tags": {"name": "Galoole", "pcode": "NA-3806-R28-006", "place": "locality", "source": "UNDP - 2006"}}, {"type": "node", "id": 1404221856, "lat": 2.34578, "lon": 44.826488, "tags": {"name": "Halluuq", "pcode": "NA-3806-R30-001", "place": "isolated_dwelling", "source": "UNDP - 1997"}}, {"type": "node", "id": 1404221903, "lat": 2.02257, "lon": 44.822, "tags": {"name": "Gumeysi Diid", "pcode": "NA-3806-Z30-003", "place": "locality"}}, {"type": "node", "id": 1404221922, "lat": 2.40559, "lon": 44.82563, "tags": {"alt_name": "Adeyley; Atheyley", "name": "Aw Bitte", "pcode": "NA-3806-Q30-012", "place": "hamlet", "source": "UNDP - 2006", "source:ref": "UNSOA II: E044N02_12, SPOT5 image based data capture using different Ancillary Sources coming from UNSOA field mission."}}, {"type": "node", "id": 1404221944, "lat": 2.34989, "lon": 44.880051, "tags": {"alt_name": "Buuzow", "name": "Buuxow", "pcode": "NA-3806-R31-001", "place": "locality", "source": "UNDP - 1997", "source:ref": "UNSOA II: E044N02_12, SPOT5 image based data capture using different Ancillary Sources coming from UNSOA field mission."}}, {"type": "node", "id": 1404222014, "lat": 1.9769603, "lon": 44.8310272, "tags": {"alt_name": "A. Dheglle;Awdheegle;Awdhiigle;Awdiigle;Owdheegle;Awdhegle", "name": "Aw Dheegle", "pcode": "NA-3810-A30-008", "place": "town"}}, {"type": "node", "id": 1404222019, "lat": 2.1509195, "lon": 44.875342, "tags": {"name": "Garsaale-Raylaawe", "pcode": "NA-3806-W31-002", "place": "hamlet"}}, {"type": "node", "id": 1404222074, "lat": 2.3028278, "lon": 44.6832483, "tags": {"name": "Bulo Jadiid Iii", "pcode": "NA-3806-S27-002", "place": "hamlet", "source": "UNDP - 2006"}}, {"type": "node", "id": 1404222101, "lat": 2.2809738, "lon": 44.717191, "tags": {"name": "Biyoley Wiin", "pcode": "NA-3806-T27-007", "place": "village", "source": "UNDP - 2006"}}, {"type": "node", "id": 1404222255, "lat": 2.0979065, "lon": 44.7103233, "tags": {"name": "Ibrahim Cali Meyrre", "pcode": "NA-3806-X27-001", "place": "isolated_dwelling"}}, {"type": "node", "id": 1404222307, "lat": 2.3911809, "lon": 44.8169549, "tags": {"name": "Kootin", "pcode": "NA-3806-Q29-004", "place": "hamlet", "source": "UNDP - 2006, UNDP - 1997", "source:ref": "UNSOA II: E044N02_12, SPOT5 image based data capture using different Ancillary Sources coming from UNSOA field mission."}}, {"type": "node", "id": 1404222643, "lat": 2.1174762, "lon": 44.6162901, "tags": {"alt_name": "Bulo Alio Abdi Rahman", "name": "Bulo Alio Abdirahman", "pcode": "NA-3806-X25-002", "place": "hamlet", "source": "UNDP - 2006"}}, {"type": "node", "id": 1404222906, "lat": 2.3840436, "lon": 44.8237951, "tags": {"name": "Biti", "pcode": "NA-3806-Q30-004", "place": "hamlet", "source": "UNDP - 2006"}}, {"type": "node", "id": 1404222914, "lat": 2.1590705, "lon": 44.9283174, "tags": {"name": "Bulo Maadow", "pcode": "NA-3806-W32-004", "place": "hamlet"}}, {"type": "node", "id": 1404222977, "lat": 2.2004009, "lon": 44.6944478, "tags": {"name": "Mallaay Kaale", "pcode": "NA-3806-V27-003", "place": "hamlet", "source": "UNDP - 2006"}}, {"type": "node", "id": 1404223003, "lat": 2.20538, "lon": 44.61438, "tags": {"name": "Bulo Abdiyow", "pcode": "NA-3806-V25-008", "place": "hamlet", "source": "UNDP - 2006"}}, {"type": "node", "id": 1404223037, "lat": 2.19465, "lon": 44.67389, "tags": {"name": "Cambarow", "pcode": "NA-3806-V26-004", "place": "hamlet", "source": "UNDP - 2006, UNDP - 1997"}}, {"type": "node", "id": 1404223048, "lat": 2.169388, "lon": 44.9535963, "tags": {"name": "Bulo Raliya", "pcode": "NA-3806-V32-001", "place": "isolated_dwelling"}}, {"type": "node", "id": 1404223116, "lat": 2.1310104, "lon": 44.9786213, "tags": {"name": "Beled Amin Kalaan", "pcode": "NA-3806-W33-002", "place": "hamlet"}}, {"type": "node", "id": 1404223164, "lat": 1.97793, "lon": 44.83234, "tags": {"name": "Waberi", "pcode": "NA-3810-A30-006", "place": "suburb"}}, {"type": "node", "id": 1404223165, "lat": 2.1227164, "lon": 44.652301, "tags": {"alt_name": "Buulo Bil Alle", "name": "Bulo Bil Alle", "pcode": "NA-3806-W26-001", "place": "hamlet", "source": "UNDP - 2006"}}, {"type": "node", "id": 1404223254, "lat": 2.14053, "lon": 44.67456, "tags": {"name": "Kayaxley", "pcode": "NA-3806-W26-005", "place": "hamlet"}}, {"type": "node", "id": 1404223275, "lat": 2.2433025, "lon": 44.8288751, "tags": {"alt_name": "Baxarka", "name": "Baharka", "pcode": "NA-3806-U30-003", "place": "village"}}, {"type": "node", "id": 1404223343, "lat": 2.2288481, "lon": 44.9144235, "tags": {"name": "Bulo Aw Khalit Ambulo", "pcode": "NA-3806-U32-002", "place": "hamlet"}}, {"type": "node", "id": 1404223435, "lat": 2.1240767, "lon": 44.6700265, "tags": {"name": "Gala Mataqaan", "pcode": "NA-3806-W26-002", "place": "hamlet"}}, {"type": "node", "id": 1404223472, "lat": 2.1989051, "lon": 44.8643082, "tags": {"name": "Ay-Agaay", "pcode": "NA-3806-V31-001", "place": "hamlet"}}, {"type": "node", "id": 1404223681, "lat": 2.1927384, "lon": 44.6859923, "tags": {"name": "Bulo Balley 1", "pcode": "NA-3806-V27-001", "place": "hamlet", "source": "UNDP - 2006"}}, {"type": "node", "id": 1404223749, "lat": 2.1847, "lon": 44.68121, "tags": {"name": "Raas Warabe", "pcode": "NA-3806-V26-002", "place": "hamlet", "source": "UNDP - 2006"}}, {"type": "node", "id": 1404223759, "lat": 2.2461412, "lon": 44.802155, "tags": {"name": "Ibrahim Madkeey", "pcode": "NA-3806-U29-002", "place": "village"}}, {"type": "node", "id": 1404223791, "lat": 2.37896, "lon": 44.835579, "tags": {"name": "Cabdi Kariim", "pcode": "NA-3806-Q30-003", "place": "locality", "source": "UNDP - 1997"}}, {"type": "node", "id": 1404223827, "lat": 2.2335453, "lon": 44.8805955, "tags": {"alt_name": "Jameco Ceelo Wiin", "name": "Jameelo Wiin", "pcode": "NA-3806-U31-002", "place": "hamlet"}}, {"type": "node", "id": 1404223949, "lat": 2.1513967, "lon": 44.9871328, "tags": {"name": "Nur Diisow", "pcode": "NA-3806-W33-005", "place": "village"}}, {"type": "node", "id": 1404223976, "lat": 2.0679203, "lon": 44.9133637, "tags": {"alt_name": "Bacaw", "name": "Baloow", "pcode": "NA-3806-Y32-002", "place": "village"}}, {"type": "node", "id": 1404223997, "lat": 1.98415, "lon": 44.83319, "tags": {"alt_name": "Wadag Malable", "name": "Wadajir Malable", "pcode": "NA-3810-A30-009", "place": "suburb"}}, {"type": "node", "id": 1404224009, "lat": 2.11698, "lon": 44.95887, "tags": {"name": "\u062f\u0627\u0631 \u0627\u0644\u0633\u0644\u0627\u0645 Darusalaam", "name:ar": "\u062f\u0627\u0631 \u0627\u0644\u0633\u0644\u0627\u0645", "name:en": "Darusalaam", "name:fr": "Darusalaam", "pcode": "NA-3806-X33-004", "place": "hamlet"}}, {"type": "node", "id": 1404224017, "lat": 2.08589, "lon": 44.58641, "tags": {"alt_name": "Gudaaley", "name": "Gurdaaley", "pcode": "NA-3806-X24-001", "place": "hamlet", "source": "UNDP - 2006"}}, {"type": "node", "id": 1404224179, "lat": 2.28715, "lon": 44.73133, "tags": {"name": "Dharuuro", "pcode": "NA-3806-T28-003", "place": "village", "source": "UNDP - 2006"}}, {"type": "node", "id": 1404224212, "lat": 2.1299064, "lon": 44.8981664, "tags": {"name": "Buulo Weyn", "pcode": "NA-3806-W31-001", "place": "hamlet"}}, {"type": "node", "id": 1404224308, "lat": 2.15094, "lon": 44.69895, "tags": {"name": "Ali Omorow", "pcode": "NA-3806-W27-002", "place": "isolated_dwelling"}}, {"type": "node", "id": 1404224334, "lat": 2.122094, "lon": 44.642542, "tags": {"name": "Dheryooley", "pcode": "NA-3806-X26-002", "place": "hamlet", "source": "UNDP - 2006"}}, {"type": "node", "id": 1404224369, "lat": 2.2349988, "lon": 44.7134541, "tags": {"name": "Iidow", "pcode": "NA-3806-U27-004", "place": "hamlet", "source": "UNDP - 1997"}}, {"type": "node", "id": 1404224370, "lat": 2.3702, "lon": 44.75503, "tags": {"name": "Gay Dhiigaale", "pcode": "NA-3806-R28-005", "place": "village", "source": "UNDP - 2006"}}, {"type": "node", "id": 1404224378, "lat": 2.1081113, "lon": 44.9454201, "tags": {"name": "Bulo Bashiir", "pcode": "NA-3806-X32-001", "place": "hamlet"}}, {"type": "node", "id": 1404224556, "lat": 2.0447604, "lon": 44.9002945, "tags": {"alt_name": "Raaxoole", "name": "Rahole", "pcode": "NA-3806-Y31-001", "place": "village"}}, {"type": "node", "id": 1404224657, "lat": 2.14556, "lon": 44.71091, "tags": {"name": "Garas Shaare", "pcode": "NA-3806-W27-001", "place": "locality"}}, {"type": "node", "id": 1404224689, "lat": 2.19446, "lon": 44.688671, "tags": {"name": "Basaqley", "pcode": "NA-3806-V27-002", "place": "locality", "source": "UNDP - 1997"}}, {"type": "node", "id": 1404224735, "lat": 2.3777198, "lon": 44.83502, "tags": {"alt_name": "Raamo Kuusta", "name": "Cabdi Karlim", "pcode": "NA-3806-Q30-002", "place": "hamlet", "source": "UNDP - 2006", "source:ref": "UNSOA II: E044N02_12, SPOT5 image based data capture using different Ancillary Sources coming from UNSOA field mission."}}, {"type": "node", "id": 1404224745, "lat": 2.0576568, "lon": 44.8249025, "tags": {"alt_name": "Caanoole", "name": "Caanooley", "pcode": "NA-3806-Y30-003", "place": "hamlet"}}, {"type": "node", "id": 1404224770, "lat": 2.2211326, "lon": 44.637201, "tags": {"name": "Riigley", "pcode": "NA-3806-U26-001", "place": "hamlet", "source": "UNDP - 2006"}}, {"type": "node", "id": 1404224779, "lat": 2.13167, "lon": 44.64926, "tags": {"name": "Eeribley", "pcode": "NA-3806-W26-003", "place": "locality", "source": "UNDP - 2006"}}, {"type": "node", "id": 1404224808, "lat": 2.23021, "lon": 44.6642, "tags": {"name": "Mareerey Wiin", "pcode": "NA-3806-U26-003", "place": "locality", "source": "UNDP - 2006"}}, {"type": "node", "id": 1404224839, "lat": 2.21088, "lon": 44.73137, "tags": {"name": "Erileey", "pcode": "NA-3806-U28-001", "place": "hamlet", "source": "UNDP - 2006"}}, {"type": "node", "id": 1404224863, "lat": 2.284105, "lon": 44.7224529, "tags": {"name": "Garas Jiimo", "pcode": "NA-3806-T27-008", "place": "village", "source": "UNDP - 2006"}}, {"type": "node", "id": 1404224871, "lat": 2.1676513, "lon": 44.7735805, "tags": {"name": "Aw-Hayle", "pcode": "NA-3806-V29-003", "place": "hamlet"}}, {"type": "node", "id": 1404224923, "lat": 2.23369, "lon": 44.6442832, "tags": {"name": "Marrerrey", "pcode": "NA-3806-U26-007", "place": "hamlet", "source": "UNDP - 1997"}}, {"type": "node", "id": 1404225012, "lat": 2.0486, "lon": 44.819401, "tags": {"name": "Bulo Galole", "pcode": "NA-3806-Y30-001", "place": "locality"}}, {"type": "node", "id": 1404225052, "lat": 2.3235547, "lon": 44.7123968, "tags": {"name": "Qalaaliyow", "pcode": "NA-3806-S27-008", "place": "village", "source": "UNDP - 2006"}}, {"type": "node", "id": 1404225079, "lat": 2.32782, "lon": 44.67744, "tags": {"name": "Bulo Aqabo", "pcode": "NA-3806-S26-001", "place": "hamlet", "source": "UNDP - 2006"}}, {"type": "node", "id": 1404225170, "lat": 2.3881279, "lon": 44.8064303, "tags": {"name": "Oodlaawe", "pcode": "NA-3806-Q29-002", "place": "hamlet", "source": "UNDP - 2006", "source:ref": "UNSOA II: E044N02_12, SPOT5 image based data capture using different Ancillary Sources coming from UNSOA field mission."}}, {"type": "node", "id": 1404225172, "lat": 1.97583, "lon": 44.83237, "tags": {"alt_name": "Canole", "name": "Caanoole", "pcode": "NA-3810-A30-004", "place": "suburb"}}, {"type": "node", "id": 1404225206, "lat": 2.3871331, "lon": 44.8099996, "tags": {"name": "Ay Habey", "pcode": "NA-3806-Q29-001", "place": "hamlet", "source": "UNDP - 2006", "source:ref": "UNSOA II: E044N02_12, SPOT5 image based data capture using different Ancillary Sources coming from UNSOA field mission."}}, {"type": "node", "id": 1404225232, "lat": 2.3199394, "lon": 44.6930229, "tags": {"name": "Bulo Durey", "pcode": "NA-3806-S27-007", "place": "hamlet", "source": "UNSOA V: SPOT6 image based data capture using different Ancillary Sources coming from UNSOA field mission", "source:date": "2014-02-17"}}, {"type": "node", "id": 1404225280, "lat": 2.1207, "lon": 44.6584, "tags": {"name": "Mataasha", "pcode": "NA-3806-X26-003", "place": "hamlet", "source": "UNDP - 2006"}}, {"type": "node", "id": 1404225292, "lat": 2.1366573, "lon": 44.9793226, "tags": {"name": "Bulo Kulan", "pcode": "NA-3806-W33-003", "place": "village"}}, {"type": "node", "id": 1404225327, "lat": 2.3682228, "lon": 44.7251114, "tags": {"name": "Qayley", "pcode": "NA-3806-R27-005", "place": "village", "source": "UNDP - 2014-02-17"}}, {"type": "node", "id": 1404225433, "lat": 2.20035, "lon": 44.60219, "tags": {"alt_name": "Miis Karoon", "name": "Mi' Iskaroon", "pcode": "NA-3806-V25-006", "place": "hamlet", "source": "UNDP - 2006"}}, {"type": "node", "id": 1404225445, "lat": 2.028432, "lon": 44.8595783, "tags": {"name": "Bulo-Yaqle", "pcode": "NA-3806-Z30-006", "place": "village"}}, {"type": "node", "id": 1404225536, "lat": 2.211134, "lon": 44.8923005, "tags": {"name": "Awjeele", "pcode": "NA-3806-U31-001", "place": "village"}}, {"type": "node", "id": 1404225562, "lat": 2.2370058, "lon": 44.8857516, "tags": {"alt_name": "Buulo Jadiid", "name": "Bulo Jadiid", "pcode": "NA-3806-U31-004", "place": "hamlet"}}, {"type": "node", "id": 1404225639, "lat": 2.01419, "lon": 44.888191, "tags": {"name": "Kombareere", "pcode": "NA-3806-Z31-001", "place": "locality"}}, {"type": "node", "id": 1404225658, "lat": 2.38593, "lon": 44.84386, "tags": {"alt_name": "Towftiq", "name": "Towfiiq", "pcode": "NA-3806-Q30-005", "place": "hamlet", "source": "UNDP - 2006", "source:ref": "UNSOA II: E044N02_12, SPOT5 image based data capture using different Ancillary Sources coming from UNSOA field mission."}}, {"type": "node", "id": 1404225678, "lat": 1.9836267, "lon": 44.9880837, "tags": {"name": "Afgoi", "pcode": "NA-3810-A33-003", "place": "town"}}, {"type": "node", "id": 1404225690, "lat": 2.25476, "lon": 44.91029, "tags": {"name": "Bulo Aw Abdi Kuus", "pcode": "NA-3806-T32-003", "place": "locality", "source": "UNDP - 2006"}}, {"type": "node", "id": 1404225735, "lat": 2.0513779, "lon": 44.8527617, "tags": {"alt_name": "Raqayle", "name": "Reydabley", "pcode": "NA-3806-Y30-002", "place": "village"}}, {"type": "node", "id": 1404225817, "lat": 2.1174, "lon": 44.928699, "tags": {"name": "Iumbis Garre", "pcode": "NA-3806-X32-003", "place": "locality"}}, {"type": "node", "id": 1404225823, "lat": 2.1647549, "lon": 44.7805373, "tags": {"name": "Habarway", "pcode": "NA-3806-W29-001", "place": "village"}}, {"type": "node", "id": 1404225835, "lat": 2.02967, "lon": 44.5893, "tags": {"name": "Bisiqley", "pcode": "NA-3806-Z24-009", "place": "hamlet", "source": "UNDP - 2006"}}, {"type": "node", "id": 1404225843, "lat": 2.1939427, "lon": 44.5969112, "tags": {"alt_name": "Bulo Fiiley", "name": "Bulo Filey", "pcode": "NA-3806-V25-004", "place": "hamlet", "source": "UNDP - 2006"}}, {"type": "node", "id": 1404225864, "lat": 2.11889, "lon": 44.60475, "tags": {"alt_name": "Iskataf (Jilin Jilin)", "name": "Iskataf(Jilnjiln)", "pcode": "NA-3806-X25-003", "place": "hamlet", "source": "UNDP - 2006"}}, {"type": "node", "id": 1404225955, "lat": 2.3005348, "lon": 44.8198843, "tags": {"name": "Dharuurada", "pcode": "NA-3806-S30-001", "place": "locality", "source": "UNDP - 1997", "source:ref": "UNSOA II: E044N02_12, SPOT5 image based data capture using different Ancillary Sources coming from UNSOA field mission."}}, {"type": "node", "id": 1404225963, "lat": 2.24255, "lon": 44.87021, "tags": {"alt_name": "Buulo Cajuuso", "name": "Bulo Ajuso", "pcode": "NA-3806-U31-006", "place": "hamlet"}}, {"type": "node", "id": 1404226001, "lat": 2.3058221, "lon": 44.7074845, "tags": {"name": "Gumurey Dugsiga", "pcode": "NA-3806-S27-004", "place": "hamlet", "source": "UNDP - 2006"}}, {"type": "node", "id": 1404226205, "lat": 2.28194, "lon": 44.72801, "tags": {"name": "Bulo Jadiid 2", "pcode": "NA-3806-T28-002", "place": "hamlet", "source": "UNDP - 2006"}}, {"type": "node", "id": 1404226268, "lat": 2.2777358, "lon": 44.7188395, "tags": {"name": "Biyooley", "pcode": "NA-3806-T27-005", "place": "hamlet", "source": "UNDP - 2006"}}, {"type": "node", "id": 1404226294, "lat": 2.3569949, "lon": 44.7128899, "tags": {"name": "Soomow", "pcode": "NA-3806-R27-004", "place": "village", "source": "UNDP - 2006"}}, {"type": "node", "id": 1404226341, "lat": 2.3148773, "lon": 44.6958159, "tags": {"name": "Abdulle-Gubane", "pcode": "NA-3806-S27-006", "place": "village", "source": "UNDP - 2006"}}, {"type": "node", "id": 1404226345, "lat": 2.0743462, "lon": 44.9470562, "tags": {"name": "Sabriye", "pcode": "NA-3806-Y32-003", "place": "village"}}, {"type": "node", "id": 1404226351, "lat": 2.36917, "lon": 44.75404, "tags": {"name": "Galool Guushan", "pcode": "NA-3806-R28-003", "place": "village", "source": "UNDP - 1997"}}, {"type": "node", "id": 1404226358, "lat": 2.0787242, "lon": 44.9111319, "tags": {"alt_name": "Nuunnaay", "name": "Nuunaay", "pcode": "NA-3806-Y32-004", "place": "village"}}, {"type": "node", "id": 1404226397, "lat": 2.152295, "lon": 44.9795334, "tags": {"alt_name": "Bulo Ceelale", "name": "Bulo Yelale", "pcode": "NA-3806-W33-006", "place": "village"}}, {"type": "node", "id": 1404226548, "lat": 2.2354436, "lon": 44.8878665, "tags": {"name": "Bur Fuule", "pcode": "NA-3806-U31-003", "place": "hamlet"}}, {"type": "node", "id": 1404226681, "lat": 2.33743, "lon": 44.69637, "tags": {"name": "Bulo Qataar", "pcode": "NA-3806-R27-001", "place": "village", "source": "UNDP - 2006"}}, {"type": "node", "id": 1404226768, "lat": 2.1190052, "lon": 44.6335607, "tags": {"name": "Tugar Dheer", "pcode": "NA-3806-X25-004", "place": "hamlet", "source": "UNDP - 2006"}}, {"type": "node", "id": 1404226810, "lat": 2.3704972, "lon": 44.7370233, "tags": {"name": "Yaroow Faallow", "pcode": "NA-3806-R28-002", "place": "village", "source": "UNDP - 2006"}}, {"type": "node", "id": 1404226831, "lat": 2.0667471, "lon": 44.9370642, "tags": {"name": "Bannaanka Balow", "pcode": "NA-3806-Y32-001", "place": "isolated_dwelling"}}, {"type": "node", "id": 1404226870, "lat": 2.18935, "lon": 44.64027, "tags": {"name": "Buulo Gulshe", "pcode": "NA-3806-V26-003", "place": "hamlet", "source": "UNDP - 2006"}}, {"type": "node", "id": 1404226878, "lat": 2.3692957, "lon": 44.728681, "tags": {"name": "Cabdi Bule", "pcode": "NA-3806-R28-001", "place": "village", "source": "UNDP - 2006"}}, {"type": "node", "id": 1404226891, "lat": 1.9744889, "lon": 44.8332213, "tags": {"name": "Horsed", "pcode": "NA-3810-A30-003", "place": "suburb"}}, {"type": "node", "id": 1404227028, "lat": 2.11613, "lon": 44.6615, "tags": {"name": "Bulo Keyni", "pcode": "NA-3806-X26-001", "place": "hamlet"}}, {"type": "node", "id": 1404227188, "lat": 2.25665, "lon": 44.63421, "tags": {"name": "Buulo Hassanow Mad", "pcode": "NA-3806-T25-001", "place": "village", "source": "UNDP - 2006"}}, {"type": "node", "id": 1404227195, "lat": 2.0141, "lon": 44.58822, "tags": {"name": "Baciidley", "pcode": "NA-3806-Z24-005", "place": "hamlet", "source": "UNDP - 2006"}}, {"type": "node", "id": 1404227213, "lat": 2.3012, "lon": 44.850369, "tags": {"name": "Cabdiile Buur Fuule", "pcode": "NA-3806-S30-002", "place": "isolated_dwelling", "source": "UNDP - 1997"}}, {"type": "node", "id": 1404227561, "lat": 2.280203, "lon": 44.7041982, "tags": {"name": "Faarax", "pcode": "NA-3806-T27-006", "place": "hamlet", "source": "UNDP - 1997"}}, {"type": "node", "id": 1404227661, "lat": 2.2001547, "lon": 44.6780326, "tags": {"name": "Bulo Awkusow", "pcode": "NA-3806-V26-005", "place": "hamlet", "source": "UNDP - 2006"}}, {"type": "node", "id": 1404227694, "lat": 2.36733, "lon": 44.80632, "tags": {"alt_name": "Raama Boorto", "name": "Raamo Boorta", "pcode": "NA-3806-R29-005", "place": "hamlet", "source": "UNDP - 2006, UNDP - 1997", "source:ref": "UNSOA II: E044N02_12, SPOT5 image based data capture using different Ancillary Sources coming from UNSOA field mission."}}, {"type": "node", "id": 1404227743, "lat": 2.28907, "lon": 44.69334, "tags": {"name": "Joefley", "pcode": "NA-3806-T27-009", "place": "hamlet", "source": "UNDP - 1997"}}, {"type": "node", "id": 1404228139, "lat": 2.19335, "lon": 44.63362, "tags": {"name": "Buulo Jadiid 1", "pcode": "NA-3806-V25-003", "place": "hamlet", "source": "UNDP - 2006"}}, {"type": "node", "id": 1404228442, "lat": 2.1304757, "lon": 44.9745885, "tags": {"name": "Bulo Aw Edin Nurow", "pcode": "NA-3806-W33-001", "place": "village"}}, {"type": "node", "id": 1404228481, "lat": 2.1238, "lon": 44.62886, "tags": {"name": "Haranka", "pcode": "NA-3806-X25-006", "place": "hamlet", "source": "UNDP - 2006"}}, {"type": "node", "id": 1404228528, "lat": 2.2334324, "lon": 44.6763314, "tags": {"name": "Qanyar Baroore", "pcode": "NA-3806-U26-006", "place": "isolated_dwelling", "source": "UNDP - 2006"}}, {"type": "node", "id": 1404228877, "lat": 2.27707, "lon": 44.69394, "tags": {"name": "Bulo Fullayley 2", "pcode": "NA-3806-T27-004", "place": "village", "source": "UNDP - 2006"}}, {"type": "node", "id": 1404229045, "lat": 2.1596386, "lon": 44.9394399, "tags": {"alt_name": "Buulo Maxamed Dheere", "name": "Bulo Moh'Ed Dhere", "pcode": "NA-3806-W32-003", "place": "village"}}, {"type": "node", "id": 1404229192, "lat": 2.02068, "lon": 44.8312, "tags": {"name": "Kaysaney", "pcode": "NA-3806-Z30-002", "place": "locality"}}, {"type": "node", "id": 1404229215, "lat": 2.243886, "lon": 44.9323483, "tags": {"name": "Bulo Adan Dhakadow", "pcode": "NA-3806-U32-003", "place": "hamlet"}}, {"type": "node", "id": 1404229311, "lat": 2.2187931, "lon": 44.9097883, "tags": {"name": "Bulo Rer Aw Maganey", "pcode": "NA-3806-U32-001", "place": "hamlet"}}, {"type": "node", "id": 1404229761, "lat": 2.1841, "lon": 44.623, "tags": {"alt_name": "Cali Goble", "name": "Cali Guble", "pcode": "NA-3806-V25-002", "place": "hamlet", "source": "UNDP - 2006, UNDP - 1997"}}, {"type": "node", "id": 1404229767, "lat": 2.402, "lon": 44.768, "tags": {"alt_name": "Iidow", "name": "Bulo Iidow", "pcode": "NA-3806-Q28-001", "place": "locality", "source": "UNDP - 2006, UNDP - 1997"}}, {"type": "node", "id": 1404229852, "lat": 2.22362, "lon": 44.68063, "tags": {"name": "Xaaji Mad", "pcode": "NA-3806-U26-002", "place": "hamlet", "source": "UNDP - 1997"}}, {"type": "node", "id": 1404229929, "lat": 2.1207315, "lon": 44.9797669, "tags": {"name": "Balad-Aamin", "pcode": "NA-3806-X33-006", "place": "village"}}, {"type": "node", "id": 1404230047, "lat": 2.2386902, "lon": 44.8065802, "tags": {"name": "Bulo Hagi Ali Kulow", "pcode": "NA-3806-U29-001", "place": "village"}}, {"type": "node", "id": 1404230107, "lat": 2.2481796, "lon": 44.6345281, "tags": {"name": "Bulo Moh'Ed Edin Dhere", "pcode": "NA-3806-U25-001", "place": "hamlet", "source": "UNDP - 2006"}}, {"type": "node", "id": 1404230202, "lat": 2.3045423, "lon": 44.7128547, "tags": {"name": "Qoboy Qoboy", "pcode": "NA-3806-S27-003", "place": "village", "source": "UNDP - 2006"}}, {"type": "node", "id": 1404230218, "lat": 2.33796, "lon": 44.8144, "tags": {"name": "Dharabo", "pcode": "NA-3806-R29-002", "place": "village", "source": "UNDP - 1997"}}, {"type": "node", "id": 1404230226, "lat": 2.13753, "lon": 44.62742, "tags": {"alt_name": "Buulo Basaq", "name": "Bulo Basaq", "pcode": "NA-3806-W25-001", "place": "hamlet", "source": "UNDP - 2006"}}, {"type": "node", "id": 1404230261, "lat": 2.2222842, "lon": 44.729275, "tags": {"name": "War Qaboobe", "pcode": "NA-3806-U28-002", "place": "isolated_dwelling", "source": "UNDP - 2006"}}, {"type": "node", "id": 1404230292, "lat": 2.0475618, "lon": 44.8976546, "tags": {"alt_name": "Bartire", "name": "Bariire", "pcode": "NA-3806-Y31-002", "place": "village"}}, {"type": "node", "id": 1404230449, "lat": 2.2457145, "lon": 44.6561396, "tags": {"name": "Red'Iibah", "pcode": "NA-3806-U26-009", "place": "hamlet", "source": "UNDP - 2006"}}, {"type": "node", "id": 1404230513, "lat": 2.2404814, "lon": 44.8598535, "tags": {"name": "Dhista", "pcode": "NA-3806-U30-002", "place": "hamlet"}}, {"type": "node", "id": 1404230640, "lat": 2.39472, "lon": 44.79688, "tags": {"name": "Aliyow Baarow", "pcode": "NA-3806-Q29-006", "place": "village", "source": "UNDP - 2006"}}, {"type": "node", "id": 1404230763, "lat": 2.0995, "lon": 44.818699, "tags": {"name": "Bulo Iach Dolet", "pcode": "NA-3806-X30-001", "place": "locality"}}, {"type": "node", "id": 1404230794, "lat": 2.1999437, "lon": 44.7624792, "tags": {"name": "Mooro Kubaar", "pcode": "NA-3806-V28-002", "place": "hamlet"}}, {"type": "node", "id": 1404230798, "lat": 2.25045, "lon": 44.69117, "tags": {"alt_name": "Tortoroow;Toratorow", "name": "Tortoorow", "pcode": "NA-3806-T27-001", "place": "village", "source": "UNDP - 2006, UNDP - 1997"}}, {"type": "node", "id": 1404230907, "lat": 2.35222, "lon": 44.80423, "tags": {"name": "Maana Nuurto", "pcode": "NA-3806-R29-004", "place": "locality", "source": "UNDP - 2006"}}, {"type": "node", "id": 1404230923, "lat": 1.97838, "lon": 44.82925, "tags": {"name": "Bulo Shitq", "pcode": "NA-3810-A30-007", "place": "suburb"}}, {"type": "node", "id": 1404230936, "lat": 2.1129905, "lon": 44.930079, "tags": {"name": "Yumbis", "pcode": "NA-3806-X32-002", "place": "village"}}, {"type": "node", "id": 1404230977, "lat": 2.3471442, "lon": 44.7055168, "tags": {"name": "Carro Tuur", "pcode": "NA-3806-R27-002", "place": "village", "source": "UNDP - 2006"}}, {"type": "node", "id": 1404231047, "lat": 2.12172, "lon": 44.61572, "tags": {"alt_name": "Toosan", "name": "Toosan", "pcode": "NA-3806-X25-005", "place": "hamlet", "source": "UNDP - 2006"}}, {"type": "node", "id": 1404231077, "lat": 2.3681582, "lon": 44.7980812, "tags": {"name": "Awsheeq Madyarow", "pcode": "NA-3806-R29-006", "place": "hamlet", "source": "UNDP - 2006", "source:ref": "UNSOA II: E044N02_12, SPOT5 image based data capture using different Ancillary Sources coming from UNSOA field mission."}}, {"type": "node", "id": 1404231079, "lat": 2.1390647, "lon": 44.6335653, "tags": {"name": "Qaydheer", "pcode": "NA-3806-W25-002", "place": "hamlet", "source": "UNDP - 2006"}}, {"type": "node", "id": 1404231212, "lat": 2.1845641, "lon": 44.7587662, "tags": {"name": "Deg Ali Dhaay", "pcode": "NA-3806-V28-001", "place": "village"}}, {"type": "node", "id": 1404231256, "lat": 2.2319969, "lon": 44.6611513, "tags": {"name": "Marerey Gaabta", "pcode": "NA-3806-U26-004", "place": "hamlet", "source": "UNDP - 2006"}}, {"type": "node", "id": 1404231267, "lat": 2.10263, "lon": 44.60889, "tags": {"name": "Warabe Dilow", "pcode": "NA-3806-X25-001", "place": "isolated_dwelling", "source": "UNDP - 2006"}}, {"type": "node", "id": 1404231284, "lat": 2.027059, "lon": 44.858328, "tags": {"name": "Shaan", "pcode": "NA-3806-Z30-004", "place": "locality"}}, {"type": "node", "id": 1404231286, "lat": 2.2428268, "lon": 44.8975609, "tags": {"alt_name": "Isaragnoy", "name": "Isaraganoy", "pcode": "NA-3806-U31-005", "place": "hamlet"}}, {"type": "node", "id": 1404231321, "lat": 2.19847, "lon": 44.62885, "tags": {"name": "Fullayley 1", "pcode": "NA-3806-V25-005", "place": "hamlet", "source": "UNDP - 2006"}}, {"type": "node", "id": 1404231406, "lat": 2.0803139, "lon": 44.9088105, "tags": {"name": "Tawakal", "pcode": "NA-3806-Y31-004", "place": "hamlet"}}, {"type": "node", "id": 1404231454, "lat": 2.0081297, "lon": 44.9814895, "tags": {"alt_name": "K50;Lambar 50", "name": "No. 50 (Airstrip)", "pcode": "NA-3806-Z33-001", "place": "village"}}, {"type": "node", "id": 1404231610, "lat": 2.1334718, "lon": 44.6495264, "tags": {"alt_name": "Buulo Eylo", "name": "Bulo Eylo", "pcode": "NA-3806-W26-004", "place": "isolated_dwelling", "source": "UNDP - 2006"}}, {"type": "node", "id": 1404231632, "lat": 2.1242236, "lon": 44.6002309, "tags": {"name": "Iskataf Waroosmaal", "pcode": "NA-3806-X25-007", "place": "hamlet", "source": "UNDP - 2006"}}, {"type": "node", "id": 1404231691, "lat": 2.2686887, "lon": 44.7483052, "tags": {"alt_name": "Iidow Qudoow", "name": "Iidow Guudow", "pcode": "NA-3806-T28-001", "place": "village", "source": "UNDP - 2006, UNDP - 1997"}}, {"type": "node", "id": 1404231722, "lat": 2.3698998, "lon": 44.7917505, "tags": {"name": "Gaay Dhiigaale", "pcode": "NA-3806-R29-008", "place": "village", "source": "UNDP - 1997", "source:ref": "UNSOA II:SPOT5 image based data capture using different Ancillary Sources coming from UNSOA field mission."}}, {"type": "node", "id": 1404231769, "lat": 2.312379, "lon": 44.7073642, "tags": {"name": "Gumurey", "pcode": "NA-3806-S27-005", "place": "hamlet", "source": "UNDP - 2006"}}, {"type": "node", "id": 1404231789, "lat": 2.2642156, "lon": 44.7208342, "tags": {"name": "Bulo Balley 2", "pcode": "NA-3806-T27-003", "place": "hamlet", "source": "UNDP - 2006"}}, {"type": "node", "id": 1404232173, "lat": 2.1056518, "lon": 44.9054702, "tags": {"name": "Nuun", "pcode": "NA-3806-X31-001", "place": "village"}}, {"type": "node", "id": 1404232180, "lat": 2.38642, "lon": 44.83456, "tags": {"alt_name": "Buulo Aw Mad Osmanow", "name": "Bulo Aw Mad Osmanow", "pcode": "NA-3806-Q30-006", "place": "hamlet", "source": "UNDP - 2006", "source:ref": "UNSOA II: E044N02_12, SPOT5 image based data capture using different Ancillary Sources coming from UNSOA field mission."}}, {"type": "node", "id": 1404232244, "lat": 2.1534901, "lon": 44.6980522, "tags": {"name": "Hilow Gurbaanle", "pcode": "NA-3806-W27-003", "place": "hamlet"}}, {"type": "node", "id": 1404232272, "lat": 2.3995453, "lon": 44.8148506, "tags": {"name": "Janiino", "pcode": "NA-3806-Q29-007", "place": "hamlet", "source": "UNDP - 1997", "source:ref": "UNSOA II: SPOT5 image based data capture using different Ancillary Sources coming from UNSOA field mission."}}, {"type": "node", "id": 1404232472, "lat": 1.97666, "lon": 44.8318, "tags": {"name": "October", "pcode": "NA-3810-A30-005", "place": "suburb"}}, {"type": "node", "id": 1404232473, "lat": 2.350199, "lon": 44.6870221, "tags": {"name": "Bulo Galoosha", "pcode": "NA-3806-R27-003", "place": "village", "source": "UNDP - 2006"}}, {"type": "node", "id": 1404232652, "lat": 2.3984121, "lon": 44.8441147, "tags": {"name": "Baleey", "pcode": "NA-3806-Q30-009", "place": "hamlet", "source": "UNDP - 2006", "source:ref": "UNSOA II: E044N02_12, SPOT5 image based data capture using different Ancillary Sources coming from UNSOA field mission."}}, {"type": "node", "id": 1404232663, "lat": 2.1825503, "lon": 44.5902512, "tags": {"alt_name": "Bohaley", "name": "Boholey", "pcode": "NA-3806-V25-001", "place": "hamlet", "source": "UNDP - 2006"}}, {"type": "node", "id": 1404232805, "lat": 2.2093961, "lon": 44.6986332, "tags": {"name": "Kalago'Ow", "pcode": "NA-3806-U27-001", "place": "hamlet", "source": "UNDP - 2006"}}, {"type": "node", "id": 1404232831, "lat": 2.3698289, "lon": 44.7351846, "tags": {"name": "Dha Dhacle", "pcode": "NA-3806-R28-004", "place": "village", "source": "UNDP - 1997"}}, {"type": "node", "id": 1404232904, "lat": 2.2178659, "lon": 44.8221854, "tags": {"alt_name": "Degmuduush", "name": "Deg Maduusha", "pcode": "NA-3806-U30-001", "place": "hamlet"}}, {"type": "node", "id": 1404232988, "lat": 2.12585, "lon": 44.94936, "tags": {"name": "Bulo Doon", "pcode": "NA-3806-W32-001", "place": "village"}}, {"type": "node", "id": 1404233076, "lat": 2.2062016, "lon": 44.8297789, "tags": {"alt_name": "Kadil", "name": "Bulo Kadil", "pcode": "NA-3806-V30-002", "place": "hamlet"}}, {"type": "node", "id": 1404233136, "lat": 2.39812, "lon": 44.82293, "tags": {"alt_name": "Bulo Aasi Huber", "name": "Buulo Aas", "pcode": "NA-3806-Q30-008", "place": "hamlet", "source": "UNDP - 2006, UNDP - 1997", "source:ref": "UNSOA II: E044N02_12, SPOT5 image based data capture using different Ancillary Sources coming from UNSOA field mission."}}, {"type": "node", "id": 1404233139, "lat": 2.11948, "lon": 44.58807, "tags": {"name": "Gololey", "pcode": "NA-3806-X24-010", "place": "hamlet", "source": "UNDP - 2006"}}, {"type": "node", "id": 1404233188, "lat": 2.2007034, "lon": 44.8069659, "tags": {"name": "Waraabo", "pcode": "NA-3806-V29-002", "place": "hamlet"}}, {"type": "node", "id": 1404233220, "lat": 2.23321, "lon": 44.691101, "tags": {"name": "Bandege", "pcode": "NA-3806-U27-003", "place": "hamlet", "source": "UNDP - 1997"}}, {"type": "node", "id": 1404233227, "lat": 2.3103795, "lon": 44.7844685, "tags": {"name": "Gaaldheere-Yarey", "pcode": "NA-3806-S29-002", "place": "isolated_dwelling", "source": "UNDP - 2006"}}, {"type": "node", "id": 1404233256, "lat": 2.1304152, "lon": 44.9487651, "tags": {"name": "Bulo Babay", "pcode": "NA-3806-W32-002", "place": "village"}}, {"type": "node", "id": 1404233257, "lat": 2.20597, "lon": 44.8526, "tags": {"name": "Waanjeesha", "pcode": "NA-3806-V30-001", "place": "hamlet"}}, {"type": "node", "id": 1404233334, "lat": 2.12024, "lon": 44.68661, "tags": {"name": "Riigga", "pcode": "NA-3806-X27-002", "place": "hamlet"}}, {"type": "node", "id": 1404233455, "lat": 2.28802, "lon": 44.7725, "tags": {"name": "Alifleey", "pcode": "NA-3806-T28-004", "place": "hamlet", "source": "UNDP - 2006", "source:ref": "UNSOA II: E044N02_12, SPOT5 image based data capture using different Ancillary Sources coming from UNSOA field mission."}}, {"type": "node", "id": 1404233457, "lat": 2.1176634, "lon": 44.9640798, "tags": {"name": "Mako", "pcode": "NA-3806-X33-005", "place": "hamlet"}}, {"type": "node", "id": 1404233502, "lat": 2.02067, "lon": 44.84042, "tags": {"name": "Qod-Qodow", "pcode": "NA-3806-Z30-001", "place": "locality"}}, {"type": "node", "id": 1404233526, "lat": 2.3775419, "lon": 44.8426192, "tags": {"name": "Bulo Arbow", "pcode": "NA-3806-Q30-001", "place": "hamlet", "source": "UNDP - 2006", "source:ref": "UNSOA II: E044N02_12, SPOT5 image based data capture using different Ancillary Sources coming from UNSOA field mission."}}, {"type": "node", "id": 1404233557, "lat": 2.2933455, "lon": 44.68912, "tags": {"name": "Gabbal Maale", "pcode": "NA-3806-S27-001", "place": "isolated_dwelling", "source": "UNDP - 2006"}}, {"type": "node", "id": 1404233619, "lat": 1.984465, "lon": 44.8167921, "tags": {"name": "Malable", "pcode": "NA-3810-A29-001", "place": "hamlet"}}, {"type": "node", "id": 1404233679, "lat": 2.16808, "lon": 44.95684, "tags": {"name": "Bulo Edin Osman", "pcode": "NA-3806-V33-001", "place": "locality"}}, {"type": "node", "id": 1404233686, "lat": 2.20373, "lon": 44.62974, "tags": {"name": "Balaayoole", "pcode": "NA-3806-V25-007", "place": "hamlet", "source": "UNDP - 2006"}}, {"type": "node", "id": 1404233688, "lat": 2.2010313, "lon": 44.7980861, "tags": {"alt_name": "Beedle", "name": "Baadle", "pcode": "NA-3806-V29-001", "place": "hamlet"}}, {"type": "node", "id": 1404233690, "lat": 2.0493718, "lon": 44.8739801, "tags": {"alt_name": "Reydab", "name": "Raqeyle", "pcode": "NA-3806-Y31-003", "place": "hamlet"}}, {"type": "node", "id": 1404233704, "lat": 2.1453597, "lon": 44.9785919, "tags": {"name": "Ban Galey", "pcode": "NA-3806-W33-004", "place": "village"}}, {"type": "node", "id": 1404233749, "lat": 2.0803, "lon": 44.898602, "tags": {"name": "Nun Garre", "pcode": "NA-3806-Y31-005", "place": "locality"}}, {"type": "node", "id": 1404233820, "lat": 2.3199, "lon": 44.81765, "tags": {"name": "Malableey", "pcode": "NA-3806-S29-003", "place": "hamlet", "source": "UNDP - 1997"}}, {"type": "node", "id": 1404233927, "lat": 2.2427038, "lon": 44.7036341, "tags": {"name": "Banaadir", "pcode": "NA-3806-U27-005", "place": "hamlet", "source": "UNDP - 1997"}}, {"type": "node", "id": 1404234108, "lat": 2.23295, "lon": 44.64443, "tags": {"name": "Maalama", "pcode": "NA-3806-U26-005", "place": "hamlet", "source": "UNDP - 2006"}}, {"type": "node", "id": 6267738908, "lat": 2.3529499, "lon": 44.7454074, "tags": {"place": "hamlet"}}, {"type": "node", "id": 6267806109, "lat": 2.3383013, "lon": 44.7469135, "tags": {"place": "hamlet"}}, {"type": "node", "id": 6267806215, "lat": 2.3529419, "lon": 44.7336057, "tags": {"place": "village"}}, {"type": "node", "id": 6268057128, "lat": 2.341, "lon": 44.7252721, "tags": {"place": "village"}}, {"type": "node", "id": 6269661494, "lat": 2.3208036, "lon": 44.7245076, "tags": {"place": "hamlet"}}, {"type": "node", "id": 6269661529, "lat": 2.3177203, "lon": 44.7256194, "tags": {"place": "hamlet"}}, {"type": "node", "id": 6269661785, "lat": 2.3335858, "lon": 44.7307156, "tags": {"place": "isolated_dwelling"}}, {"type": "node", "id": 6270389782, "lat": 2.307232, "lon": 44.7243923, "tags": {"place": "village"}}, {"type": "node", "id": 6270391558, "lat": 2.329125, "lon": 44.7244781, "tags": {"place": "hamlet"}}, {"type": "node", "id": 6276807253, "lat": 2.378168, "lon": 44.7501066, "tags": {"place": "isolated_dwelling"}}, {"type": "node", "id": 6276807264, "lat": 2.3820646, "lon": 44.7442514, "tags": {"place": "hamlet"}}, {"type": "node", "id": 6276807609, "lat": 2.3820056, "lon": 44.7496722, "tags": {"place": "hamlet"}}, {"type": "node", "id": 6279496650, "lat": 2.3617375, "lon": 44.7641051, "tags": {"place": "village", "source:ref": "UNSOA II: E044N02_12, SPOT5 image based data capture using different Ancillary Sources coming from UNSOA field mission."}}, {"type": "node", "id": 6281171258, "lat": 2.3676521, "lon": 44.771913, "tags": {"place": "hamlet"}}, {"type": "node", "id": 6281386424, "lat": 2.3869983, "lon": 44.7771969, "tags": {"place": "hamlet", "source:ref": "UNSOA II: E044N02_12, SPOT5 image based data capture using different Ancillary Sources coming from UNSOA field mission."}}, {"type": "node", "id": 6281386483, "lat": 2.3780501, "lon": 44.7761616, "tags": {"place": "hamlet"}}, {"type": "node", "id": 6281386670, "lat": 2.3833295, "lon": 44.7533736, "tags": {"place": "hamlet", "source:ref": "UNSOA II: E044N02_12, SPOT5 image based data capture using different Ancillary Sources coming from UNSOA field mission."}}, {"type": "node", "id": 6283588165, "lat": 2.3933576, "lon": 44.7567344, "tags": {"place": "isolated_dwelling", "source:ref": "UNSOA II: E044N02_12, SPOT5 image based data capture using different Ancillary Sources coming from UNSOA field mission."}}, {"type": "node", "id": 6283588262, "lat": 2.3978276, "lon": 44.7603661, "tags": {"place": "hamlet"}}, {"type": "node", "id": 6296975886, "lat": 2.2682222, "lon": 44.6546924, "tags": {"place": "isolated_dwelling"}}, {"type": "node", "id": 6296975981, "lat": 2.254429, "lon": 44.644842, "tags": {"place": "hamlet"}}, {"type": "node", "id": 6310445362, "lat": 2.3143341, "lon": 44.6975729, "tags": {"place": "isolated_dwelling"}}, {"type": "node", "id": 6310445824, "lat": 2.3095194, "lon": 44.7221084, "tags": {"place": "isolated_dwelling"}}, {"type": "node", "id": 6345082195, "lat": 2.3150925, "lon": 44.7711217, "tags": {"place": "isolated_dwelling"}}, {"type": "node", "id": 6345082196, "lat": 2.3161725, "lon": 44.770883, "tags": {"place": "isolated_dwelling"}}, {"type": "node", "id": 6345082221, "lat": 2.31299, "lon": 44.7558171, "tags": {"place": "isolated_dwelling"}}, {"type": "node", "id": 6345082222, "lat": 2.3227761, "lon": 44.7662857, "tags": {"place": "isolated_dwelling"}}, {"type": "node", "id": 6350043186, "lat": 2.3901846, "lon": 44.6108222, "tags": {"place": "isolated_dwelling"}}, {"type": "node", "id": 6463984215, "lat": 2.3444143, "lon": 44.8089382, "tags": {"name": "Dharabo", "place": "hamlet", "source:ref": "UNSOA II: E044N02_12, SPOT5 image based data capture using different Ancillary Sources coming from UNSOA field mission."}}, {"type": "node", "id": 6463984239, "lat": 2.3286372, "lon": 44.874749, "tags": {"name": "Digbiti", "place": "locality", "source:ref": "UNSOA II: E044N02_12, SPOT5 image based data capture using different Ancillary Sources coming from UNSOA field mission."}}, {"type": "node", "id": 6464117729, "lat": 2.3880555, "lon": 44.7993185, "tags": {"place": "isolated_dwelling", "source:ref": "UNSOA II: E044N02_12, SPOT5 image based data capture using different Ancillary Sources coming from UNSOA field mission."}}, {"type": "node", "id": 6464117753, "lat": 2.3693343, "lon": 44.8388078, "tags": {"place": "hamlet", "source:ref": "UNSOA II: E044N02_12, SPOT5 image based data capture using different Ancillary Sources coming from UNSOA field mission."}}, {"type": "node", "id": 6464117754, "lat": 2.3708477, "lon": 44.8331257, "tags": {"place": "hamlet", "source:ref": "UNSOA II: E044N02_12, SPOT5 image based data capture using different Ancillary Sources coming from UNSOA field mission."}}, {"type": "node", "id": 6464117756, "lat": 2.3867025, "lon": 44.8329764, "tags": {"place": "hamlet", "source:ref": "UNSOA II: E044N02_12, SPOT5 image based data capture using different Ancillary Sources coming from UNSOA field mission."}}, {"type": "node", "id": 6464117757, "lat": 2.3902431, "lon": 44.8293216, "tags": {"place": "isolated_dwelling", "source:ref": "UNSOA II: E044N02_12, SPOT5 image based data capture using different Ancillary Sources coming from UNSOA field mission."}}, {"type": "node", "id": 6464117758, "lat": 2.3917374, "lon": 44.8288457, "tags": {"place": "isolated_dwelling", "source:ref": "UNSOA II: E044N02_12, SPOT5 image based data capture using different Ancillary Sources coming from UNSOA field mission."}}, {"type": "node", "id": 6470092904, "lat": 2.3479867, "lon": 44.7519332, "tags": {"place": "hamlet", "source:ref": "UNSOA II: E044N02_12, SPOT5 image based data capture using different Ancillary Sources coming from UNSOA field mission."}}, {"type": "node", "id": 6470092925, "lat": 2.3949494, "lon": 44.7880572, "tags": {"place": "hamlet", "source:ref": "UNSOA II: E044N02_12, SPOT5 image based data capture using different Ancillary Sources coming from UNSOA field mission."}}, {"type": "node", "id": 6470093971, "lat": 2.3775517, "lon": 44.8180443, "tags": {"name": "Raama Boorto", "place": "hamlet", "source:ref": "UNSOA II: E044N02_12, SPOT5 image based data capture using different Ancillary Sources coming from UNSOA field mission."}}, {"type": "node", "id": 6470093976, "lat": 2.3360501, "lon": 44.773702, "tags": {"place": "hamlet", "source:ref": "UNSOA II: E044N02_12, SPOT5 image based data capture using different Ancillary Sources coming from UNSOA field mission."}}, {"type": "node", "id": 6470093986, "lat": 2.2632814, "lon": 44.8054755, "tags": {"place": "hamlet", "source:ref": "UNSOA II: E044N02_12, SPOT5 image based data capture using different Ancillary Sources coming from UNSOA field mission."}}, {"type": "node", "id": 6470210458, "lat": 2.2793969, "lon": 44.7543043, "tags": {"place": "hamlet", "source:ref": "UNSOA II: E044N02_12, SPOT5 image based data capture using different Ancillary Sources coming from UNSOA field mission."}}, {"type": "node", "id": 6470210462, "lat": 2.3319551, "lon": 44.7841144, "tags": {"place": "hamlet", "source:ref": "UNSOA II: E044N02_12, SPOT5 image based data capture using different Ancillary Sources coming from UNSOA field mission."}}, {"type": "node", "id": 6470211827, "lat": 2.4023432, "lon": 44.8629901, "tags": {"place": "hamlet", "source:ref": "UNSOA II: E044N02_12, SPOT5 image based data capture using different Ancillary Sources coming from UNSOA field mission."}}, {"type": "node", "id": 6470212120, "lat": 2.3732611, "lon": 44.7532234, "tags": {"name": "Galool Guusnan", "place": "hamlet", "source:ref": "UNSOA II: E044N02_12, SPOT5 image based data capture using different Ancillary Sources coming from UNSOA field mission."}}, {"type": "node", "id": 6470212136, "lat": 2.3446126, "lon": 44.7695553, "tags": {"place": "hamlet", "source:ref": "UNSOA II: E044N02_12, SPOT5 image based data capture using different Ancillary Sources coming from UNSOA field mission."}}, {"type": "node", "id": 6470212152, "lat": 2.3496911, "lon": 44.7766283, "tags": {"place": "hamlet", "source:ref": "UNSOA II: E044N02_12, SPOT5 image based data capture using different Ancillary Sources coming from UNSOA field mission."}}, {"type": "node", "id": 6470212288, "lat": 2.3712029, "lon": 44.762316, "tags": {"place": "hamlet", "source:ref": "UNSOA II: E044N02_12, SPOT5 image based data capture using different Ancillary Sources coming from UNSOA field mission."}}, {"type": "node", "id": 6487438801, "lat": 2.3459981, "lon": 44.8058027, "tags": {"name": "Dharabo", "place": "hamlet", "source:ref": "UNSOA II: E044N02_12, SPOT5 image based data capture using different Ancillary Sources coming from UNSOA field mission."}}, {"type": "node", "id": 6487438845, "lat": 2.346368, "lon": 44.7999099, "tags": {"place": "hamlet", "source:ref": "UNSOA II: E044N02_12, SPOT5 image based data capture using different Ancillary Sources coming from UNSOA field mission."}}, {"type": "node", "id": 6487438865, "lat": 2.2670979, "lon": 44.8172396, "tags": {"place": "hamlet", "source:ref": "UNSOA II: E044N02_12, SPOT5 image based data capture using different Ancillary Sources coming from UNSOA field mission."}}, {"type": "node", "id": 6604925605, "lat": 2.2498218, "lon": 44.6413994, "tags": {"place": "hamlet"}}, {"type": "node", "id": 6616127189, "lat": 2.3491846, "lon": 44.6889308, "tags": {"place": "hamlet"}}, {"type": "node", "id": 6616127190, "lat": 2.350873, "lon": 44.6847707, "tags": {"place": "hamlet"}}, {"type": "node", "id": 6616127191, "lat": 2.3525185, "lon": 44.6857738, "tags": {"place": "isolated_dwelling"}}, {"type": "node", "id": 6616127192, "lat": 2.3503852, "lon": 44.6887806, "tags": {"place": "isolated_dwelling"}}, {"type": "node", "id": 6616127265, "lat": 2.2995148, "lon": 44.7158052, "tags": {"place": "isolated_dwelling"}}, {"type": "node", "id": 6616127345, "lat": 2.263327, "lon": 44.7463891, "tags": {"place": "village"}}, {"type": "node", "id": 6616127395, "lat": 2.2598107, "lon": 44.7457239, "tags": {"place": "village"}}, {"type": "node", "id": 6616780088, "lat": 2.2586059, "lon": 44.6652697, "tags": {"place": "isolated_dwelling"}}, {"type": "node", "id": 6616780120, "lat": 2.260407, "lon": 44.6854573, "tags": {"place": "hamlet"}}, {"type": "node", "id": 6618578344, "lat": 2.3320743, "lon": 44.6789409, "tags": {"place": "isolated_dwelling"}}, {"type": "node", "id": 6618581548, "lat": 2.2546287, "lon": 44.7272214, "tags": {"name": "Kuunyo", "place": "locality", "source": "UNSOA V: SPOT6 image based data capture using different Ancillary Sources coming from UNSOA field mission", "source:date": "2014-02-17"}}, {"type": "node", "id": 6618581549, "lat": 2.3809, "lon": 44.625, "tags": {"name": "Yaanleey", "place": "locality", "source": "UNSOA V: SPOT6 image based data capture using different Ancillary Sources coming from UNSOA field mission", "source:date": "2014-02-17"}}, {"type": "node", "id": 6618581550, "lat": 2.2739858, "lon": 44.6059358, "tags": {"name": "Qonyar Borrore", "place": "locality", "source": "UNSOA V: SPOT6 image based data capture using different Ancillary Sources coming from UNSOA field mission", "source:date": "2014-02-17"}}, {"type": "node", "id": 6619018878, "lat": 2.3283465, "lon": 44.6794291, "tags": {"place": "isolated_dwelling"}}, {"type": "node", "id": 6619018879, "lat": 2.3008481, "lon": 44.652662, "tags": {"place": "isolated_dwelling"}}, {"type": "node", "id": 6619018883, "lat": 2.3133826, "lon": 44.6488103, "tags": {"place": "isolated_dwelling"}}, {"type": "node", "id": 6619024213, "lat": 2.2563319, "lon": 44.7460297, "tags": {"place": "isolated_dwelling"}}, {"type": "node", "id": 6619024215, "lat": 2.2688852, "lon": 44.7461306, "tags": {"place": "isolated_dwelling"}}, {"type": "node", "id": 6619024216, "lat": 2.3001218, "lon": 44.7133738, "tags": {"place": "isolated_dwelling"}}, {"type": "node", "id": 6619024284, "lat": 2.3856616, "lon": 44.7358058, "tags": {"place": "village", "source": "UNSOA V: SPOT6 image based data capture using different Ancillary Sources coming from UNSOA field mission", "source:date": "2014-02-17"}}, {"type": "node", "id": 6619024634, "lat": 2.2802255, "lon": 44.7010689, "tags": {"place": "isolated_dwelling", "source": "UNSOA V: SPOT6 image based data capture using different Ancillary Sources coming from UNSOA field mission", "source:date": "2014-02-17"}}, {"type": "node", "id": 6619024635, "lat": 2.280605, "lon": 44.6998451, "tags": {"place": "hamlet", "source": "UNSOA V: SPOT6 image based data capture using different Ancillary Sources coming from UNSOA field mission", "source:date": "2014-02-17"}}, {"type": "node", "id": 6619024652, "lat": 2.314298, "lon": 44.7084236, "tags": {"place": "hamlet", "source": "UNSOA V: SPOT6 image based data capture using different Ancillary Sources coming from UNSOA field mission", "source:date": "2014-02-17"}}, {"type": "node", "id": 6619024653, "lat": 2.3143644, "lon": 44.7064026, "tags": {"place": "hamlet", "source": "UNSOA V: SPOT6 image based data capture using different Ancillary Sources coming from UNSOA field mission", "source:date": "2014-02-17"}}, {"type": "node", "id": 6619247821, "lat": 2.2753687, "lon": 44.6527424, "tags": {"place": "isolated_dwelling"}}, {"type": "node", "id": 6619247822, "lat": 2.2734792, "lon": 44.6484127, "tags": {"place": "isolated_dwelling"}}, {"type": "node", "id": 6619264257, "lat": 2.2903959, "lon": 44.7317281, "tags": {"place": "isolated_dwelling"}}, {"type": "node", "id": 6619264264, "lat": 2.3027, "lon": 44.7141677, "tags": {"place": "isolated_dwelling"}}, {"type": "node", "id": 6620337106, "lat": 2.3885928, "lon": 44.7375137, "tags": {"place": "hamlet"}}, {"type": "node", "id": 6620337108, "lat": 2.2603159, "lon": 44.6977888, "tags": {"place": "hamlet"}}, {"type": "node", "id": 6620337162, "lat": 2.3457516, "lon": 44.6846741, "tags": {"place": "hamlet"}}, {"type": "node", "id": 6620337163, "lat": 2.3467593, "lon": 44.6811444, "tags": {"place": "hamlet"}}, {"type": "node", "id": 6620337173, "lat": 2.3459874, "lon": 44.6865088, "tags": {"place": "hamlet"}}, {"type": "node", "id": 6620337174, "lat": 2.3443446, "lon": 44.6828985, "tags": {"place": "isolated_dwelling"}}, {"type": "node", "id": 6620337175, "lat": 2.3432485, "lon": 44.685747, "tags": {"place": "hamlet"}}, {"type": "node", "id": 6620337176, "lat": 2.3422221, "lon": 44.6822897, "tags": {"place": "hamlet"}}, {"type": "node", "id": 6620342093, "lat": 2.2901627, "lon": 44.7055149, "tags": {"place": "hamlet"}}, {"type": "node", "id": 6620342094, "lat": 2.3955899, "lon": 44.7485389, "tags": {"place": "isolated_dwelling"}}, {"type": "node", "id": 6622142207, "lat": 2.2941091, "lon": 44.6990736, "tags": {"place": "hamlet"}}, {"type": "node", "id": 6622261671, "lat": 2.3080333, "lon": 44.7372025, "tags": {"place": "hamlet"}}, {"type": "node", "id": 6622261813, "lat": 2.3081995, "lon": 44.7421807, "tags": {"place": "isolated_dwelling"}}, {"type": "node", "id": 6622261814, "lat": 2.3090531, "lon": 44.7385852, "tags": {"place": "hamlet"}}, {"type": "node", "id": 6622261923, "lat": 2.2981279, "lon": 44.7353518, "tags": {"place": "hamlet"}}, {"type": "node", "id": 6622369669, "lat": 2.3303364, "lon": 44.7398874, "tags": {"place": "hamlet"}}, {"type": "node", "id": 6622378984, "lat": 2.3229101, "lon": 44.7169518, "tags": {"place": "isolated_dwelling"}}, {"type": "node", "id": 6622379234, "lat": 2.3165075, "lon": 44.7425187, "tags": {"place": "hamlet"}}, {"type": "node", "id": 6622379257, "lat": 2.3153444, "lon": 44.746829, "tags": {"place": "hamlet"}}, {"type": "node", "id": 6622379410, "lat": 2.3167219, "lon": 44.7327796, "tags": {"place": "hamlet"}}, {"type": "node", "id": 6622379534, "lat": 2.3285555, "lon": 44.7269202, "tags": {"place": "hamlet"}}, {"type": "node", "id": 6622379798, "lat": 2.319678, "lon": 44.745048, "tags": {"place": "hamlet"}}, {"type": "node", "id": 6622379998, "lat": 2.3131522, "lon": 44.7455201, "tags": {"place": "hamlet"}}, {"type": "node", "id": 6622380116, "lat": 2.3125813, "lon": 44.7312728, "tags": {"place": "hamlet"}}, {"type": "node", "id": 6622380121, "lat": 2.313128, "lon": 44.7313835, "tags": {"place": "isolated_dwelling"}}, {"type": "node", "id": 6622380424, "lat": 2.3033888, "lon": 44.7270477, "tags": {"place": "hamlet"}}, {"type": "node", "id": 6622380425, "lat": 2.3051375, "lon": 44.7263597, "tags": {"place": "hamlet"}}, {"type": "node", "id": 6622380532, "lat": 2.3065285, "lon": 44.7323209, "tags": {"place": "isolated_dwelling"}}, {"type": "node", "id": 6622708443, "lat": 2.3080561, "lon": 44.6988349, "tags": {"place": "isolated_dwelling"}}, {"type": "node", "id": 6622708465, "lat": 2.3083951, "lon": 44.6968943, "tags": {"place": "isolated_dwelling"}}, {"type": "node", "id": 6622708608, "lat": 2.3023489, "lon": 44.6881798, "tags": {"place": "hamlet"}}, {"type": "node", "id": 6622709091, "lat": 2.3012126, "lon": 44.6964088, "tags": {"place": "hamlet"}}, {"type": "node", "id": 6622709427, "lat": 2.296225, "lon": 44.7325489, "tags": {"place": "village"}}, {"type": "node", "id": 6622709752, "lat": 2.3338512, "lon": 44.7436666, "tags": {"place": "isolated_dwelling"}}, {"type": "node", "id": 6622983765, "lat": 2.3182255, "lon": 44.6634055, "tags": {"place": "hamlet"}}, {"type": "node", "id": 6622984137, "lat": 2.32637, "lon": 44.6782717, "tags": {"place": "isolated_dwelling"}}, {"type": "node", "id": 6622984506, "lat": 2.3109733, "lon": 44.6891534, "tags": {"place": "isolated_dwelling"}}, {"type": "node", "id": 6622984507, "lat": 2.3110537, "lon": 44.6877989, "tags": {"place": "isolated_dwelling"}}, {"type": "node", "id": 6622984581, "lat": 2.3112547, "lon": 44.6774697, "tags": {"place": "isolated_dwelling"}}, {"type": "node", "id": 6622984669, "lat": 2.322484, "lon": 44.6806964, "tags": {"place": "isolated_dwelling"}}, {"type": "node", "id": 6622984670, "lat": 2.3221275, "lon": 44.6814421, "tags": {"place": "isolated_dwelling"}}, {"type": "node", "id": 6622984932, "lat": 2.3241818, "lon": 44.6544711, "tags": {"place": "isolated_dwelling"}}, {"type": "node", "id": 6624384166, "lat": 2.3103046, "lon": 44.6408884, "tags": {"place": "isolated_dwelling"}}, {"type": "node", "id": 6624384583, "lat": 2.3130048, "lon": 44.6581632, "tags": {"place": "isolated_dwelling"}}, {"type": "node", "id": 6624386097, "lat": 2.3092219, "lon": 44.6524782, "tags": {"place": "hamlet"}}, {"type": "node", "id": 6624386169, "lat": 2.305892, "lon": 44.6565807, "tags": {"place": "isolated_dwelling"}}, {"type": "node", "id": 6624386616, "lat": 2.3173625, "lon": 44.6516924, "tags": {"place": "isolated_dwelling"}}, {"type": "node", "id": 6627005199, "lat": 2.3635384, "lon": 44.6070859, "tags": {"place": "isolated_dwelling"}}, {"type": "node", "id": 6627286406, "lat": 2.353171, "lon": 44.6710968, "tags": {"place": "isolated_dwelling"}}, {"type": "node", "id": 6669777847, "lat": 2.3873386, "lon": 44.7339839, "tags": {"place": "hamlet"}}, {"type": "node", "id": 6669786164, "lat": 2.3705035, "lon": 44.7070867, "tags": {"place": "hamlet"}}, {"type": "node", "id": 6726081856, "lat": 2.3448994, "lon": 44.6444638, "tags": {"place": "isolated_dwelling"}}, {"type": "node", "id": 6726082408, "lat": 2.3138222, "lon": 44.6452202, "tags": {"place": "isolated_dwelling"}}, {"type": "node", "id": 6726082468, "lat": 2.2763014, "lon": 44.6672639, "tags": {"place": "hamlet"}}, {"type": "node", "id": 6726260585, "lat": 2.2686926, "lon": 44.6712095, "tags": {"place": "isolated_dwelling"}}, {"type": "node", "id": 6726738378, "lat": 2.273104, "lon": 44.7061908, "tags": {"place": "hamlet"}}, {"type": "node", "id": 6731672622, "lat": 2.4004485, "lon": 44.7400242, "tags": {"place": "hamlet"}}, {"type": "node", "id": 6731672699, "lat": 2.3866338, "lon": 44.7393617, "tags": {"place": "isolated_dwelling"}}, {"type": "node", "id": 6731672764, "lat": 2.4000197, "lon": 44.7476531, "tags": {"place": "isolated_dwelling"}}, {"type": "node", "id": 6758762883, "lat": 2.2741452, "lon": 44.6959729, "tags": {"place": "hamlet"}}, {"type": "node", "id": 6758762884, "lat": 2.2732139, "lon": 44.7014286, "tags": {"place": "hamlet"}}, {"type": "node", "id": 6827994528, "lat": 2.258744, "lon": 44.7692576, "tags": {"place": "hamlet"}}, {"type": "node", "id": 6827994529, "lat": 2.2595748, "lon": 44.7701615, "tags": {"place": "hamlet"}}, {"type": "node", "id": 6827996003, "lat": 2.3547187, "lon": 44.7629249, "tags": {"place": "hamlet"}}, {"type": "node", "id": 6878239898, "lat": 2.2533971, "lon": 44.802635, "tags": {"place": "isolated_dwelling"}}, {"type": "node", "id": 6903026575, "lat": 2.3944135, "lon": 44.8814839, "tags": {"place": "isolated_dwelling"}}, {"type": "node", "id": 7066224622, "lat": 2.2940917, "lon": 44.8090455, "tags": {"place": "isolated_dwelling"}}, {"type": "node", "id": 7066224646, "lat": 2.2587627, "lon": 44.7644511, "tags": {"place": "isolated_dwelling"}}, {"type": "node", "id": 7066238344, "lat": 2.2731951, "lon": 44.7592449, "tags": {"place": "hamlet"}}, {"type": "node", "id": 7066238346, "lat": 2.2751168, "lon": 44.7610125, "tags": {"place": "isolated_dwelling"}}, {"type": "node", "id": 7066238347, "lat": 2.2747992, "lon": 44.7656876, "tags": {"place": "isolated_dwelling"}}, {"type": "node", "id": 7066474823, "lat": 2.2584116, "lon": 44.8124948, "tags": {"place": "isolated_dwelling"}}, {"type": "node", "id": 7066474828, "lat": 2.2553214, "lon": 44.8085855, "tags": {"place": "isolated_dwelling"}}, {"type": "node", "id": 7066591224, "lat": 2.2908301, "lon": 44.8974538, "tags": {"place": "isolated_dwelling"}}, {"type": "node", "id": 7066591326, "lat": 2.2633511, "lon": 44.8626763, "tags": {"place": "isolated_dwelling"}}, {"type": "node", "id": 7066591379, "lat": 2.2679502, "lon": 44.8650393, "tags": {"place": "isolated_dwelling"}}, {"type": "node", "id": 7066665589, "lat": 2.2500711, "lon": 44.9549657, "tags": {"place": "isolated_dwelling"}}, {"type": "node", "id": 7687438729, "lat": 2.3014297, "lon": 44.649497, "tags": {"place": "isolated_dwelling"}}, {"type": "node", "id": 7687438730, "lat": 2.2975168, "lon": 44.6603465, "tags": {"place": "isolated_dwelling"}}, {"type": "node", "id": 7687438731, "lat": 2.2955336, "lon": 44.6640775, "tags": {"place": "isolated_dwelling"}}, {"type": "node", "id": 7687438736, "lat": 2.2938907, "lon": 44.6653998, "tags": {"place": "hamlet"}}, {"type": "node", "id": 7687465890, "lat": 2.2952951, "lon": 44.6647641, "tags": {"place": "isolated_dwelling"}}, {"type": "node", "id": 7687465912, "lat": 2.307969, "lon": 44.6767509, "tags": {"place": "village"}}, {"type": "node", "id": 7687465924, "lat": 2.3220123, "lon": 44.6749619, "tags": {"place": "hamlet"}}, {"type": "node", "id": 7687465957, "lat": 2.3354069, "lon": 44.6818203, "tags": {"place": "hamlet"}}, {"type": "node", "id": 7687466084, "lat": 2.3131361, "lon": 44.6722609, "tags": {"place": "hamlet"}}, {"type": "node", "id": 7687466085, "lat": 2.3294546, "lon": 44.6737254, "tags": {"place": "hamlet"}}, {"type": "node", "id": 7687466086, "lat": 2.3364682, "lon": 44.6737978, "tags": {"place": "hamlet"}}, {"type": "node", "id": 7687466087, "lat": 2.3302024, "lon": 44.6778882, "tags": {"name": "Bulo Aqabo", "place": "hamlet", "source": "UNSOA V: SPOT6 image based data capture using different Ancillary Sources coming from UNSOA field mission", "source:date": "2014-02-17"}}, {"type": "node", "id": 7687633641, "lat": 2.3723392, "lon": 44.729054, "tags": {"place": "isolated_dwelling"}}, {"type": "node", "id": 7687633669, "lat": 2.3922025, "lon": 44.7173918, "tags": {"place": "hamlet"}}, {"type": "node", "id": 7687633696, "lat": 2.4040529, "lon": 44.7153747, "tags": {"place": "isolated_dwelling"}}, {"type": "node", "id": 7687758996, "lat": 2.2799758, "lon": 44.741317, "tags": {"place": "hamlet"}}, {"type": "node", "id": 7687759097, "lat": 2.3122919, "lon": 44.727383, "tags": {"place": "isolated_dwelling"}}, {"type": "node", "id": 7687759184, "lat": 2.3239419, "lon": 44.7194946, "tags": {"place": "hamlet"}}, {"type": "node", "id": 7687759217, "lat": 2.3350746, "lon": 44.7187436, "tags": {"place": "village"}}, {"type": "node", "id": 7687759218, "lat": 2.3439801, "lon": 44.7221017, "tags": {"place": "isolated_dwelling"}}, {"type": "node", "id": 7687759611, "lat": 2.3948905, "lon": 44.7349924, "tags": {"place": "isolated_dwelling"}}, {"type": "node", "id": 7687858428, "lat": 2.3981867, "lon": 44.7484785, "tags": {"place": "isolated_dwelling"}}, {"type": "node", "id": 7687918091, "lat": 2.3664166, "lon": 44.7481057, "tags": {"place": "isolated_dwelling"}}, {"type": "node", "id": 7687981149, "lat": 2.2889567, "lon": 44.7476256, "tags": {"place": "isolated_dwelling"}}, {"type": "node", "id": 7688017825, "lat": 2.2951959, "lon": 44.7500235, "tags": {"place": "hamlet"}}, {"type": "node", "id": 7688017949, "lat": 2.330607, "lon": 44.7463354, "tags": {"place": "hamlet"}}, {"type": "node", "id": 7688017971, "lat": 2.3437068, "lon": 44.7471723, "tags": {"place": "isolated_dwelling"}}, {"type": "node", "id": 7688040520, "lat": 2.2723831, "lon": 44.686203, "tags": {"place": "hamlet"}}, {"type": "node", "id": 7688040521, "lat": 2.2664064, "lon": 44.682456, "tags": {"place": "isolated_dwelling"}}, {"type": "node", "id": 7688040562, "lat": 2.2560424, "lon": 44.7343165, "tags": {"place": "isolated_dwelling"}}, {"type": "node", "id": 7688040563, "lat": 2.2507733, "lon": 44.7342333, "tags": {"place": "hamlet"}}, {"type": "node", "id": 7688040576, "lat": 2.2703194, "lon": 44.7463649, "tags": {"place": "isolated_dwelling"}}, {"type": "node", "id": 7688040577, "lat": 2.2662831, "lon": 44.7482693, "tags": {"place": "isolated_dwelling"}}, {"type": "node", "id": 7688063004, "lat": 2.282345, "lon": 44.6930239, "tags": {"place": "isolated_dwelling"}}, {"type": "node", "id": 7691113666, "lat": 2.3837208, "lon": 44.7446269, "tags": {"place": "hamlet"}}, {"type": "node", "id": 7691113667, "lat": 2.3850473, "lon": 44.7420332, "tags": {"place": "isolated_dwelling"}}, {"type": "node", "id": 7691187836, "lat": 2.3495571, "lon": 44.7426474, "tags": {"place": "isolated_dwelling"}}, {"type": "node", "id": 7691221706, "lat": 2.2718604, "lon": 44.7064349, "tags": {"place": "isolated_dwelling"}}, {"type": "node", "id": 7691221784, "lat": 2.2556431, "lon": 44.7472018, "tags": {"place": "hamlet"}}, {"type": "node", "id": 7691221785, "lat": 2.2772019, "lon": 44.7347027, "tags": {"place": "isolated_dwelling"}}, {"type": "node", "id": 7691221802, "lat": 2.2857728, "lon": 44.7341555, "tags": {"place": "isolated_dwelling"}}, {"type": "node", "id": 7691272500, "lat": 2.2673391, "lon": 44.6714562, "tags": {"place": "isolated_dwelling"}}, {"type": "node", "id": 7691272501, "lat": 2.2665404, "lon": 44.6732318, "tags": {"place": "hamlet"}}, {"type": "node", "id": 7691272502, "lat": 2.265782, "lon": 44.6709493, "tags": {"place": "village"}}, {"type": "node", "id": 7691272503, "lat": 2.2659079, "lon": 44.6689725, "tags": {"place": "hamlet"}}, {"type": "node", "id": 7691272504, "lat": 2.2666905, "lon": 44.6693185, "tags": {"place": "hamlet"}}, {"type": "node", "id": 7691272508, "lat": 2.2549703, "lon": 44.6528444, "tags": {"place": "hamlet"}}, {"type": "node", "id": 7691298886, "lat": 2.2733265, "lon": 44.6546254, "tags": {"place": "isolated_dwelling"}}, {"type": "node", "id": 7691298887, "lat": 2.2709519, "lon": 44.6694204, "tags": {"place": "hamlet"}}, {"type": "node", "id": 7691623808, "lat": 2.3963859, "lon": 44.6657243, "tags": {"place": "isolated_dwelling"}}, {"type": "node", "id": 7691623859, "lat": 2.2979081, "lon": 44.6431106, "tags": {"place": "hamlet"}}, {"type": "node", "id": 7691623863, "lat": 2.2887423, "lon": 44.6440548, "tags": {"place": "hamlet"}}, {"type": "node", "id": 7691629916, "lat": 2.3436853, "lon": 44.684253, "tags": {"place": "hamlet"}}, {"type": "node", "id": 7691629980, "lat": 2.3550537, "lon": 44.6874569, "tags": {"place": "isolated_dwelling"}}, {"type": "node", "id": 7691629981, "lat": 2.3630614, "lon": 44.685621, "tags": {"place": "isolated_dwelling"}}, {"type": "node", "id": 7691644377, "lat": 2.3423909, "lon": 44.6802914, "tags": {"place": "isolated_dwelling"}}, {"type": "node", "id": 7691644378, "lat": 2.3429215, "lon": 44.6812087, "tags": {"place": "hamlet"}}, {"type": "node", "id": 7691665090, "lat": 2.2647394, "lon": 44.6878928, "tags": {"place": "hamlet"}}, {"type": "node", "id": 7691665091, "lat": 2.280493, "lon": 44.6803236, "tags": {"place": "hamlet"}}, {"type": "node", "id": 7691665092, "lat": 2.2847892, "lon": 44.6801198, "tags": {"place": "isolated_dwelling"}}, {"type": "node", "id": 7691665093, "lat": 2.2921004, "lon": 44.6800876, "tags": {"place": "hamlet"}}, {"type": "node", "id": 7691665132, "lat": 2.2941855, "lon": 44.6809834, "tags": {"place": "isolated_dwelling"}}, {"type": "node", "id": 7691695733, "lat": 2.2985406, "lon": 44.6537322, "tags": {"place": "hamlet"}}, {"type": "node", "id": 7691695734, "lat": 2.2959007, "lon": 44.6635196, "tags": {"place": "isolated_dwelling"}}, {"type": "node", "id": 7691695735, "lat": 2.2951316, "lon": 44.6617091, "tags": {"place": "isolated_dwelling"}}, {"type": "node", "id": 7691695736, "lat": 2.2879168, "lon": 44.6592548, "tags": {"place": "isolated_dwelling"}}, {"type": "node", "id": 7691695737, "lat": 2.2850331, "lon": 44.6594131, "tags": {"place": "isolated_dwelling"}}, {"type": "node", "id": 7691695738, "lat": 2.2817821, "lon": 44.6622106, "tags": {"place": "isolated_dwelling"}}, {"type": "node", "id": 7691695739, "lat": 2.2807825, "lon": 44.6739292, "tags": {"place": "hamlet"}}, {"type": "node", "id": 7691706341, "lat": 2.3452183, "lon": 44.6865624, "tags": {"place": "isolated_dwelling"}}, {"type": "node", "id": 7691706371, "lat": 2.3039355, "lon": 44.6660167, "tags": {"place": "isolated_dwelling"}}, {"type": "node", "id": 7691707995, "lat": 2.253574, "lon": 44.6272024, "tags": {"place": "isolated_dwelling"}}, {"type": "node", "id": 7691707996, "lat": 2.2713861, "lon": 44.6591637, "tags": {"place": "isolated_dwelling"}}, {"type": "node", "id": 7691740356, "lat": 2.36386, "lon": 44.7034416, "tags": {"place": "hamlet"}}, {"type": "node", "id": 7691740368, "lat": 2.3726581, "lon": 44.7133094, "tags": {"place": "hamlet"}}, {"type": "node", "id": 7691740369, "lat": 2.3715111, "lon": 44.7079718, "tags": {"place": "isolated_dwelling"}}, {"type": "node", "id": 7691770893, "lat": 2.3637608, "lon": 44.7003275, "tags": {"place": "isolated_dwelling"}}, {"type": "node", "id": 7691770894, "lat": 2.3619063, "lon": 44.6995497, "tags": {"place": "village"}}, {"type": "node", "id": 7691770895, "lat": 2.3618688, "lon": 44.6985358, "tags": {"place": "isolated_dwelling"}}, {"type": "node", "id": 7691770901, "lat": 2.3584546, "lon": 44.7025377, "tags": {"place": "hamlet"}}, {"type": "node", "id": 7691770902, "lat": 2.3588405, "lon": 44.7000754, "tags": {"place": "village"}}, {"type": "node", "id": 7691770903, "lat": 2.3567394, "lon": 44.6949363, "tags": {"place": "hamlet"}}, {"type": "node", "id": 7691770904, "lat": 2.353427, "lon": 44.6920717, "tags": {"place": "hamlet"}}, {"type": "node", "id": 7691776716, "lat": 2.3144332, "lon": 44.7189259, "tags": {"place": "hamlet"}}, {"type": "node", "id": 7691776717, "lat": 2.3477991, "lon": 44.714393, "tags": {"place": "hamlet"}}, {"type": "node", "id": 7691776718, "lat": 2.3794115, "lon": 44.7333991, "tags": {"place": "village"}}, {"type": "node", "id": 7691776719, "lat": 2.3760723, "lon": 44.7336137, "tags": {"place": "village"}}, {"type": "node", "id": 7691776720, "lat": 2.3933228, "lon": 44.7508442, "tags": {"place": "hamlet"}}, {"type": "node", "id": 7691776733, "lat": 2.3602555, "lon": 44.7048336, "tags": {"place": "hamlet"}}, {"type": "node", "id": 7691776734, "lat": 2.3669017, "lon": 44.704957, "tags": {"place": "village"}}, {"type": "node", "id": 7691781781, "lat": 2.2696386, "lon": 44.7504312, "tags": {"place": "hamlet"}}, {"type": "node", "id": 7691781782, "lat": 2.266444, "lon": 44.7498196, "tags": {"place": "hamlet"}}, {"type": "node", "id": 7691781783, "lat": 2.2971362, "lon": 44.7412553, "tags": {"place": "hamlet"}}, {"type": "node", "id": 7691790594, "lat": 2.2901145, "lon": 44.6773624, "tags": {"place": "hamlet"}}, {"type": "node", "id": 7691790612, "lat": 2.3003389, "lon": 44.6976024, "tags": {"place": "isolated_dwelling"}}, {"type": "node", "id": 7691790663, "lat": 2.3080521, "lon": 44.7072047, "tags": {"place": "isolated_dwelling"}}, {"type": "node", "id": 7691790664, "lat": 2.3144975, "lon": 44.7054854, "tags": {"place": "isolated_dwelling"}}, {"type": "node", "id": 7691791099, "lat": 2.298353, "lon": 44.7420332, "tags": {"place": "hamlet"}}, {"type": "node", "id": 7691791131, "lat": 2.2984897, "lon": 44.7408155, "tags": {"place": "hamlet"}}, {"type": "node", "id": 7691791132, "lat": 2.3038712, "lon": 44.7515014, "tags": {"place": "hamlet"}}, {"type": "node", "id": 7691791133, "lat": 2.3079341, "lon": 44.748044, "tags": {"place": "isolated_dwelling"}}, {"type": "node", "id": 7691791134, "lat": 2.3120426, "lon": 44.7324872, "tags": {"place": "isolated_dwelling"}}, {"type": "node", "id": 7691793643, "lat": 2.2817366, "lon": 44.6992573, "tags": {"place": "hamlet"}}, {"type": "node", "id": 7691807165, "lat": 2.3442642, "lon": 44.7381735, "tags": {"place": "isolated_dwelling"}}, {"type": "node", "id": 7691807166, "lat": 2.3423668, "lon": 44.7406062, "tags": {"place": "isolated_dwelling"}}, {"type": "node", "id": 7691807167, "lat": 2.3181638, "lon": 44.7410703, "tags": {"place": "hamlet"}}, {"type": "node", "id": 7691807168, "lat": 2.2850599, "lon": 44.714334, "tags": {"place": "hamlet"}}, {"type": "node", "id": 7691807183, "lat": 2.2923121, "lon": 44.7111851, "tags": {"place": "hamlet"}}, {"type": "node", "id": 7691807184, "lat": 2.2936334, "lon": 44.7098547, "tags": {"place": "isolated_dwelling"}}, {"type": "node", "id": 7691808096, "lat": 2.3147548, "lon": 44.7098762, "tags": {"place": "isolated_dwelling"}}, {"type": "node", "id": 7691808097, "lat": 2.3118175, "lon": 44.7108257, "tags": {"place": "hamlet"}}, {"type": "node", "id": 7691808098, "lat": 2.300095, "lon": 44.7207069, "tags": {"place": "hamlet"}}, {"type": "node", "id": 7691808099, "lat": 2.2998592, "lon": 44.7193766, "tags": {"place": "hamlet"}}, {"type": "node", "id": 7691808100, "lat": 2.2993232, "lon": 44.7175044, "tags": {"place": "village"}}, {"type": "node", "id": 7691836285, "lat": 2.2909024, "lon": 44.7122365, "tags": {"place": "hamlet"}}, {"type": "node", "id": 7691836286, "lat": 2.2563051, "lon": 44.7117081, "tags": {"place": "hamlet"}}, {"type": "node", "id": 7691836287, "lat": 2.2605316, "lon": 44.7080523, "tags": {"place": "hamlet"}}, {"type": "node", "id": 7691852832, "lat": 2.2744869, "lon": 44.6439716, "tags": {"place": "isolated_dwelling"}}, {"type": "node", "id": 7691852833, "lat": 2.2728816, "lon": 44.6451008, "tags": {"place": "isolated_dwelling"}}, {"type": "node", "id": 7692097303, "lat": 2.3306017, "lon": 44.7337934, "tags": {"place": "isolated_dwelling"}}, {"type": "node", "id": 7692097304, "lat": 2.3217523, "lon": 44.7466922, "tags": {"place": "hamlet"}}, {"type": "node", "id": 7692097377, "lat": 2.3341982, "lon": 44.747639, "tags": {"place": "isolated_dwelling"}}, {"type": "node", "id": 7692124841, "lat": 2.3255177, "lon": 44.7204494, "tags": {"place": "isolated_dwelling"}}, {"type": "node", "id": 7694263261, "lat": 2.2831088, "lon": 44.7391659, "tags": {"place": "isolated_dwelling"}}, {"type": "node", "id": 7694263262, "lat": 2.2841219, "lon": 44.7389299, "tags": {"place": "isolated_dwelling"}}, {"type": "node", "id": 7694263263, "lat": 2.2848348, "lon": 44.7416013, "tags": {"place": "isolated_dwelling"}}, {"type": "node", "id": 7694263266, "lat": 2.28841, "lon": 44.7375619, "tags": {"place": "isolated_dwelling"}}, {"type": "node", "id": 7694263267, "lat": 2.2867966, "lon": 44.7400671, "tags": {"place": "isolated_dwelling"}}, {"type": "node", "id": 7694807527, "lat": 2.2519659, "lon": 44.7139746, "tags": {"place": "isolated_dwelling"}}, {"type": "node", "id": 7694962170, "lat": 2.3393357, "lon": 44.7479609, "tags": {"place": "isolated_dwelling"}}, {"type": "node", "id": 7695194491, "lat": 2.3721168, "lon": 44.7206774, "tags": {"place": "isolated_dwelling"}}, {"type": "node", "id": 7695517918, "lat": 2.3621877, "lon": 44.6898186, "tags": {"place": "hamlet"}}, {"type": "node", "id": 7695517965, "lat": 2.3675556, "lon": 44.7026852, "tags": {"place": "hamlet"}}, {"type": "node", "id": 7695547847, "lat": 2.3170154, "lon": 44.693162, "tags": {"place": "isolated_dwelling"}}, {"type": "node", "id": 7695548002, "lat": 2.3275599, "lon": 44.6876782, "tags": {"place": "isolated_dwelling"}}, {"type": "node", "id": 7695548108, "lat": 2.3479626, "lon": 44.689934, "tags": {"place": "isolated_dwelling"}}, {"type": "node", "id": 7695548109, "lat": 2.3408473, "lon": 44.6886063, "tags": {"place": "hamlet"}}, {"type": "node", "id": 7699048259, "lat": 2.2974364, "lon": 44.7112548, "tags": {"place": "hamlet"}}, {"type": "node", "id": 7699048315, "lat": 2.2900261, "lon": 44.7020414, "tags": {"place": "isolated_dwelling"}}, {"type": "node", "id": 7699138105, "lat": 2.2901065, "lon": 44.7273803, "tags": {"place": "isolated_dwelling"}}, {"type": "node", "id": 7699138160, "lat": 2.2899162, "lon": 44.7011912, "tags": {"place": "isolated_dwelling"}}, {"type": "node", "id": 7699139487, "lat": 2.2848401, "lon": 44.7000432, "tags": {"place": "isolated_dwelling"}}, {"type": "node", "id": 7699139488, "lat": 2.2857889, "lon": 44.6981308, "tags": {"place": "isolated_dwelling"}}, {"type": "node", "id": 7699139489, "lat": 2.2846498, "lon": 44.697884, "tags": {"place": "hamlet"}}, {"type": "node", "id": 7699139577, "lat": 2.2808816, "lon": 44.7154552, "tags": {"place": "isolated_dwelling"}}, {"type": "node", "id": 7699308987, "lat": 2.3266514, "lon": 44.707202, "tags": {"place": "isolated_dwelling"}}, {"type": "node", "id": 7699309006, "lat": 2.3214146, "lon": 44.7110349, "tags": {"place": "isolated_dwelling"}}, {"type": "node", "id": 7699316405, "lat": 2.3034129, "lon": 44.6998769, "tags": {"place": "isolated_dwelling"}}, {"type": "node", "id": 7699316419, "lat": 2.3020515, "lon": 44.7019905, "tags": {"place": "hamlet"}}, {"type": "node", "id": 7699743483, "lat": 2.3119408, "lon": 44.6837461, "tags": {"place": "isolated_dwelling"}}, {"type": "node", "id": 7699743503, "lat": 2.3104909, "lon": 44.6833277, "tags": {"place": "hamlet"}}, {"type": "node", "id": 7699907101, "lat": 2.2840522, "lon": 44.6684951, "tags": {"place": "isolated_dwelling"}}, {"type": "node", "id": 7699907326, "lat": 2.3183755, "lon": 44.6753776, "tags": {"place": "hamlet"}}, {"type": "node", "id": 7699907392, "lat": 2.3191929, "lon": 44.6905348, "tags": {"place": "isolated_dwelling"}}, {"type": "node", "id": 7699907393, "lat": 2.3140285, "lon": 44.6838883, "tags": {"place": "isolated_dwelling"}}, {"type": "node", "id": 7699926428, "lat": 2.265061, "lon": 44.6660221, "tags": {"place": "isolated_dwelling"}}, {"type": "node", "id": 7701436774, "lat": 2.2554823, "lon": 44.665035, "tags": {"place": "isolated_dwelling"}}, {"type": "node", "id": 7701436780, "lat": 2.2588137, "lon": 44.6592575, "tags": {"place": "isolated_dwelling"}}, {"type": "node", "id": 7701436784, "lat": 2.2568196, "lon": 44.6569186, "tags": {"place": "isolated_dwelling"}}, {"type": "node", "id": 7701596260, "lat": 2.3186194, "lon": 44.6434057, "tags": {"place": "isolated_dwelling"}}, {"type": "node", "id": 7701596492, "lat": 2.3109224, "lon": 44.6537107, "tags": {"place": "isolated_dwelling"}}, {"type": "node", "id": 7701596493, "lat": 2.30843, "lon": 44.6542042, "tags": {"place": "isolated_dwelling"}}, {"type": "node", "id": 7709649336, "lat": 2.2563399, "lon": 44.6366787, "tags": {"place": "isolated_dwelling"}}, {"type": "node", "id": 7709847348, "lat": 2.2765238, "lon": 44.6248421, "tags": {"place": "hamlet"}}, {"type": "node", "id": 7709855929, "lat": 2.2840548, "lon": 44.6440467, "tags": {"place": "isolated_dwelling"}}, {"type": "node", "id": 7710086796, "lat": 2.2646268, "lon": 44.608317, "tags": {"place": "isolated_dwelling"}}, {"type": "node", "id": 7717213146, "lat": 2.3684507, "lon": 44.7541474, "tags": {"place": "hamlet"}}, {"type": "node", "id": 7719478921, "lat": 2.355847, "lon": 44.7328922, "tags": {"place": "hamlet"}}, {"type": "node", "id": 7743912381, "lat": 2.2617162, "lon": 44.9625563, "tags": {"place": "hamlet"}}, {"type": "node", "id": 7743912382, "lat": 2.2704856, "lon": 44.966762, "tags": {"place": "hamlet"}}, {"type": "node", "id": 7744143734, "lat": 2.261861, "lon": 44.9464846, "tags": {"place": "isolated_dwelling"}}, {"type": "node", "id": 7744143877, "lat": 2.2666208, "lon": 44.9498159, "tags": {"name": "Buslei", "place": "isolated_dwelling", "source:ref": "UNSOA II: E044N02_12, SPOT5 image based data capture using different Ancillary Sources coming from UNSOA field mission."}}, {"type": "node", "id": 7744224846, "lat": 2.2499665, "lon": 44.9348277, "tags": {"place": "hamlet"}}, {"type": "node", "id": 7744224847, "lat": 2.2510386, "lon": 44.9334866, "tags": {"alt_name": "Buluo Axmed Cali", "name": "Bulo Ahmed Ali", "pcode": "NA-3806-T32-002", "place": "hamlet"}}, {"type": "node", "id": 7744309459, "lat": 2.2857674, "lon": 44.9346453, "tags": {"name": "Hawal Wari", "pcode": "NA-3806-T32-005", "place": "village", "source": "UNDP - 2006"}}, {"type": "node", "id": 7744330688, "lat": 2.2722919, "lon": 44.929871, "tags": {"place": "hamlet", "source:ref": "UNSOA II: E044N02_12, SPOT5 image based data capture using different Ancillary Sources coming from UNSOA field mission."}}, {"type": "node", "id": 7755648944, "lat": 2.3149317, "lon": 44.9460125, "tags": {"place": "hamlet"}}, {"type": "node", "id": 7755648947, "lat": 2.3148352, "lon": 44.9383843, "tags": {"place": "hamlet"}}, {"type": "node", "id": 7755777065, "lat": 2.2993232, "lon": 44.9258315, "tags": {"place": "hamlet"}}, {"type": "node", "id": 7755777066, "lat": 2.3006203, "lon": 44.9346614, "tags": {"place": "hamlet", "source:ref": "UNSOA II: E044N02_12, SPOT5 image based data capture using different Ancillary Sources coming from UNSOA field mission."}}, {"type": "node", "id": 7755802127, "lat": 2.2919557, "lon": 44.9518463, "tags": {"place": "isolated_dwelling"}}, {"type": "node", "id": 7755985423, "lat": 2.2836207, "lon": 44.9412382, "tags": {"place": "isolated_dwelling"}}, {"type": "node", "id": 7755985425, "lat": 2.2963805, "lon": 44.9587476, "tags": {"place": "isolated_dwelling"}}, {"type": "node", "id": 7755985468, "lat": 2.2919369, "lon": 44.9135148, "tags": {"place": "isolated_dwelling"}}, {"type": "node", "id": 7755985469, "lat": 2.291476, "lon": 44.9140996, "tags": {"place": "isolated_dwelling"}}, {"type": "node", "id": 7755986642, "lat": 2.2546729, "lon": 44.9172592, "tags": {"place": "isolated_dwelling"}}, {"type": "node", "id": 7755986643, "lat": 2.2549945, "lon": 44.9154246, "tags": {"place": "isolated_dwelling"}}, {"type": "node", "id": 7755987433, "lat": 2.2670336, "lon": 44.9168622, "tags": {"place": "isolated_dwelling"}}, {"type": "node", "id": 7755987470, "lat": 2.2734122, "lon": 44.9167871, "tags": {"place": "hamlet"}}, {"type": "node", "id": 7756034461, "lat": 2.2537616, "lon": 44.9042237, "tags": {"place": "hamlet", "source:ref": "UNSOA II: E044N02_12, SPOT5 image based data capture using different Ancillary Sources coming from UNSOA field mission."}}, {"type": "node", "id": 7756040078, "lat": 2.249854, "lon": 44.9016595, "tags": {"place": "hamlet"}}, {"type": "node", "id": 7756081895, "lat": 2.2560183, "lon": 44.9095505, "tags": {"place": "isolated_dwelling"}}, {"type": "node", "id": 7756081896, "lat": 2.2583178, "lon": 44.9104196, "tags": {"place": "isolated_dwelling"}}, {"type": "node", "id": 7756081897, "lat": 2.2576076, "lon": 44.9097195, "tags": {"place": "hamlet"}}, {"type": "node", "id": 7756189125, "lat": 2.2773466, "lon": 44.9106288, "tags": {"place": "hamlet"}}, {"type": "node", "id": 7756189126, "lat": 2.2750953, "lon": 44.9149632, "tags": {"name": "Madeyta", "pcode": "NA-3806-T32-004", "place": "village", "source": "UNDP - 2006", "source:ref": "UNSOA II: E044N02_12, SPOT5 image based data capture using different Ancillary Sources coming from UNSOA field mission."}}, {"type": "node", "id": 7756197554, "lat": 2.288946, "lon": 44.9056801, "tags": {"place": "hamlet"}}, {"type": "node", "id": 7756197555, "lat": 2.291074, "lon": 44.9075603, "tags": {"place": "hamlet"}}, {"type": "node", "id": 7756197556, "lat": 2.2839075, "lon": 44.9164331, "tags": {"place": "hamlet"}}, {"type": "node", "id": 7756355653, "lat": 2.2638442, "lon": 44.8873177, "tags": {"place": "hamlet"}}, {"type": "node", "id": 7756362545, "lat": 2.2738518, "lon": 44.8921537, "tags": {"name": "Deg Dhaaran", "pcode": "NA-3806-T31-002", "place": "village", "source": "UNDP - 2006", "source:ref": "UNSOA II: E044N02_12, SPOT5 image based data capture using different Ancillary Sources coming from UNSOA field mission."}}, {"type": "node", "id": 7756362812, "lat": 2.2907068, "lon": 44.9034539, "tags": {"place": "hamlet"}}, {"type": "node", "id": 7756362813, "lat": 2.2892408, "lon": 44.9029604, "tags": {"place": "isolated_dwelling"}}, {"type": "node", "id": 7756362857, "lat": 2.2906773, "lon": 44.9008816, "tags": {"place": "hamlet"}}, {"type": "node", "id": 7756363070, "lat": 2.2741305, "lon": 44.9032688, "tags": {"alt_name": "Saabdooro", "name": "Saabdoro", "pcode": "NA-3806-T31-003", "place": "hamlet", "source": "UNDP - 2006", "source:ref": "UNSOA II: E044N02_12, SPOT5 image based data capture using different Ancillary Sources coming from UNSOA field mission."}}, {"type": "node", "id": 7756457645, "lat": 2.270448, "lon": 44.8713076, "tags": {"alt_name": "Bulo Aiheyda", "name": "Bulo Aiheyda", "pcode": "NA-3806-T31-001", "place": "hamlet", "source": "UNDP - 2006", "source:ref": "UNSOA II: E044N02_12, SPOT5 image based data capture using different Ancillary Sources coming from UNSOA field mission."}}, {"type": "node", "id": 7756476993, "lat": 2.2791101, "lon": 44.8734078, "tags": {"place": "isolated_dwelling"}}, {"type": "node", "id": 7756537202, "lat": 2.2737178, "lon": 44.8968369, "tags": {"place": "hamlet"}}, {"type": "node", "id": 7756537203, "lat": 2.2735194, "lon": 44.8981351, "tags": {"place": "hamlet"}}, {"type": "node", "id": 7756537204, "lat": 2.2725707, "lon": 44.897604, "tags": {"place": "hamlet"}}, {"type": "node", "id": 7756619312, "lat": 2.343136, "lon": 44.9566662, "tags": {"name": "Duduble", "place": "hamlet", "source:ref": "UNSOA II: E044N02_12, SPOT5 image based data capture using different Ancillary Sources coming from UNSOA field mission."}}, {"type": "node", "id": 7756619313, "lat": 2.3425196, "lon": 44.9635488, "tags": {"place": "hamlet"}}, {"type": "node", "id": 7756619363, "lat": 2.337985, "lon": 44.9589354, "tags": {"place": "isolated_dwelling"}}, {"type": "node", "id": 7756718230, "lat": 2.3458695, "lon": 44.9515486, "tags": {"place": "hamlet"}}, {"type": "node", "id": 7756718231, "lat": 2.3427822, "lon": 44.950304, "tags": {"name": "Duduble", "pcode": "NA-3806-R32-001", "place": "hamlet", "source": "UNDP - 1997", "source:ref": "UNSOA II: E044N02_12, SPOT5 image based data capture using different Ancillary Sources coming from UNSOA field mission."}}, {"type": "node", "id": 7756861143, "lat": 2.3035255, "lon": 44.911648, "tags": {"place": "isolated_dwelling"}}, {"type": "node", "id": 7756861144, "lat": 2.3049191, "lon": 44.9109828, "tags": {"place": "hamlet"}}, {"type": "node", "id": 7756881303, "lat": 2.3437791, "lon": 44.9244261, "tags": {"place": "hamlet"}}, {"type": "node", "id": 7756881430, "lat": 2.3250997, "lon": 44.9401331, "tags": {"place": "hamlet"}}, {"type": "node", "id": 7756881574, "lat": 2.330465, "lon": 44.9302947, "tags": {"place": "hamlet"}}, {"type": "node", "id": 7756883109, "lat": 2.3592264, "lon": 44.9871173, "tags": {"place": "hamlet"}}, {"type": "node", "id": 7756883507, "lat": 2.3701605, "lon": 44.9800873, "tags": {"place": "hamlet"}}, {"type": "node", "id": 7756883508, "lat": 2.3713235, "lon": 44.9807203, "tags": {"place": "hamlet"}}, {"type": "node", "id": 7756883597, "lat": 2.3698014, "lon": 44.9834561, "tags": {"place": "hamlet"}}, {"type": "node", "id": 7756917125, "lat": 2.3068916, "lon": 44.8957372, "tags": {"place": "hamlet"}}, {"type": "node", "id": 7756936709, "lat": 2.3096092, "lon": 44.8766988, "tags": {"place": "isolated_dwelling"}}, {"type": "node", "id": 7756936723, "lat": 2.3116245, "lon": 44.8840374, "tags": {"place": "hamlet"}}, {"type": "node", "id": 7756986535, "lat": 2.3288838, "lon": 44.8737699, "tags": {"place": "hamlet"}}, {"type": "node", "id": 7756986536, "lat": 2.3279673, "lon": 44.8748696, "tags": {"place": "isolated_dwelling"}}, {"type": "node", "id": 7756997449, "lat": 2.3246655, "lon": 44.8857057, "tags": {"place": "hamlet"}}, {"type": "node", "id": 7760505074, "lat": 2.3453603, "lon": 44.9059725, "tags": {"name": "Garas Buulle", "place": "isolated_dwelling", "source:ref": "UNSOA II: E044N02_12, SPOT5 image based data capture using different Ancillary Sources coming from UNSOA field mission."}}, {"type": "node", "id": 7760527341, "lat": 2.3531429, "lon": 44.8970595, "tags": {"place": "hamlet"}}, {"type": "node", "id": 7760527342, "lat": 2.3519262, "lon": 44.8821115, "tags": {"place": "isolated_dwelling"}}, {"type": "node", "id": 7760544338, "lat": 2.3526605, "lon": 44.8886561, "tags": {"place": "hamlet"}}, {"type": "node", "id": 7760964468, "lat": 2.3609201, "lon": 44.8841634, "tags": {"place": "isolated_dwelling"}}, {"type": "node", "id": 7765625671, "lat": 2.3832491, "lon": 44.8855984, "tags": {"place": "isolated_dwelling"}}, {"type": "node", "id": 7765634167, "lat": 2.4046693, "lon": 44.9705681, "tags": {"place": "isolated_dwelling"}}, {"type": "node", "id": 7765730398, "lat": 2.3326733, "lon": 44.9381992, "tags": {"place": "hamlet"}}, {"type": "node", "id": 7765730399, "lat": 2.3290902, "lon": 44.932002, "tags": {"place": "isolated_dwelling"}}, {"type": "node", "id": 7765730400, "lat": 2.3080494, "lon": 44.9269259, "tags": {"place": "hamlet"}}, {"type": "node", "id": 7765730401, "lat": 2.3721168, "lon": 44.9157894, "tags": {"place": "hamlet"}}, {"type": "node", "id": 7765730402, "lat": 2.3729315, "lon": 44.9215803, "tags": {"place": "hamlet"}}, {"type": "node", "id": 7765730403, "lat": 2.3580794, "lon": 44.9107093, "tags": {"place": "isolated_dwelling"}}, {"type": "node", "id": 7765730404, "lat": 2.3746198, "lon": 44.9280792, "tags": {"place": "hamlet"}}, {"type": "node", "id": 7765730405, "lat": 2.3750861, "lon": 44.9293841, "tags": {"place": "isolated_dwelling"}}, {"type": "node", "id": 7765730406, "lat": 2.3854305, "lon": 44.9098402, "tags": {"place": "isolated_dwelling"}}, {"type": "node", "id": 7765743541, "lat": 2.3431252, "lon": 44.8788473, "tags": {"place": "isolated_dwelling"}}, {"type": "node", "id": 7765743542, "lat": 2.3310948, "lon": 44.8922181, "tags": {"place": "isolated_dwelling"}}, {"type": "node", "id": 7765743543, "lat": 2.37276, "lon": 44.8732549, "tags": {"place": "hamlet"}}, {"type": "node", "id": 7765743544, "lat": 2.3708653, "lon": 44.8717502, "tags": {"place": "isolated_dwelling"}}, {"type": "node", "id": 7765743545, "lat": 2.3349191, "lon": 44.8850486, "tags": {"place": "isolated_dwelling"}}, {"type": "node", "id": 7769016244, "lat": 2.3963805, "lon": 44.8817039, "tags": {"place": "isolated_dwelling"}}, {"type": "node", "id": 7769492350, "lat": 2.3032521, "lon": 44.8397595, "tags": {"place": "hamlet"}}, {"type": "node", "id": 7769772138, "lat": 2.308497, "lon": 44.8683062, "tags": {"place": "isolated_dwelling"}}, {"type": "node", "id": 7769772139, "lat": 2.2512852, "lon": 44.8470283, "tags": {"place": "hamlet"}}, {"type": "node", "id": 7769772140, "lat": 2.2493072, "lon": 44.8449469, "tags": {"place": "hamlet"}}, {"type": "node", "id": 7769772141, "lat": 2.2515666, "lon": 44.8164001, "tags": {"place": "hamlet"}}, {"type": "node", "id": 7769772142, "lat": 2.2772206, "lon": 44.8672441, "tags": {"place": "hamlet", "source:ref": "UNSOA II: E044N02_12, SPOT5 image based data capture using different Ancillary Sources coming from UNSOA field mission."}}, {"type": "node", "id": 7769772143, "lat": 2.2690463, "lon": 44.8477283, "tags": {"place": "hamlet"}}, {"type": "node", "id": 7769772144, "lat": 2.2638121, "lon": 44.8432893, "tags": {"place": "hamlet"}}, {"type": "node", "id": 7769772146, "lat": 2.2637585, "lon": 44.8413581, "tags": {"place": "hamlet"}}, {"type": "node", "id": 7769772147, "lat": 2.2546166, "lon": 44.8321795, "tags": {"place": "hamlet"}}, {"type": "node", "id": 7769772148, "lat": 2.2734203, "lon": 44.8351005, "tags": {"place": "isolated_dwelling"}}, {"type": "node", "id": 7769772149, "lat": 2.2722129, "lon": 44.8301236, "tags": {"place": "isolated_dwelling"}}, {"type": "node", "id": 7769772150, "lat": 2.2545978, "lon": 44.8472965, "tags": {"place": "hamlet"}}, {"type": "node", "id": 7769772151, "lat": 2.276757, "lon": 44.8715195, "tags": {"place": "hamlet", "source:ref": "UNSOA II: E044N02_12, SPOT5 image based data capture using different Ancillary Sources coming from UNSOA field mission."}}, {"type": "node", "id": 7769772152, "lat": 2.2787242, "lon": 44.8497909, "tags": {"place": "hamlet"}}, {"type": "node", "id": 7769772153, "lat": 2.2929071, "lon": 44.835079, "tags": {"place": "hamlet", "source:ref": "UNSOA II: E044N02_12, SPOT5 image based data capture using different Ancillary Sources coming from UNSOA field mission."}}, {"type": "node", "id": 7769772154, "lat": 2.2918029, "lon": 44.8592967, "tags": {"place": "hamlet"}}, {"type": "node", "id": 7769772155, "lat": 2.2989212, "lon": 44.8394644, "tags": {"place": "hamlet"}}, {"type": "node", "id": 7769772156, "lat": 2.2978411, "lon": 44.8367822, "tags": {"place": "hamlet"}}, {"type": "node", "id": 7769772157, "lat": 2.2553429, "lon": 44.8279685, "tags": {"place": "hamlet", "source:ref": "UNSOA II: SPOT5 image based data capture using different Ancillary Sources coming from UNSOA field mission."}}, {"type": "node", "id": 7769772158, "lat": 2.2780488, "lon": 44.8345613, "tags": {"place": "isolated_dwelling"}}, {"type": "node", "id": 7769772159, "lat": 2.2795443, "lon": 44.8347008, "tags": {"place": "hamlet"}}, {"type": "node", "id": 7769776967, "lat": 2.3690027, "lon": 44.8399097, "tags": {"place": "isolated_dwelling"}}, {"type": "node", "id": 7769777211, "lat": 2.3643665, "lon": 44.8308277, "tags": {"place": "isolated_dwelling"}}, {"type": "node", "id": 7769777212, "lat": 2.3657493, "lon": 44.8325443, "tags": {"place": "hamlet", "source:ref": "UNSOA II: E044N02_12, SPOT5 image based data capture using different Ancillary Sources coming from UNSOA field mission."}}, {"type": "node", "id": 7769777213, "lat": 2.3660977, "lon": 44.8311067, "tags": {"place": "hamlet", "source:ref": "UNSOA II: E044N02_12, SPOT5 image based data capture using different Ancillary Sources coming from UNSOA field mission."}}, {"type": "node", "id": 7769777214, "lat": 2.3654331, "lon": 44.8300016, "tags": {"place": "hamlet"}}, {"type": "node", "id": 7769777215, "lat": 2.356316, "lon": 44.8585296, "tags": {"place": "hamlet", "source:ref": "UNSOA II: E044N02_12, SPOT5 image based data capture using different Ancillary Sources coming from UNSOA field mission."}}, {"type": "node", "id": 7769777216, "lat": 2.313321, "lon": 44.8232236, "tags": {"place": "hamlet", "source:ref": "UNSOA II: E044N02_12, SPOT5 image based data capture using different Ancillary Sources coming from UNSOA field mission."}}, {"type": "node", "id": 7770040645, "lat": 2.3455024, "lon": 44.7637215, "tags": {"place": "hamlet", "source:ref": "UNSOA II: E044N02_12, SPOT5 image based data capture using different Ancillary Sources coming from UNSOA field mission."}}, {"type": "node", "id": 7770090313, "lat": 2.3263405, "lon": 44.7574988, "tags": {"place": "isolated_dwelling"}}, {"type": "node", "id": 7770090314, "lat": 2.3257884, "lon": 44.7566177, "tags": {"place": "isolated_dwelling"}}, {"type": "node", "id": 7770090315, "lat": 2.3239285, "lon": 44.7578073, "tags": {"place": "isolated_dwelling"}}, {"type": "node", "id": 7770090316, "lat": 2.3238615, "lon": 44.7543955, "tags": {"place": "hamlet"}}, {"type": "node", "id": 7770090354, "lat": 2.3687991, "lon": 44.7645369, "tags": {"place": "hamlet", "source:ref": "UNSOA II: E044N02_12, SPOT5 image based data capture using different Ancillary Sources coming from UNSOA field mission."}}, {"type": "node", "id": 7770090355, "lat": 2.3599392, "lon": 44.7668704, "tags": {"place": "hamlet", "source:ref": "UNSOA II: E044N02_12, SPOT5 image based data capture using different Ancillary Sources coming from UNSOA field mission."}}, {"type": "node", "id": 7770090356, "lat": 2.3604002, "lon": 44.7651324, "tags": {"place": "hamlet"}}, {"type": "node", "id": 7770090357, "lat": 2.3568868, "lon": 44.7591054, "tags": {"place": "hamlet"}}, {"type": "node", "id": 7770090358, "lat": 2.3559247, "lon": 44.7699147, "tags": {"place": "hamlet"}}, {"type": "node", "id": 7770090359, "lat": 2.3517815, "lon": 44.7650868, "tags": {"place": "hamlet"}}, {"type": "node", "id": 7770090360, "lat": 2.3749897, "lon": 44.7768724, "tags": {"place": "hamlet"}}, {"type": "node", "id": 7770090375, "lat": 2.3711762, "lon": 44.7705102, "tags": {"place": "hamlet", "source:ref": "UNSOA II: E044N02_12, SPOT5 image based data capture using different Ancillary Sources coming from UNSOA field mission."}}, {"type": "node", "id": 7770090376, "lat": 2.3775838, "lon": 44.7644484, "tags": {"place": "hamlet"}}, {"type": "node", "id": 7770090377, "lat": 2.3760455, "lon": 44.7666317, "tags": {"place": "hamlet", "source:ref": "UNSOA II: E044N02_12, SPOT5 image based data capture using different Ancillary Sources coming from UNSOA field mission."}}, {"type": "node", "id": 7770090378, "lat": 2.3752845, "lon": 44.7668302, "tags": {"place": "isolated_dwelling"}}, {"type": "node", "id": 7770090379, "lat": 2.3746466, "lon": 44.766342, "tags": {"place": "isolated_dwelling"}}, {"type": "node", "id": 7770090380, "lat": 2.3723741, "lon": 44.7628659, "tags": {"place": "isolated_dwelling", "source:ref": "UNSOA II: E044N02_12, SPOT5 image based data capture using different Ancillary Sources coming from UNSOA field mission."}}, {"type": "node", "id": 7770090381, "lat": 2.3694208, "lon": 44.7515953, "tags": {"place": "isolated_dwelling"}}, {"type": "node", "id": 7770090382, "lat": 2.3709698, "lon": 44.751606, "tags": {"place": "hamlet"}}, {"type": "node", "id": 7770090434, "lat": 2.3493025, "lon": 44.7702205, "tags": {"place": "hamlet"}}, {"type": "node", "id": 7770092297, "lat": 2.4042593, "lon": 44.8663723, "tags": {"place": "hamlet"}}, {"type": "node", "id": 7770104643, "lat": 2.3591085, "lon": 44.8275715, "tags": {"place": "hamlet", "source:ref": "UNSOA II: E044N02_12, SPOT5 image based data capture using different Ancillary Sources coming from UNSOA field mission."}}, {"type": "node", "id": 7780167230, "lat": 2.3992212, "lon": 44.8132861, "tags": {"place": "hamlet"}}, {"type": "node", "id": 7780167231, "lat": 2.4019975, "lon": 44.8134255, "tags": {"place": "isolated_dwelling", "source:ref": "UNSOA II: E044N02_12, SPOT5 image based data capture using different Ancillary Sources coming from UNSOA field mission."}}, {"type": "node", "id": 7780167232, "lat": 2.4039806, "lon": 44.8140156, "tags": {"place": "hamlet", "source:ref": "UNSOA II: E044N02_12, SPOT5 image based data capture using different Ancillary Sources coming from UNSOA field mission."}}, {"type": "node", "id": 7780167233, "lat": 2.4058565, "lon": 44.8094559, "tags": {"name": "Doonka Aw Guudle", "pcode": "NA-3806-Q29-008", "place": "hamlet", "source": "UNDP - 2006", "source:ref": "UNSOA II: E044N02_12, SPOT5 image based data capture using different Ancillary Sources coming from UNSOA field mission."}}, {"type": "node", "id": 7780448860, "lat": 2.3696674, "lon": 44.8029756, "tags": {"place": "hamlet", "source:ref": "UNSOA II: E044N02_12, SPOT5 image based data capture using different Ancillary Sources coming from UNSOA field mission."}}, {"type": "node", "id": 7780455798, "lat": 2.3734782, "lon": 44.8115051, "tags": {"place": "hamlet", "source:ref": "UNSOA II: E044N02_12, SPOT5 image based data capture using different Ancillary Sources coming from UNSOA field mission."}}, {"type": "node", "id": 7780455799, "lat": 2.3741696, "lon": 44.8095631, "tags": {"name": "Amad Aliyow", "pcode": "NA-3806-R29-009", "place": "hamlet", "source": "UNDP - 2006", "source:ref": "UNSOA II: E044N02_12, SPOT5 image based data capture using different Ancillary Sources coming from UNSOA field mission."}}, {"type": "node", "id": 7780456053, "lat": 2.3854681, "lon": 44.823339, "tags": {"place": "hamlet"}}, {"type": "node", "id": 7780456141, "lat": 2.3827453, "lon": 44.8267293, "tags": {"place": "hamlet", "source:ref": "UNSOA II: E044N02_12, SPOT5 image based data capture using different Ancillary Sources coming from UNSOA field mission."}}, {"type": "node", "id": 7780456285, "lat": 2.3857414, "lon": 44.8333919, "tags": {"place": "hamlet", "source:ref": "UNSOA II: E044N02_12, SPOT5 image based data capture using different Ancillary Sources coming from UNSOA field mission."}}, {"type": "node", "id": 7780456286, "lat": 2.3829061, "lon": 44.8356664, "tags": {"place": "hamlet", "source:ref": "UNSOA II: E044N02_12, SPOT5 image based data capture using different Ancillary Sources coming from UNSOA field mission."}}, {"type": "node", "id": 7780456287, "lat": 2.4027586, "lon": 44.8461109, "tags": {"alt_name": "Buulo Abdille Cusman", "name": "Bulo Abdille Usman", "pcode": "NA-3806-Q30-010", "place": "hamlet", "source": "UNDP - 2006", "source:ref": "UNSOA II: E044N02_12, SPOT5 image based data capture using different Ancillary Sources coming from UNSOA field mission."}}, {"type": "node", "id": 7780456288, "lat": 2.4032731, "lon": 44.8486912, "tags": {"name": "\u0628\u0627\u0643\u0648\u0644 Bakool", "name:ar": "\u0628\u0627\u0643\u0648\u0644", "name:en": "Bakool", "name:fr": "Bakool", "pcode": "NA-3806-Q30-011", "place": "hamlet", "source": "UNDP - 2006", "source:ref": "UNSOA II: E044N02_12, SPOT5 image based data capture using different Ancillary Sources coming from UNSOA field mission."}}, {"type": "node", "id": 7780456543, "lat": 2.4056099, "lon": 44.8356128, "tags": {"place": "hamlet", "source:ref": "UNSOA II: E044N02_12, SPOT5 image based data capture using different Ancillary Sources coming from UNSOA field mission."}}, {"type": "node", "id": 7780529894, "lat": 2.4006951, "lon": 44.7880197, "tags": {"place": "isolated_dwelling"}},