{"version": 0.6, "generator": "Overpass API 0.7.62.1 084b4234", "osm3s": {"timestamp_osm_base": "2024-09-30T23:01:43Z", "copyright": "The data included in this document is from www.openstreetmap.org. The data is made available under ODbL."}, "elements": [{"type": "node", "id": 1150881675, "lat": 9.45, "lon": 41.4, "tags": {"is_in:country": "Ethiopia", "is_in:country_code": "ET", "name": "Dube", "place": "locality", "source": "GeoDatabase"}}, {"type": "node", "id": 1150884290, "lat": 9.5, "lon": 41.33333, "tags": {"is_in:country": "Ethiopia", "is_in:country_code": "ET", "name": "Usman Ejersa Shet'", "place": "locality", "source": "GeoDatabase"}}, {"type": "node", "id": 1150885466, "lat": 9.41667, "lon": 41.5, "tags": {"is_in:country": "Ethiopia", "is_in:country_code": "ET", "name": "Bishan K'Elo", "place": "locality", "source": "GeoDatabase"}}, {"type": "node", "id": 1150885478, "lat": 9.46667, "lon": 41.3, "tags": {"is_in:country": "Ethiopia", "is_in:country_code": "ET", "name": "Ama Yusefo", "place": "locality", "source": "GeoDatabase"}}, {"type": "node", "id": 1150886437, "lat": 9.6455026, "lon": 41.4736252, "tags": {"is_in:country": "Ethiopia", "is_in:country_code": "ET", "name": "Gerbe Leku Shet'", "place": "locality", "source": "GeoDatabase"}}, {"type": "node", "id": 1150891748, "lat": 9.51667, "lon": 41.38333, "tags": {"is_in:country": "Ethiopia", "is_in:country_code": "ET", "name": "Erer Hotel", "place": "locality", "source": "GeoDatabase"}}, {"type": "node", "id": 1150893751, "lat": 9.73333, "lon": 41.45, "tags": {"is_in:country": "Ethiopia", "is_in:country_code": "ET", "name": "Hulo Shet'", "place": "locality", "source": "GeoDatabase"}}, {"type": "node", "id": 1150898266, "lat": 9.5309239, "lon": 41.1973586, "tags": {"name": "Bike", "name:fr": "Bike", "place": "town", "wikidata": "Q2902556", "wikipedia": "en:Bike, Ethiopia"}}, {"type": "node", "id": 1150898406, "lat": 9.53333, "lon": 41.4, "tags": {"is_in:country": "Ethiopia", "is_in:country_code": "ET", "name": "Yarar Sata", "place": "locality", "source": "GeoDatabase"}}, {"type": "node", "id": 1150899839, "lat": 9.66667, "lon": 41.25, "tags": {"is_in:country": "Ethiopia", "is_in:country_code": "ET", "name": "Aktimu", "place": "locality", "source": "GeoDatabase"}}, {"type": "node", "id": 1150903281, "lat": 9.53333, "lon": 41.21667, "tags": {"is_in:country": "Ethiopia", "is_in:country_code": "ET", "name": "Hula Bora Shet'", "place": "locality", "source": "GeoDatabase"}}, {"type": "node", "id": 1150908145, "lat": 9.43333, "lon": 41.5, "tags": {"is_in:country": "Ethiopia", "is_in:country_code": "ET", "name": "Gultu Shet'", "place": "locality", "source": "GeoDatabase"}}, {"type": "node", "id": 1150908180, "lat": 9.45, "lon": 41.35, "tags": {"is_in:country": "Ethiopia", "is_in:country_code": "ET", "name": "Usman Wariye", "place": "locality", "source": "GeoDatabase"}}, {"type": "node", "id": 1150908370, "lat": 9.41667, "lon": 41.21667, "tags": {"is_in:country": "Ethiopia", "is_in:country_code": "ET", "name": "Sebelo", "place": "locality", "source": "GeoDatabase"}}, {"type": "node", "id": 1150917162, "lat": 9.4, "lon": 41.23333, "tags": {"is_in:country": "Ethiopia", "is_in:country_code": "ET", "name": "Bate", "place": "locality", "source": "GeoDatabase"}}, {"type": "node", "id": 1150921346, "lat": 9.5, "lon": 41.5, "tags": {"is_in:country": "Ethiopia", "is_in:country_code": "ET", "name": "Harerge Kifle Hager", "place": "locality", "source": "GeoDatabase"}}, {"type": "node", "id": 1150929973, "lat": 9.58333, "lon": 41.23333, "tags": {"is_in:country": "Ethiopia", "is_in:country_code": "ET", "name": "Bike Shet'", "place": "locality", "source": "GeoDatabase"}}, {"type": "node", "id": 1150931560, "lat": 9.5572445, "lon": 41.3853974, "tags": {"is_in:country": "Ethiopia", "is_in:country_code": "ET", "name": "Erer", "name:am": "\u12a4\u1228\u122d", "name:de": "Erer", "place": "town", "source": "GeoDatabase", "wikidata": "Q1350024", "wikipedia": "en:Erer"}}, {"type": "node", "id": 1150935407, "lat": 9.68333, "lon": 41.46667, "tags": {"is_in:country": "Ethiopia", "is_in:country_code": "ET", "name": "Okfale", "place": "locality", "source": "GeoDatabase"}}, {"type": "node", "id": 1150936150, "lat": 9.68333, "lon": 41.26667, "tags": {"is_in:country": "Ethiopia", "is_in:country_code": "ET", "name": "Hame'Isa Shet'", "place": "locality", "source": "GeoDatabase"}}, {"type": "node", "id": 1150947710, "lat": 9.45, "lon": 41.38333, "tags": {"is_in:country": "Ethiopia", "is_in:country_code": "ET", "name": "Usman Ejersa", "place": "locality", "source": "GeoDatabase"}}, {"type": "node", "id": 1150947974, "lat": 9.45, "lon": 41.2, "tags": {"is_in:country": "Ethiopia", "is_in:country_code": "ET", "name": "Gorogutu", "place": "locality", "source": "GeoDatabase"}}, {"type": "node", "id": 1150959132, "lat": 9.41667, "lon": 41.48333, "tags": {"is_in:country": "Ethiopia", "is_in:country_code": "ET", "name": "Medisa Shet'", "place": "locality", "source": "GeoDatabase"}}, {"type": "node", "id": 1150959196, "lat": 9.43333, "lon": 41.3, "tags": {"is_in:country": "Ethiopia", "is_in:country_code": "ET", "name": "Ali Ibrahim", "place": "locality", "source": "GeoDatabase"}}, {"type": "node", "id": 1150963255, "lat": 9.51667, "lon": 41.51667, "tags": {"is_in:country": "Ethiopia", "is_in:country_code": "ET", "name": "Sure", "place": "locality", "source": "GeoDatabase"}}, {"type": "node", "id": 1150973909, "lat": 9.5214125, "lon": 41.3368319, "tags": {"is_in:country": "Ethiopia", "is_in:country_code": "ET", "name": "Gotha", "place": "village", "source": "GeoDatabase", "wikidata": "Q5587766"}}, {"type": "node", "id": 1150977950, "lat": 9.48333, "lon": 41.45, "tags": {"is_in:country": "Ethiopia", "is_in:country_code": "ET", "name": "Buro \u0628\u0631\u0639\u0648", "name:ar": "\u0628\u0631\u0639\u0648", "place": "locality", "source": "GeoDatabase"}}, {"type": "node", "id": 1150979924, "lat": 9.73333, "lon": 41.4, "tags": {"is_in:country": "Ethiopia", "is_in:country_code": "ET", "name": "Hofele Shet'", "place": "locality", "source": "GeoDatabase"}}, {"type": "node", "id": 1151004644, "lat": 9.5, "lon": 41.2, "tags": {"is_in:country": "Ethiopia", "is_in:country_code": "ET", "name": "Bate Shet'", "place": "locality", "source": "GeoDatabase"}}, {"type": "node", "id": 1912655140, "lat": 9.5317077, "lon": 41.433124, "tags": {"place": "village"}}, {"type": "node", "id": 1912655148, "lat": 9.5617979, "lon": 41.5120786, "tags": {"place": "village"}}, {"type": "node", "id": 1912655257, "lat": 9.5314744, "lon": 41.4044995, "tags": {"place": "village"}}, {"type": "node", "id": 1912655332, "lat": 9.5380767, "lon": 41.4374048, "tags": {"place": "village"}}, {"type": "node", "id": 1912655337, "lat": 9.5206412, "lon": 41.4193385, "tags": {"place": "village"}}, {"type": "node", "id": 3330065611, "lat": 9.4744444, "lon": 41.5013889, "tags": {"amenity": "school", "name": "Boreda HSS (Menschen fuer Menschen)", "note": "Boreda HSS (Menschen fuer Menschen)", "place": "locality"}}, {"type": "node", "id": 10289803317, "lat": 9.4830738, "lon": 41.4542025, "tags": {"place": "hamlet"}}, {"type": "node", "id": 10289808802, "lat": 9.4916435, "lon": 41.4812551, "tags": {"place": "hamlet"}}, {"type": "node", "id": 10289847816, "lat": 9.5099262, "lon": 41.4904499, "tags": {"place": "hamlet"}}, {"type": "node", "id": 10377988715, "lat": 9.4451635, "lon": 41.197, "tags": {"place": "village"}}]}