{"version": 0.6, "generator": "Overpass API 0.7.62.1 084b4234", "osm3s": {"timestamp_osm_base": "2024-09-30T20:05:59Z", "copyright": "The data included in this document is from www.openstreetmap.org. The data is made available under ODbL."}, "elements": [{"type": "node", "id": 1404221604, "lat": 9.421187, "lon": 48.915591, "tags": {"alt_name": "Wailo", "fixme": "Please, check location!", "name": "Weylo", "pcode": "NC-3909-P21-001", "place": "hamlet", "source": "GTZ - 2002, UNDP - 1997"}}, {"type": "node", "id": 1404221751, "lat": 9.4950356, "lon": 49.0430526, "tags": {"name": "Kheyra Xerta", "pcode": "NC-3909-N23-001", "place": "hamlet", "source": "GTZ - 2002, UNDP - 1997"}}, {"type": "node", "id": 1404221871, "lat": 9.619, "lon": 49.0774, "tags": {"fixme": "Please, check location!", "name": "El Harre", "pcode": "NC-3909-K24-002", "place": "village", "source": "UNDP - 1997"}}, {"type": "node", "id": 1404223043, "lat": 9.459579, "lon": 49.059119, "tags": {"alt_name": "Kal Noolaatay", "fixme": "Please, check location!", "name": "Kalnool", "pcode": "NC-3909-N24-001", "place": "hamlet", "source": "GTZ - 2002, UNDP - 1997"}}, {"type": "node", "id": 1404223520, "lat": 9.427095, "lon": 49.002487, "tags": {"alt_name": "Aad", "fixme": "Please, check location!", "name": "Cad", "pcode": "NC-3909-P23-001", "place": "hamlet", "source": "GTZ - 2002, UNDP - 1997"}}, {"type": "node", "id": 1404224193, "lat": 9.4542702, "lon": 48.8562112, "tags": {"name": "Carmo", "pcode": "NC-3909-P19-001", "place": "village", "source": "UNDP - 2006"}}, {"type": "node", "id": 1404225970, "lat": 9.6024, "lon": 49.0779, "tags": {"fixme": "Please, check location!", "name": "El Aragghelo", "pcode": "NC-3909-K24-001", "place": "village", "source": "UNDP - 1997"}}, {"type": "node", "id": 1404226410, "lat": 9.5193271, "lon": 48.8531268, "tags": {"name": "Higlo Ceelcowsle", "pcode": "NC-3909-M19-001", "place": "village", "source": "UNDP - 2006"}}, {"type": "node", "id": 1404226749, "lat": 9.5022489, "lon": 49.0639225, "tags": {"name": "Kubo", "pcode": "NC-3909-M24-002", "place": "village", "source": "UNDP - 1997"}}, {"type": "node", "id": 1404233328, "lat": 9.3618493, "lon": 49.0002312, "tags": {"alt_name": "Dahan", "name": "Dhaxan", "pcode": "NC-3909-R22-001", "place": "village", "source": "UNDP - 2006, GTZ - 2002, UNDP - 1997"}}, {"type": "node", "id": 1404233597, "lat": 9.4999948, "lon": 49.0476067, "tags": {"name": "Xerta Kubo", "pcode": "NC-3909-M24-004", "place": "village", "source": "UNDP - 2006"}}]}