{"version": 0.6, "generator": "Overpass API 0.7.62.1 084b4234", "osm3s": {"timestamp_osm_base": "2024-09-30T18:25:42Z", "copyright": "The data included in this document is from www.openstreetmap.org. The data is made available under ODbL."}, "elements": [{"type": "node", "id": 44927929, "lat": 0.3166, "lon": 35.1833, "tags": {"created_by": "JOSM", "is_in": "Nandi,Kenya", "name": "Miti ya Hunter", "place": "village"}}, {"type": "node", "id": 44990075, "lat": 0.3166, "lon": 35.1833, "tags": {"created_by": "JOSM", "is_in": "Nandi,Kenya", "name": "Kibanta", "place": "village"}}, {"type": "node", "id": 44998785, "lat": 0.4333, "lon": 35.1166, "tags": {"name": "Kabisaga", "place": "village", "wikidata": "Q6344257"}}, {"type": "node", "id": 45001463, "lat": 0.3166, "lon": 35.1833, "tags": {"created_by": "JOSM", "is_in": "Nandi,Kenya", "name": "Hunters Tree", "place": "village"}}, {"type": "node", "id": 45003212, "lat": 0.35, "lon": 35.1166, "tags": {"is_in": "Nandi,Kenya", "name": "Chemuswa", "place": "village", "wikidata": "Q5090686"}}, {"type": "node", "id": 45003217, "lat": 0.35, "lon": 35.1166, "tags": {"created_by": "JOSM", "is_in": "Nandi,Kenya", "name": "Chemuswo", "place": "village"}}, {"type": "node", "id": 1977102752, "lat": 0.3999255, "lon": 35.431687, "tags": {"name": "Cheploske", "place": "village"}}, {"type": "node", "id": 2275370590, "lat": 0.229073, "lon": 35.1436814, "tags": {"name": "Chepterit", "place": "hamlet"}}, {"type": "node", "id": 2275370595, "lat": 0.2717057, "lon": 35.1451758, "tags": {"name": "Kosirai", "place": "hamlet"}}, {"type": "node", "id": 2275370828, "lat": 0.2361085, "lon": 35.1327157, "tags": {"name": "Sekul", "place": "hamlet"}}, {"type": "node", "id": 2275370833, "lat": 0.2314941, "lon": 35.1068544, "tags": {"name": "Tilolwa", "place": "hamlet"}}, {"type": "node", "id": 2275401722, "lat": 0.3184601, "lon": 35.1678261, "tags": {"name": "Musoriot", "place": "village"}}, {"type": "node", "id": 2491657349, "lat": 0.5184402, "lon": 35.3000295, "tags": {"name": "Kapsoya Estate", "place": "yes"}}, {"type": "node", "id": 2689551456, "lat": 0.5198329, "lon": 35.2715481, "tags": {"alt_name": "Sisibo", "name": "Eldoret", "name:en": "Eldoret", "name:ko": "\uc5d8\ub3c4\ub808\ud2b8", "name:ru": "\u042d\u043b\u0434\u043e\u0440\u0435\u0442", "name:uk": "\u0415\u043b\u0434\u043e\u0440\u0435\u0442", "place": "city", "population": "193830", "source:population": "French Wikipedia", "wikidata": "Q322149", "wikipedia": "en:Eldoret"}}, {"type": "node", "id": 5200392574, "lat": 0.4340128, "lon": 35.1091578, "tags": {"place": "village"}}, {"type": "node", "id": 7895989542, "lat": 0.3942512, "lon": 35.3294133, "tags": {"name": "Ngeria", "place": "village"}}, {"type": "node", "id": 7895989543, "lat": 0.4213518, "lon": 35.314616, "tags": {"name": "Cheplaskei", "place": "village"}}, {"type": "node", "id": 7895989562, "lat": 0.4473245, "lon": 35.2399442, "tags": {"name": "Kapsaret", "place": "village"}}, {"type": "node", "id": 7896001321, "lat": 0.4492278, "lon": 35.2998438, "tags": {"name": "Outspan", "place": "village"}}, {"type": "node", "id": 7896001325, "lat": 0.5267205, "lon": 35.2116943, "tags": {"name": "Kipkenyo", "place": "village"}}, {"type": "node", "id": 7896001326, "lat": 0.512771, "lon": 35.1722367, "tags": {"name": "Simat", "place": "hamlet"}}, {"type": "node", "id": 7914535554, "lat": 0.4432768, "lon": 35.4283167, "tags": {"name": "Strawberg", "place": "village"}}, {"type": "node", "id": 11407079562, "lat": 0.5342239, "lon": 35.2926564, "tags": {"name": "Action Estate", "place": "suburb"}}, {"type": "node", "id": 11407079563, "lat": 0.5443301, "lon": 35.2407503, "tags": {"name": "Mwanzo Estate", "place": "suburb"}}, {"type": "node", "id": 11407079564, "lat": 0.4859032, "lon": 35.2736074, "tags": {"name": "Elgon View", "place": "suburb"}}, {"type": "node", "id": 11407079565, "lat": 0.4825344, "lon": 35.262165, "tags": {"name": "Langas", "place": "suburb"}}, {"type": "node", "id": 11407079566, "lat": 0.5230235, "lon": 35.3016472, "tags": {"name": "Kapsoya Estate", "place": "suburb"}}, {"type": "node", "id": 11407079567, "lat": 0.5199767, "lon": 35.3080416, "tags": {"name": "Ngurunga Estate", "place": "quarter"}}, {"type": "node", "id": 11407079568, "lat": 0.5067163, "lon": 35.2698469, "tags": {"name": "Pioneer Estate", "place": "suburb"}}, {"type": "node", "id": 11407166369, "lat": 0.5173804, "lon": 35.2612102, "tags": {"name": "West Indies", "place": "suburb"}}]}