{"version": 0.6, "generator": "Overpass API 0.7.62.1 084b4234", "osm3s": {"timestamp_osm_base": "2024-09-30T19:31:59Z", "copyright": "The data included in this document is from www.openstreetmap.org. The data is made available under ODbL."}, "elements": [{"type": "node", "id": 1404221536, "lat": 9.7693, "lon": 44.02067, "tags": {"name": "Kal Qoray", "pcode": "NC-3810-F12-001", "place": "village", "source": "UNDP - 2006"}}, {"type": "node", "id": 1404221555, "lat": 9.79306, "lon": 44.019169, "tags": {"alt_name": "Diirato", "name": "Diirato", "pcode": "NC-3810-E12-001", "place": "village", "source": "UNDP - 2006, UNDP - 1997"}}, {"type": "node", "id": 1404221610, "lat": 9.893127, "lon": 44.183041, "tags": {"name": "Beeyo Baxday", "pcode": "NC-3810-C16-001", "place": "village", "source": "GTZ - 2002"}}, {"type": "node", "id": 1404221854, "lat": 9.82661, "lon": 43.95739, "tags": {"name": "Malugta Hose", "pcode": "NC-3810-E11-002", "place": "village", "source": "KEMRI - 2007"}}, {"type": "node", "id": 1404222219, "lat": 9.8584197, "lon": 43.9366023, "tags": {"alt_name": "Garbadhere", "name": "Garbo-Dheere", "pcode": "NC-3810-D10-001", "place": "village", "source": "KEMRI - 2007, UNDP - 2006"}}, {"type": "node", "id": 1404223035, "lat": 9.966667, "lon": 44.200055, "tags": {"alt_name": "Llinta Bari", "name": "Illinta Bari", "pcode": "NC-3810-A16-001", "place": "village", "source": "UNDP - 2006, GTZ - 2002, UNDP - 1997"}}, {"type": "node", "id": 1404223774, "lat": 9.82983, "lon": 43.90917, "tags": {"name": "Waraqa-Gibil Ku Dirir", "pcode": "NC-3810-E10-002", "place": "village", "source": "UNDP - 2006"}}, {"type": "node", "id": 1404224159, "lat": 9.9248985, "lon": 43.9189108, "tags": {"name": "Agabar \u0623\u063a\u0627\u0628\u0627\u0631", "name:ar": "\u0623\u063a\u0627\u0628\u0627\u0631", "name:en": "Agabar", "name:fr": "Agabar", "pcode": "NC-3810-B10-001", "place": "town", "source": "KEMRI - 2007, UNDP - 2006, UNDP - 1997", "wikidata": "Q30643790"}}, {"type": "node", "id": 1404224280, "lat": 9.99562, "lon": 44.19294, "tags": {"name": "Daradawanle", "pcode": "NC-3810-A16-002", "place": "village", "source": "UNDP - 1997"}}, {"type": "node", "id": 1404224586, "lat": 9.8214, "lon": 43.947102, "tags": {"name": "Lied Godir", "pcode": "NC-3810-E10-001", "place": "hamlet", "source": "UNDP - 1997"}}, {"type": "node", "id": 1404224635, "lat": 9.876087, "lon": 43.971173, "tags": {"name": "Kala Baydh \u0643\u0627\u0644\u0627\u0628\u0627\u064a\u0636", "name:ar": "\u0643\u0627\u0644\u0627\u0628\u0627\u064a\u0636", "name:en": "Kala Baydh", "name:fr": "Kala Baydh", "pcode": "NC-3810-C11-002", "place": "village", "source": "GTZ - 2002, UNDP - 1997"}}, {"type": "node", "id": 1404224642, "lat": 9.8407345, "lon": 44.0137272, "tags": {"name": "Darasalaam", "pcode": "NC-3810-D12-002", "place": "village", "source": "UNDP - 2006, FSAU"}}, {"type": "node", "id": 1404224695, "lat": 9.873179, "lon": 43.984451, "tags": {"name": "Kalqorey", "name:ar": "Kalqorey ( Minerals)", "pcode": "NC-3810-D11-001", "place": "village", "source": "GTZ - 2002, FSAU"}}, {"type": "node", "id": 1404224906, "lat": 9.99629, "lon": 44.059884, "tags": {"name": "Sarta Oog", "pcode": "NC-3810-A13-001", "place": "village", "source": "GTZ - 2002"}}, {"type": "node", "id": 1404224928, "lat": 9.81624, "lon": 43.958591, "tags": {"name": "Gibil-Ku-Dirir", "pcode": "NC-3810-E11-004", "place": "hamlet", "source": "UNDP - 1997"}}, {"type": "node", "id": 1404224999, "lat": 9.83888, "lon": 44.0139, "tags": {"alt_name": "Dhaga-Warabe", "name": "Dhagax-Warabe", "pcode": "NC-3810-D12-001", "place": "village", "source": "KEMRI - 2007, GTZ - 2002, UNDP - 1997"}}, {"type": "node", "id": 1404225099, "lat": 9.76847, "lon": 44.03768, "tags": {"name": "Shagale", "pcode": "NC-3810-F12-002", "place": "village", "source": "UNDP - 2006"}}, {"type": "node", "id": 1404225165, "lat": 9.964804, "lon": 44.021828, "tags": {"name": "Illinta Qoryaale", "pcode": "NC-3810-A12-001", "place": "village", "source": "GTZ - 2002, UNDP - 1997"}}, {"type": "node", "id": 1404225508, "lat": 9.670326, "lon": 44.08689, "tags": {"name": "Gubato", "pcode": "NC-3810-H13-001", "place": "village", "source": "GTZ - 2002"}}, {"type": "node", "id": 1404225685, "lat": 9.66861, "lon": 44.08556, "tags": {"name": "Farah Baladi", "pcode": "NC-3810-H13-003", "place": "village", "source": "UNDP - 1997"}}, {"type": "node", "id": 1404225907, "lat": 9.765983, "lon": 43.982283, "tags": {"alt_name": "Ged Deeble", "name": "Geed Deeble", "pcode": "NC-3810-F11-001", "place": "village", "source": "UNDP - 2006, GTZ - 2002, UNDP - 1997"}}, {"type": "node", "id": 1404226321, "lat": 9.96569, "lon": 44.02353, "tags": {"name": "Ilinta Galbeed", "pcode": "NC-3810-A12-002", "place": "village", "source": "UNDP - 2006"}}, {"type": "node", "id": 1404226340, "lat": 9.80066, "lon": 43.988411, "tags": {"name": "Dhalanya Dhuex", "pcode": "NC-3810-E11-003", "place": "village", "source": "UNDP - 1997"}}, {"type": "node", "id": 1404226744, "lat": 9.91472, "lon": 43.912498, "tags": {"name": "Garbadheere", "pcode": "NC-3810-C10-001", "place": "hamlet", "source": "UNDP - 1997"}}, {"type": "node", "id": 1404227228, "lat": 9.662158, "lon": 44.026797, "tags": {"name": "Biyo Shiinaha", "pcode": "NC-3810-J12-001", "place": "village", "source": "GTZ - 2002"}}, {"type": "node", "id": 1404227424, "lat": 9.719863, "lon": 44.224505, "tags": {"alt_name": "Dararweyne", "name": "Darar Weyne", "pcode": "NC-3810-G16-001", "place": "village", "source": "UNDP - 2006, GTZ - 2002, UNDP - 1997"}}, {"type": "node", "id": 1404227445, "lat": 10.02755, "lon": 44.0085, "tags": {"name": "Sac-Lamood", "pcode": "NC-3806-Z12-001", "place": "village", "source": "UNDP - 2006"}}, {"type": "node", "id": 1404227742, "lat": 9.9083933, "lon": 43.9249218, "tags": {"name": "Candha Laac", "pcode": "NC-3810-C10-002", "place": "hamlet", "source": "UNDP - 2006"}}, {"type": "node", "id": 1404228081, "lat": 9.87758, "lon": 44.03186, "tags": {"alt_name": "Hora Haadley", "name": "Horahaadley", "pcode": "NC-3810-C12-001", "place": "village", "source": "GTZ - 2002, UNDP - 1997"}}, {"type": "node", "id": 1404228161, "lat": 10.00397, "lon": 44.05603, "tags": {"name": "Satawa", "pcode": "NC-3806-Z13-001", "place": "village", "source": "UNDP - 2006, FSAU"}}, {"type": "node", "id": 1404228817, "lat": 9.883831, "lon": 43.960424, "tags": {"name": "Buul", "pcode": "NC-3810-C11-001", "place": "village", "source": "GTZ - 2002"}}, {"type": "node", "id": 1404229965, "lat": 9.7012396, "lon": 43.8905245, "tags": {"name": "Udaan", "pcode": "NC-3810-H09-001", "place": "village", "source": "KEMRI - 2007, GTZ - 2002"}}, {"type": "node", "id": 1404230127, "lat": 9.96741, "lon": 44.198219, "tags": {"name": "Illinta Bacaado", "pcode": "NC-3810-A16-003", "place": "village", "source": "UNDP - 1997"}}, {"type": "node", "id": 1404230157, "lat": 9.80573, "lon": 43.9645, "tags": {"name": "Maluugta", "pcode": "NC-3810-E11-005", "place": "village", "source": "UNDP - 2006"}}, {"type": "node", "id": 1404230163, "lat": 9.70839, "lon": 44.04855, "tags": {"name": "Jiingada", "pcode": "NC-3810-G13-001", "place": "village", "source": "UNDP - 2006"}}, {"type": "node", "id": 1404230431, "lat": 9.983895, "lon": 44.124355, "tags": {"alt_name": "Ilinta Dhexe", "name": "Illinta Dhexe", "pcode": "NC-3810-A14-001", "place": "village", "source": "UNDP - 2006, GTZ - 2002, UNDP - 1997"}}, {"type": "node", "id": 1404230486, "lat": 9.691336, "lon": 43.977792, "tags": {"alt_name": "Anayo", "name": "Annayo", "pcode": "NC-3810-H11-001", "place": "village", "source": "UNDP - 2006, GTZ - 2002, UNDP - 1997"}}, {"type": "node", "id": 1404230523, "lat": 9.815075, "lon": 44.09608, "tags": {"alt_name": "Balayga Cas", "name": "Balliga Cas", "pcode": "NC-3810-E14-001", "place": "village", "source": "UNDP - 2006, GTZ - 2002, UNDP - 1997"}}, {"type": "node", "id": 1404231010, "lat": 9.67874, "lon": 44.02418, "tags": {"alt_name": "Beeyo Doofar", "name": "Biyo-Doofaar", "pcode": "NC-3810-H12-001", "place": "village", "source": "UNDP - 2006, UNDP - 1997"}}, {"type": "node", "id": 1404231093, "lat": 9.83793, "lon": 43.994991, "tags": {"name": "Malloukta", "pcode": "NC-3810-D11-002", "place": "village", "source": "UNDP - 1997"}}, {"type": "node", "id": 1404231124, "lat": 9.92222, "lon": 44.152222, "tags": {"name": "Illinta Galbeed", "pcode": "NC-3810-B15-001", "place": "village", "source": "UNDP - 1997"}}, {"type": "node", "id": 1404231488, "lat": 9.8929, "lon": 44.09188, "tags": {"name": "Gaboobe", "pcode": "NC-3810-C14-002", "place": "village", "source": "UNDP - 2006"}}, {"type": "node", "id": 1404231832, "lat": 9.66155, "lon": 44.02768, "tags": {"name": "Beeyo-Khadar", "pcode": "NC-3810-J12-003", "place": "village", "source": "UNDP - 2006"}}, {"type": "node", "id": 1404231839, "lat": 10.00836, "lon": 43.98918, "tags": {"name": "Badhi Gaduud", "pcode": "NC-3806-Z11-001", "place": "village", "source": "UNDP - 2006"}}, {"type": "node", "id": 1404232068, "lat": 9.883918, "lon": 44.124621, "tags": {"name": "Ilinta Dhexe", "pcode": "NC-3810-C14-001", "place": "village", "source": "GTZ - 2002"}}, {"type": "node", "id": 1404232705, "lat": 9.8213508, "lon": 43.9705656, "tags": {"name": "Malugta Dhexe", "pcode": "NC-3810-E11-001", "place": "village", "source": "KEMRI - 2007, GTZ - 2002"}}, {"type": "node", "id": 1404232865, "lat": 9.73521, "lon": 43.85376, "tags": {"alt_name": "Biyo As", "name": "Biyo Cas", "pcode": "NC-3810-G08-001", "place": "village", "source": "KEMRI - 2007, UNDP - 1997"}}, {"type": "node", "id": 7178948473, "lat": 9.7277857, "lon": 43.8517964, "tags": {"place": "hamlet"}}]}