{"version": 0.6, "generator": "Overpass API 0.7.62.1 084b4234", "osm3s": {"timestamp_osm_base": "2024-09-30T19:37:02Z", "copyright": "The data included in this document is from www.openstreetmap.org. The data is made available under ODbL."}, "elements": [{"type": "node", "id": 1404221777, "lat": 9.96792, "lon": 45.82512, "tags": {"name": "Huguf", "pcode": "NC-3811-A19-001", "place": "village", "source": "UNDP - 2006"}}, {"type": "node", "id": 1404221999, "lat": 9.9363535, "lon": 46.0278816, "tags": {"name": "Fiqi Ayuub", "pcode": "NC-3811-B23-001", "place": "village", "source": "UNDP - 2006, GTZ - 2002, UNDP - 1997"}}, {"type": "node", "id": 1404223276, "lat": 9.61613, "lon": 45.96762, "tags": {"alt_name": "Balli Rooble", "name": "Bali-Rooble", "pcode": "NC-3811-K22-001", "place": "village", "source": "UNDP - 2006, GTZ - 2002"}}, {"type": "node", "id": 1404223912, "lat": 9.8799367, "lon": 45.9685952, "tags": {"name": "Il-Carmo", "pcode": "NC-3811-C22-001", "place": "village", "source": "UNDP - 2006"}}, {"type": "node", "id": 1404224989, "lat": 9.67652, "lon": 45.81733, "tags": {"alt_name": "Ceel Dheere", "name": "Ceel-Dhere", "pcode": "NC-3811-H18-001", "place": "village", "source": "UNDP - 2006, GTZ - 2002, UNDP - 1997"}}, {"type": "node", "id": 1404226330, "lat": 9.630831, "lon": 45.753753, "tags": {"name": "Kala Baydh \u0643\u0627\u0644\u0627\u0628\u0627\u064a\u0636", "name:ar": "\u0643\u0627\u0644\u0627\u0628\u0627\u064a\u0636", "pcode": "NC-3811-J17-001", "place": "hamlet", "source": "GTZ - 2002"}}, {"type": "node", "id": 1404226629, "lat": 9.87983, "lon": 45.86012, "tags": {"name": "Laas-Geel", "pcode": "NC-3811-C19-001", "place": "locality", "source": "UNDP - 2006"}}, {"type": "node", "id": 1404226710, "lat": 9.6320627, "lon": 45.7549316, "tags": {"name": "Afweyne", "pcode": "NC-3811-J17-002", "place": "village", "source": "UNDP - 2006"}}, {"type": "node", "id": 1404231329, "lat": 9.7993164, "lon": 45.8908019, "tags": {"alt_name": "Gaba Gabo;Gebagebo", "name": "Geba Gebo", "pcode": "NC-3811-E20-001", "place": "village", "source": "UNDP - 2006, GTZ - 2002, UNDP - 1997"}}, {"type": "node", "id": 1404232609, "lat": 9.6833998, "lon": 45.906482, "tags": {"name": "Forestry", "pcode": "NC-3811-H20-001", "place": "village", "source": "UNDP - 2006"}}, {"type": "node", "id": 6925420506, "lat": 10.009351, "lon": 45.908897, "tags": {"place": "isolated_dwelling"}}, {"type": "node", "id": 6928681953, "lat": 10.0260757, "lon": 45.9597534, "tags": {"place": "isolated_dwelling"}}, {"type": "node", "id": 6928702620, "lat": 10.0298779, "lon": 45.9926519, "tags": {"place": "isolated_dwelling"}}, {"type": "node", "id": 6928702640, "lat": 10.0242932, "lon": 45.9918353, "tags": {"place": "isolated_dwelling"}}, {"type": "node", "id": 6928702835, "lat": 10.0282784, "lon": 45.9830028, "tags": {"place": "isolated_dwelling"}}, {"type": "node", "id": 6928702908, "lat": 10.0150456, "lon": 45.9900007, "tags": {"place": "isolated_dwelling"}}, {"type": "node", "id": 6928702950, "lat": 10.0180845, "lon": 45.9971018, "tags": {"place": "isolated_dwelling"}}, {"type": "node", "id": 6934260802, "lat": 10.0194122, "lon": 45.7830025, "tags": {"place": "isolated_dwelling"}}, {"type": "node", "id": 6951313360, "lat": 10.0066478, "lon": 45.6564818, "tags": {"place": "isolated_dwelling"}}, {"type": "node", "id": 6951313388, "lat": 10.0128876, "lon": 45.6584099, "tags": {"place": "isolated_dwelling"}}, {"type": "node", "id": 6951313392, "lat": 10.016343, "lon": 45.6594409, "tags": {"place": "isolated_dwelling"}}, {"type": "node", "id": 6951313419, "lat": 10.0213134, "lon": 45.6632697, "tags": {"place": "isolated_dwelling"}}, {"type": "node", "id": 6951313616, "lat": 10.0269276, "lon": 45.6658035, "tags": {"place": "isolated_dwelling"}}, {"type": "node", "id": 6951313637, "lat": 10.0290346, "lon": 45.6678445, "tags": {"place": "isolated_dwelling"}}, {"type": "node", "id": 8576586939, "lat": 9.8840462, "lon": 45.6598379, "tags": {"place": "locality"}}, {"type": "node", "id": 8576586954, "lat": 9.8830603, "lon": 45.6549364, "tags": {"place": "isolated_dwelling"}}, {"type": "node", "id": 8577987914, "lat": 9.8682572, "lon": 45.7257387, "tags": {"place": "isolated_dwelling"}}, {"type": "node", "id": 8577987982, "lat": 9.874676, "lon": 45.7181799, "tags": {"place": "isolated_dwelling"}}, {"type": "node", "id": 8577988046, "lat": 9.8853634, "lon": 45.7012284, "tags": {"place": "isolated_dwelling"}}, {"type": "node", "id": 8582316639, "lat": 9.8476709, "lon": 45.6998344, "tags": {"place": "isolated_dwelling"}}, {"type": "node", "id": 8583954824, "lat": 9.8373654, "lon": 45.6653757, "tags": {"place": "isolated_dwelling"}}, {"type": "node", "id": 8587109853, "lat": 9.8345057, "lon": 45.7676128, "tags": {"place": "village"}}, {"type": "node", "id": 8587171697, "lat": 9.8059723, "lon": 45.7644778, "tags": {"place": "isolated_dwelling"}}, {"type": "node", "id": 8589478069, "lat": 9.8241155, "lon": 45.6822907, "tags": {"place": "isolated_dwelling"}}, {"type": "node", "id": 8589478179, "lat": 9.8208732, "lon": 45.692486, "tags": {"place": "isolated_dwelling"}}, {"type": "node", "id": 8589478305, "lat": 9.8161861, "lon": 45.7053857, "tags": {"place": "isolated_dwelling"}}, {"type": "node", "id": 8595619527, "lat": 9.7990045, "lon": 45.7764005, "tags": {"place": "isolated_dwelling"}}, {"type": "node", "id": 8598757444, "lat": 9.7965505, "lon": 45.8206631, "tags": {"place": "isolated_dwelling"}}, {"type": "node", "id": 8598757524, "lat": 9.8016166, "lon": 45.822374, "tags": {"place": "isolated_dwelling"}}, {"type": "node", "id": 8615569504, "lat": 9.8971494, "lon": 46.0239742, "tags": {"place": "village"}}, {"type": "node", "id": 8645034459, "lat": 9.8902291, "lon": 45.9222615, "tags": {"place": "isolated_dwelling"}}, {"type": "node", "id": 8665703920, "lat": 9.9840335, "lon": 45.9734686, "tags": {"place": "isolated_dwelling"}}, {"type": "node", "id": 8665704040, "lat": 9.9872098, "lon": 45.9912103, "tags": {"place": "hamlet"}}, {"type": "node", "id": 8665704149, "lat": 9.95654, "lon": 45.9697071, "tags": {"place": "isolated_dwelling"}}, {"type": "node", "id": 8786571336, "lat": 9.6936381, "lon": 46.0038489, "tags": {"place": "village"}}, {"type": "node", "id": 8789765533, "lat": 9.6385821, "lon": 45.9859076, "tags": {"place": "village"}}, {"type": "node", "id": 8796028510, "lat": 9.6408456, "lon": 45.9795374, "tags": {"place": "isolated_dwelling"}}, {"type": "node", "id": 8797605573, "lat": 9.6483237, "lon": 45.9403476, "tags": {"place": "isolated_dwelling"}}, {"type": "node", "id": 8806588151, "lat": 9.6719289, "lon": 45.9804935, "tags": {"place": "isolated_dwelling"}}, {"type": "node", "id": 8931085397, "lat": 9.9776648, "lon": 46.0124918, "tags": {"place": "isolated_dwelling"}}, {"type": "node", "id": 9586518888, "lat": 9.7277474, "lon": 46.0099127, "tags": {"alt_name:ar": "\u0635\u0648\u0645\u0627\u0644\u064a\u0644\u0627\u0646\u062f", "name": "Soomaaliland \u0623\u0631\u0636 \u0627\u0644\u0635\u0648\u0645\u0627\u0644", "name:am": "\u1236\u121b\u120a\u120b\u1295\u12f5", "name:ar": "\u0623\u0631\u0636 \u0627\u0644\u0635\u0648\u0645\u0627\u0644", "name:arc": "\u0728\u0718\u0721\u0710\u0720\u071d\u0720\u0722\u0715", "name:ca": "Somalil\u00e0ndia", "name:ckb": "\u0633\u06c6\u0645\u0627\u06b5\u06cc\u0644\u0627\u0646\u062f", "name:de": "Somaliland", "name:el": "\u03a3\u03bf\u03bc\u03b1\u03bb\u03b9\u03bb\u03ac\u03bd\u03b4\u03b7", "name:en": "Somaliland", "name:es": "Somalilandia", "name:eu": "Somalilandia", "name:fa": "\u0633\u0648\u0645\u0627\u0644\u06cc\u200c\u0644\u0646\u062f", "name:fr": "Somaliland", "name:hak": "Somaliland", "name:hr": "Somaliland", "name:hy": "\u054d\u0578\u0574\u0561\u056c\u056b\u056c\u0565\u0576\u0564", "name:ja": "\u30bd\u30de\u30ea\u30e9\u30f3\u30c9", "name:kk-Arab": "\u0633\u0648\u0645\u0627\u0644\u0649\u064a\u0644\u06d5\u0646\u062f", "name:ku-Arab": "\u0633\u06c6\u0645\u0627\u0644\u06cc\u0644\u06d5\u0646\u062f\u0627", "name:mr": "\u0938\u094b\u092e\u093e\u0932\u093f\u092f\u093e \u092a\u094d\u0930\u0926\u0947\u0936", "name:nan": "Somaliland", "name:pa": "\u0a38\u0a4b\u0a2e\u0a3e\u0a32\u0a40\u0a32\u0a48\u0a02\u0a21", "name:pa-Arab": "\u0635\u0648\u0645\u0627\u0644\u06cc \u0644\u06cc\u0646\u0688", "name:pnb": "\u0635\u0648\u0645\u0627\u0644\u06cc \u0644\u06cc\u0646\u0688", "name:ps": "\u0633\u0648\u0645\u0627\u0644\u06cc\u0644\u0627\u0646\u0689", "name:pt": "Somalil\u00e2ndia", "name:ru": "\u0421\u043e\u043c\u0430\u043b\u0438\u043b\u0435\u043d\u0434", "name:so": "Soomaaliland", "name:syc": "\u0728\u0718\u0721\u0710\u0720\u071d\u0720\u0722\u0715", "name:ur": "\u0635\u0648\u0645\u0627\u0644\u06cc \u0644\u06cc\u0646\u0688", "name:zh": "\u7d22\u9a6c\u91cc\u5170 / \u7d22\u99ac\u5229\u862d", "name:zh-Hans": "\u7d22\u9a6c\u91cc\u5170", "name:zh-Hant": "\u7d22\u99ac\u5229\u862d", "official_name": "Jamhuuriyadda Soomaaliland \u062c\u0645\u0647\u0648\u0631\u064a\u0629 \u0623\u0631\u0636 \u0627\u0644\u0635\u0648\u0645\u0627\u0644", "official_name:ar": "\u062c\u0645\u0647\u0648\u0631\u064a\u0629 \u0623\u0631\u0636 \u0627\u0644\u0635\u0648\u0645\u0627\u0644", "official_name:de": "Republik Somaliland", "official_name:en": "Republic of Somaliland", "official_name:es": "Rep\u00fablica de Somalilandia", "official_name:hr": "Republika Somaliland", "official_name:ja": "\u30bd\u30de\u30ea\u30e9\u30f3\u30c9\u5171\u548c\u56fd", "official_name:kk-Arab": "\u0633\u0648\u0645\u0627\u0644\u0649\u064a\u0644\u06d5\u0646\u062f \u0631\u06d5\u0633\u067e\u06cb\u0628\u0644\u0649\u064a\u0643\u0627\u0633\u0649", "official_name:so": "Jamhuuriyadda Soomaaliland", "place": "country", "wikidata": "Q34754", "wikipedia": "ar:\u0635\u0648\u0645\u0627\u0644\u064a\u0644\u0627\u0646\u062f"}}]}