{"version": 0.6, "generator": "Overpass API 0.7.62.1 084b4234", "osm3s": {"timestamp_osm_base": "2024-09-30T21:16:29Z", "copyright": "The data included in this document is from www.openstreetmap.org. The data is made available under ODbL."}, "elements": [{"type": "node", "id": 1404221377, "lat": 0.9523, "lon": 41.529202, "tags": {"name": "Uar Corah Irai", "pcode": "NA-3716-B23-001", "place": "village", "source": "UNDP - 1997"}}, {"type": "node", "id": 1404225668, "lat": 1.12628, "lon": 41.73424, "tags": {"name": "Xasanbaraki", "pcode": "NA-3712-W28-001", "place": "village", "source": "FSAU"}}, {"type": "node", "id": 1404225756, "lat": 0.9907, "lon": 41.5308, "tags": {"name": "Korohirey", "pcode": "NA-3716-A23-001", "place": "village", "source": "FSAU"}}, {"type": "node", "id": 1404226046, "lat": 1.31787, "lon": 41.46098, "tags": {"name": "Dudundher", "pcode": "NA-3712-S22-001", "place": "village", "source": "FSAU"}}, {"type": "node", "id": 1404231434, "lat": 1.03847, "lon": 41.57359, "tags": {"name": "Welharey", "pcode": "NA-3712-Z24-001", "place": "village", "source": "FSAU"}}, {"type": "node", "id": 1404233296, "lat": 1.13629, "lon": 41.80529, "tags": {"name": "Lebi", "pcode": "NA-3712-W29-001", "place": "village", "source": "FSAU"}}]}