{"version": 0.6, "generator": "Overpass API 0.7.62.1 084b4234", "osm3s": {"timestamp_osm_base": "2024-09-30T22:26:08Z", "copyright": "The data included in this document is from www.openstreetmap.org. The data is made available under ODbL."}, "elements": [{"type": "node", "id": 1104301153, "lat": 5.7820547, "lon": 39.3064295, "tags": {"name": "Konkoma", "place": "neighbourhood", "source": "300TDI"}}, {"type": "node", "id": 1104331823, "lat": 5.9112911, "lon": 39.6387861, "tags": {"alt_name": "Welabu", "name": "Bidre", "place": "town", "source": "GeoDatabase"}}, {"type": "node", "id": 1150698272, "lat": 6.11667, "lon": 39.35, "tags": {"is_in:country": "Ethiopia", "is_in:country_code": "ET", "name": "Meda Welmo Bota", "place": "locality", "source": "GeoDatabase"}}, {"type": "node", "id": 1150882647, "lat": 6.13333, "lon": 39.36667, "tags": {"is_in:country": "Ethiopia", "is_in:country_code": "ET", "name": "Lome", "place": "locality", "source": "GeoDatabase"}}, {"type": "node", "id": 1150899171, "lat": 6.11667, "lon": 39.26667, "tags": {"is_in:country": "Ethiopia", "is_in:country_code": "ET", "name": "Bilu", "place": "locality", "source": "GeoDatabase"}}, {"type": "node", "id": 1150902037, "lat": 6.13333, "lon": 39.4, "tags": {"is_in:country": "Ethiopia", "is_in:country_code": "ET", "name": "Oborso", "place": "locality", "source": "GeoDatabase"}}, {"type": "node", "id": 1150907054, "lat": 5.88333, "lon": 39.46667, "tags": {"is_in:country": "Ethiopia", "is_in:country_code": "ET", "name": "Malca Cogobbe", "place": "locality", "source": "GeoDatabase"}}, {"type": "node", "id": 1150917206, "lat": 6.0, "lon": 39.3, "tags": {"is_in:country": "Ethiopia", "is_in:country_code": "ET", "name": "Wedamo Shet'", "place": "locality", "source": "GeoDatabase"}}, {"type": "node", "id": 1150920447, "lat": 6.06667, "lon": 39.5, "tags": {"is_in:country": "Ethiopia", "is_in:country_code": "ET", "name": "Lomi Shelek'O", "place": "locality", "source": "GeoDatabase"}}, {"type": "node", "id": 1150929959, "lat": 6.01667, "lon": 39.63333, "tags": {"is_in:country": "Ethiopia", "is_in:country_code": "ET", "name": "Guie Dibbe", "place": "locality", "source": "GeoDatabase"}}, {"type": "node", "id": 1150935101, "lat": 5.98333, "lon": 39.38333, "tags": {"is_in:country": "Ethiopia", "is_in:country_code": "ET", "name": "Jia", "place": "locality", "source": "GeoDatabase"}}, {"type": "node", "id": 1150938703, "lat": 5.93333, "lon": 39.61667, "tags": {"is_in:country": "Ethiopia", "is_in:country_code": "ET", "name": "Oda", "place": "locality", "source": "GeoDatabase"}}, {"type": "node", "id": 1150946050, "lat": 5.93333, "lon": 39.46667, "tags": {"is_in:country": "Ethiopia", "is_in:country_code": "ET", "name": "Cormos", "place": "locality", "source": "GeoDatabase"}}, {"type": "node", "id": 3166563381, "lat": 5.9734176, "lon": 39.5158796, "tags": {"place": "village"}}, {"type": "node", "id": 3166570769, "lat": 6.0418381, "lon": 39.5250888, "tags": {"place": "hamlet"}}, {"type": "node", "id": 3168617243, "lat": 5.7733444, "lon": 39.6383346, "tags": {"place": "hamlet"}}, {"type": "node", "id": 3206337536, "lat": 5.8248781, "lon": 39.5353122, "tags": {"place": "village"}}, {"type": "node", "id": 3206337553, "lat": 5.8670188, "lon": 39.5193572, "tags": {"place": "village"}}, {"type": "node", "id": 3856735496, "lat": 5.9248873, "lon": 39.5239198, "tags": {"place": "hamlet"}}, {"type": "node", "id": 9238774998, "lat": 5.7773139, "lon": 39.3105652, "tags": {"name": "Wadera", "place": "town"}}]}