{"version": 0.6, "generator": "Overpass API 0.7.62.1 084b4234", "osm3s": {"timestamp_osm_base": "2024-09-30T20:45:58Z", "copyright": "The data included in this document is from www.openstreetmap.org. The data is made available under ODbL."}, "elements": [{"type": "node", "id": 1404221345, "lat": 3.58226, "lon": 43.5748, "tags": {"alt_name": "Haare", "name": "Haarri", "pcode": "NA-3802-L02-004", "place": "hamlet", "source": "UNDP - 2006"}}, {"type": "node", "id": 1404221390, "lat": 3.9177867, "lon": 43.5779513, "tags": {"name": "Jebel", "pcode": "NA-3802-B02-001", "place": "hamlet", "source": "UNDP - 1997"}}, {"type": "node", "id": 1404221598, "lat": 3.5930441, "lon": 43.5709618, "tags": {"name": "Qalamow", "pcode": "NA-3802-K02-005", "place": "village", "source": "UNDP - 2006"}}, {"type": "node", "id": 1404221686, "lat": 3.53831, "lon": 43.83317, "tags": {"name": "Bowka", "pcode": "NA-3802-M08-002", "place": "village", "source": "UNDP - 2006"}}, {"type": "node", "id": 1404222032, "lat": 3.5522, "lon": 43.751099, "tags": {"name": "Zauel", "pcode": "NA-3802-L06-001", "place": "village", "source": "UNDP - 1997"}}, {"type": "node", "id": 1404222079, "lat": 3.70351, "lon": 43.76739, "tags": {"name": "Gebley Boqolka", "pcode": "NA-3802-H06-003", "place": "village", "source": "UNDP - 2006"}}, {"type": "node", "id": 1404222080, "lat": 3.53851, "lon": 43.75718, "tags": {"alt_name": "Labatan Jirow", "name": "Labaatan Jirow", "pcode": "NA-3802-M06-002", "place": "village", "source": "UNDP - 2006, UNDP - 1997"}}, {"type": "node", "id": 1404222182, "lat": 3.52842, "lon": 43.897911, "tags": {"name": "Korar", "pcode": "NA-3802-M09-001", "place": "village", "source": "UNDP - 1997"}}, {"type": "node", "id": 1404222380, "lat": 3.9035284, "lon": 43.5873555, "tags": {"alt_name": "Kulun Jareer", "name": "Kulunjerer", "pcode": "NA-3802-C02-001", "place": "village", "source": "UNDP - 2006, FSAU"}}, {"type": "node", "id": 1404222532, "lat": 3.56119, "lon": 43.86731, "tags": {"name": "Erjeegle", "pcode": "NA-3802-L09-003", "place": "village", "source": "UNDP - 2006"}}, {"type": "node", "id": 1404222544, "lat": 3.90373, "lon": 43.816181, "tags": {"name": "Faarjarley Wiila", "pcode": "NA-3802-C07-001", "place": "village", "source": "UNDP - 1997"}}, {"type": "node", "id": 1404222725, "lat": 3.53651, "lon": 43.57993, "tags": {"name": "Bal-Mada", "pcode": "NA-3802-M02-002", "place": "village", "source": "UNDP - 2006"}}, {"type": "node", "id": 1404222749, "lat": 3.67371, "lon": 43.74821, "tags": {"name": "Henqeri", "pcode": "NA-3802-H06-001", "place": "village", "source": "UNDP - 2006"}}, {"type": "node", "id": 1404222752, "lat": 3.6501, "lon": 43.7817, "tags": {"name": "Kashida", "pcode": "NA-3802-J07-001", "place": "village", "source": "UNDP - 1997"}}, {"type": "node", "id": 1404222812, "lat": 3.90471, "lon": 43.730122, "tags": {"name": "Gurabow", "pcode": "NA-3802-C06-001", "place": "village", "source": "UNDP - 1997"}}, {"type": "node", "id": 1404222850, "lat": 3.5479, "lon": 43.798698, "tags": {"name": "Fiinka Ware", "pcode": "NA-3802-L07-001", "place": "village", "source": "UNDP - 1997"}}, {"type": "node", "id": 1404222889, "lat": 3.70777, "lon": 43.76422, "tags": {"name": "Buri", "pcode": "NA-3802-H06-004", "place": "village", "source": "UNDP - 2006"}}, {"type": "node", "id": 1404223190, "lat": 3.558175, "lon": 43.583488, "tags": {"name": "Banbusul", "pcode": "NA-3802-L02-003", "place": "village", "source": "UNDP - 2006"}}, {"type": "node", "id": 1404223197, "lat": 3.6308, "lon": 43.628502, "tags": {"name": "Inasoogsatu", "pcode": "NA-3802-J03-001", "place": "village", "source": "UNDP - 1997"}}, {"type": "node", "id": 1404223255, "lat": 3.59656, "lon": 43.5476, "tags": {"name": "Galol", "pcode": "NA-3802-K02-002", "place": "hamlet", "source": "UNDP - 1997"}}, {"type": "node", "id": 1404223379, "lat": 3.6289, "lon": 43.890739, "tags": {"name": "Qomari", "pcode": "NA-3802-J09-002", "place": "village", "source": "UNDP - 1997"}}, {"type": "node", "id": 1404223398, "lat": 3.59295, "lon": 43.85996, "tags": {"alt_name": "Aadan Waraabow", "name": "Eedin Waraabow", "pcode": "NA-3802-K08-002", "place": "village", "source": "UNDP - 2006, UNDP - 1997"}}, {"type": "node", "id": 1404223456, "lat": 3.7397783, "lon": 43.7718294, "tags": {"name": "Madax Maroodi", "pcode": "NA-3802-G06-001", "place": "village", "source": "UNDP - 1997"}}, {"type": "node", "id": 1404223671, "lat": 3.55288, "lon": 43.74551, "tags": {"name": "Mareegi", "pcode": "NA-3802-L06-002", "place": "village", "source": "UNDP - 2006"}}, {"type": "node", "id": 1404223704, "lat": 3.60583, "lon": 43.85519, "tags": {"name": "Dudumay", "pcode": "NA-3802-K08-003", "place": "village", "source": "UNDP - 2006"}}, {"type": "node", "id": 1404223794, "lat": 3.68088, "lon": 43.81897, "tags": {"alt_name": "Faajir", "name": "Faajar", "pcode": "NA-3802-H08-001", "place": "village", "source": "UNDP - 2006, UNDP - 1997"}}, {"type": "node", "id": 1404223866, "lat": 3.5324751, "lon": 43.8803708, "tags": {"name": "Tagaal", "pcode": "NA-3802-M09-002", "place": "village", "source": "UNDP - 2006, UNDP - 1997"}}, {"type": "node", "id": 1404223977, "lat": 3.6224872, "lon": 43.794085, "tags": {"name": "Meleglow", "pcode": "NA-3802-K07-003", "place": "village", "source": "UNDP - 2006"}}, {"type": "node", "id": 1404224222, "lat": 3.6216, "lon": 43.619099, "tags": {"name": "Badandadu", "pcode": "NA-3802-K03-002", "place": "village", "source": "UNDP - 1997"}}, {"type": "node", "id": 1404224248, "lat": 3.64454, "lon": 43.855591, "tags": {"name": "Doomaar", "pcode": "NA-3802-J08-002", "place": "village", "source": "UNDP - 1997"}}, {"type": "node", "id": 1404224406, "lat": 3.62327, "lon": 43.612011, "tags": {"name": "Jilibey", "pcode": "NA-3802-K03-001", "place": "village", "source": "UNDP - 1997"}}, {"type": "node", "id": 1404224419, "lat": 3.65461, "lon": 43.858528, "tags": {"name": "Abag Dheere", "pcode": "NA-3802-J08-001", "place": "village", "source": "UNDP - 1997"}}, {"type": "node", "id": 1404224487, "lat": 3.6307, "lon": 43.749401, "tags": {"name": "Bulo Haldid", "pcode": "NA-3802-J06-002", "place": "village", "source": "UNDP - 1997"}}, {"type": "node", "id": 1404224637, "lat": 3.6477462, "lon": 43.5825064, "tags": {"name": "Korkor", "pcode": "NA-3802-J02-001", "place": "village", "source": "UNDP - 1997"}}, {"type": "node", "id": 1404224639, "lat": 3.5711, "lon": 43.8722, "tags": {"name": "Futuug", "pcode": "NA-3802-L09-001", "place": "village", "source": "UNDP - 1997"}}, {"type": "node", "id": 1404224713, "lat": 3.6486, "lon": 43.819, "tags": {"name": "Duubugaas", "pcode": "NA-3802-J08-003", "place": "village", "source": "UNDP - 1997"}}, {"type": "node", "id": 1404224734, "lat": 3.65506, "lon": 43.735291, "tags": {"name": "Barkale", "pcode": "NA-3802-J06-001", "place": "village", "source": "UNDP - 1997"}}, {"type": "node", "id": 1404224850, "lat": 3.5511, "lon": 43.577801, "tags": {"name": "Hare", "pcode": "NA-3802-L02-001", "place": "village", "source": "UNDP - 1997"}}, {"type": "node", "id": 1404225190, "lat": 3.68077, "lon": 43.719749, "tags": {"name": "Odomow", "pcode": "NA-3802-H05-002", "place": "village", "source": "UNDP - 1997"}}, {"type": "node", "id": 1404225226, "lat": 3.58544, "lon": 43.849941, "tags": {"name": "Cashur", "pcode": "NA-3802-K08-001", "place": "village", "source": "UNDP - 1997"}}, {"type": "node", "id": 1404225423, "lat": 3.6407288, "lon": 43.7755481, "tags": {"name": "Buulo Fajir", "pcode": "NA-3802-J07-002", "place": "village", "source": "UNDP - 1997"}}, {"type": "node", "id": 1404225443, "lat": 3.72565, "lon": 43.72074, "tags": {"name": "Banmeegag", "pcode": "NA-3802-G05-001", "place": "village", "source": "UNDP - 2006"}}, {"type": "node", "id": 1404225466, "lat": 3.62161, "lon": 43.6912, "tags": {"name": "Mubarak", "pcode": "NA-3802-K05-001", "place": "village", "source": "UNDP - 1997"}}, {"type": "node", "id": 1404225470, "lat": 3.62894, "lon": 43.8324, "tags": {"name": "Boorow", "pcode": "NA-3802-J08-005", "place": "village", "source": "UNDP - 2006"}}, {"type": "node", "id": 1404225589, "lat": 3.60488, "lon": 43.92244, "tags": {"name": "Biyoley", "pcode": "NA-3802-K10-001", "place": "village", "source": "UNDP - 1997"}}, {"type": "node", "id": 1404225687, "lat": 3.65104, "lon": 43.71853, "tags": {"name": "Nurow-Yarow", "pcode": "NA-3802-J05-001", "place": "village", "source": "UNDP - 2006"}}, {"type": "node", "id": 1404225789, "lat": 3.55335, "lon": 43.87304, "tags": {"name": "Goofka", "pcode": "NA-3802-L09-002", "place": "village", "source": "UNDP - 2006"}}, {"type": "node", "id": 1404225839, "lat": 3.54462, "lon": 43.8121, "tags": {"name": "Finka-Fuuri", "pcode": "NA-3802-L07-005", "place": "village", "source": "UNDP - 2006"}}, {"type": "node", "id": 1404225916, "lat": 3.65059, "lon": 43.74929, "tags": {"name": "Buulo Jadiid", "pcode": "NA-3802-J06-003", "place": "village", "source": "UNDP - 2006"}}, {"type": "node", "id": 1404225934, "lat": 3.5931285, "lon": 43.8068982, "tags": {"name": "Galoole", "pcode": "NA-3802-K07-005", "place": "village", "source": "UNDP - 2006"}}, {"type": "node", "id": 1404226015, "lat": 3.52633, "lon": 43.57928, "tags": {"name": "Shiidle Busul", "pcode": "NA-3802-M02-003", "place": "village", "source": "UNDP - 2006"}}, {"type": "node", "id": 1404226147, "lat": 3.6021, "lon": 43.780701, "tags": {"name": "Aw Aadan Fayi", "pcode": "NA-3802-K07-002", "place": "village", "source": "UNDP - 1997"}}, {"type": "node", "id": 1404226593, "lat": 3.66512, "lon": 43.82818, "tags": {"name": "Garas Dhere", "pcode": "NA-3802-J08-006", "place": "village", "source": "UNDP - 2006"}}, {"type": "node", "id": 1404226647, "lat": 3.5799, "lon": 43.570999, "tags": {"name": "Waday Roma", "pcode": "NA-3802-L02-002", "place": "village", "source": "UNDP - 1997"}}, {"type": "node", "id": 1404226822, "lat": 3.555676, "lon": 43.583978, "tags": {"name": "Balmaadi", "pcode": "NA-3802-L02-006", "place": "village", "source": "UNDP - 2006"}}, {"type": "node", "id": 1404226853, "lat": 3.59976, "lon": 43.80105, "tags": {"name": "Eedin Faay", "pcode": "NA-3802-K07-004", "place": "village", "source": "UNDP - 2006"}}, {"type": "node", "id": 1404226906, "lat": 3.6915, "lon": 43.77225, "tags": {"name": "Adoomow", "pcode": "NA-3802-H06-002", "place": "village", "source": "UNDP - 2006"}}, {"type": "node", "id": 1404226909, "lat": 3.81618, "lon": 43.719379, "tags": {"name": "Laandhi", "pcode": "NA-3802-E05-001", "place": "hamlet", "source": "UNDP - 1997"}}, {"type": "node", "id": 1404228985, "lat": 3.6499, "lon": 43.64642, "tags": {"name": "Deygab", "pcode": "NA-3802-J04-001", "place": "village", "source": "UNDP - 1997"}}, {"type": "node", "id": 1404229945, "lat": 3.54567, "lon": 43.80267, "tags": {"name": "Ban-Bara", "pcode": "NA-3802-L07-003", "place": "village", "source": "UNDP - 2006"}}, {"type": "node", "id": 1404229987, "lat": 3.51658, "lon": 43.83941, "tags": {"name": "Abagle", "pcode": "NA-3802-M08-003", "place": "village", "source": "UNDP - 2006"}}, {"type": "node", "id": 1404230102, "lat": 3.73043, "lon": 43.75789, "tags": {"name": "Jeelow", "pcode": "NA-3802-G06-003", "place": "village", "source": "UNDP - 2006"}}, {"type": "node", "id": 1404230103, "lat": 3.64011, "lon": 43.673012, "tags": {"name": "Gaal Madooba", "pcode": "NA-3802-J04-002", "place": "village", "source": "UNDP - 1997"}}, {"type": "node", "id": 1404230131, "lat": 3.54128, "lon": 43.83963, "tags": {"alt_name": "Molmad Weyne", "name": "Udule", "pcode": "NA-3802-M08-004", "place": "village", "source": "UNDP - 2006, UNDP - 1997"}}, {"type": "node", "id": 1404230274, "lat": 3.7385767, "lon": 43.7734919, "tags": {"name": "Doboolow", "pcode": "NA-3802-G07-001", "place": "village", "source": "UNDP - 2006"}}, {"type": "node", "id": 1404230278, "lat": 3.5208, "lon": 43.5605, "tags": {"name": "Shiidlli", "pcode": "NA-3802-M02-001", "place": "hamlet", "source": "UNDP - 2006"}}, {"type": "node", "id": 1404230283, "lat": 3.5855, "lon": 43.55163, "tags": {"name": "Mugi-Aarow", "pcode": "NA-3802-K02-004", "place": "hamlet", "source": "UNDP - 2006"}}, {"type": "node", "id": 1404230334, "lat": 3.58859, "lon": 43.800079, "tags": {"name": "Hobinsha", "pcode": "NA-3802-K07-001", "place": "hamlet", "source": "UNDP - 1997"}}, {"type": "node", "id": 1404230374, "lat": 3.616, "lon": 43.878262, "tags": {"name": "Jannal", "pcode": "NA-3802-K09-001", "place": "village", "source": "UNDP - 1997"}}, {"type": "node", "id": 1404230441, "lat": 3.58195, "lon": 43.55612, "tags": {"name": "Daarow", "pcode": "NA-3802-L02-007", "place": "hamlet", "source": "UNDP - 2006"}}, {"type": "node", "id": 1404230466, "lat": 3.63814, "lon": 43.87186, "tags": {"name": "Boberreh", "pcode": "NA-3802-J09-001", "place": "village", "source": "UNDP - 1997"}}, {"type": "node", "id": 1404230474, "lat": 3.55647, "lon": 43.58208, "tags": {"name": "Busul", "pcode": "NA-3802-L02-005", "place": "village", "source": "UNDP - 2006"}}, {"type": "node", "id": 1404230634, "lat": 3.5376978, "lon": 43.8512307, "tags": {"name": "Balan Baale", "pcode": "NA-3802-M08-005", "place": "village", "source": "UNDP - 2006"}}, {"type": "node", "id": 1404230665, "lat": 3.60057, "lon": 43.79503, "tags": {"name": "Buulo Xaansho", "pcode": "NA-3802-K07-006", "place": "village", "source": "UNDP - 2006"}}, {"type": "node", "id": 1404230685, "lat": 3.5321, "lon": 43.822899, "tags": {"name": "Haydabale", "pcode": "NA-3802-M08-001", "place": "village", "source": "UNDP - 1997"}}, {"type": "node", "id": 1404230741, "lat": 3.60865, "lon": 43.896931, "tags": {"name": "Kaiin", "pcode": "NA-3802-K09-002", "place": "village", "source": "UNDP - 1997"}}, {"type": "node", "id": 1404230788, "lat": 3.66692, "lon": 43.71599, "tags": {"name": "Madi-Sagaari", "pcode": "NA-3802-H05-003", "place": "village", "source": "UNDP - 2006"}}, {"type": "node", "id": 1404230792, "lat": 3.7152, "lon": 43.72703, "tags": {"alt_name": "Ilooyi", "name": "Iilile", "pcode": "NA-3802-G05-002", "place": "village", "source": "UNDP - 2006, UNDP - 1997"}}, {"type": "node", "id": 1404230881, "lat": 3.6176, "lon": 43.769299, "tags": {"name": "Awdey", "pcode": "NA-3802-K06-001", "place": "village", "source": "UNDP - 1997"}}, {"type": "node", "id": 1404230885, "lat": 3.55396, "lon": 43.77851, "tags": {"alt_name": "Ibdow", "name": "Edow", "pcode": "NA-3802-L07-004", "place": "village", "source": "UNDP - 2006, UNDP - 1997"}}, {"type": "node", "id": 1404230941, "lat": 3.66924, "lon": 43.719131, "tags": {"name": "Diiga", "pcode": "NA-3802-H05-001", "place": "village", "source": "UNDP - 1997"}}, {"type": "node", "id": 1404231264, "lat": 3.6016, "lon": 43.572399, "tags": {"name": "Harrow", "pcode": "NA-3802-K02-001", "place": "hamlet", "source": "UNDP - 1997"}}, {"type": "node", "id": 1404231568, "lat": 3.7371153, "lon": 43.7546249, "tags": {"name": "Alla Gabe", "pcode": "NA-3802-G06-002", "place": "village", "source": "UNDP - 1997"}}, {"type": "node", "id": 1404231760, "lat": 3.63151, "lon": 43.84243, "tags": {"alt_name": "Ganug", "name": "Gaanuugle", "pcode": "NA-3802-J08-004", "place": "village", "source": "UNDP - 2006, UNDP - 1997"}}, {"type": "node", "id": 1404231883, "lat": 3.65192, "lon": 43.7467, "tags": {"name": "Qarimey", "pcode": "NA-3802-J06-005", "place": "village", "source": "UNDP - 2006"}}, {"type": "node", "id": 1404232148, "lat": 3.71711, "lon": 43.80445, "tags": {"alt_name": "Doora Weere", "name": "Doora-Weri", "pcode": "NA-3802-G07-003", "place": "village", "source": "UNDP - 2006, UNDP - 1997"}}, {"type": "node", "id": 1404232364, "lat": 3.54998, "lon": 43.844761, "tags": {"name": "Drersin", "pcode": "NA-3802-L08-001", "place": "village", "source": "UNDP - 1997"}}, {"type": "node", "id": 1404232537, "lat": 3.594261, "lon": 43.572418, "tags": {"name": "Qali", "pcode": "NA-3802-K02-003", "place": "hamlet", "source": "UNDP - 2006, UNDP - 1997"}}, {"type": "node", "id": 1404232631, "lat": 3.57025, "lon": 43.7988, "tags": {"name": "Godow", "pcode": "NA-3802-L07-002", "place": "village", "source": "UNDP - 2006"}}, {"type": "node", "id": 1404232678, "lat": 3.7130677, "lon": 43.8142562, "tags": {"alt_name": "Lojir", "name": "Loojar", "pcode": "NA-3802-G07-002", "place": "village", "source": "UNDP - 2006, UNDP - 1997"}}, {"type": "node", "id": 1404232990, "lat": 3.67217, "lon": 43.71446, "tags": {"name": "Warka Waayi", "pcode": "NA-3802-H05-004", "place": "village", "source": "UNDP - 2006"}}, {"type": "node", "id": 1404233005, "lat": 3.533, "lon": 43.750599, "tags": {"name": "Bulo Balamal", "pcode": "NA-3802-M06-001", "place": "village", "source": "UNDP - 1997"}}, {"type": "node", "id": 1404233125, "lat": 3.9115014, "lon": 43.8192198, "tags": {"alt_name": "Dondardir Sss", "name": "Doondardiir", "pcode": "NA-3802-C08-001", "place": "village", "source": "UNDP - 2006, FSAU"}}, {"type": "node", "id": 1404233471, "lat": 3.63065, "lon": 43.804379, "tags": {"name": "Gonreh", "pcode": "NA-3802-J07-003", "place": "village", "source": "UNDP - 1997"}}, {"type": "node", "id": 1404233714, "lat": 3.63345, "lon": 43.731, "tags": {"name": "Aw-Maadow", "pcode": "NA-3802-J06-004", "place": "village", "source": "UNDP - 2006"}}, {"type": "node", "id": 1404233725, "lat": 3.86871, "lon": 43.76616, "tags": {"name": "Seynilow", "pcode": "NA-3802-D06-001", "place": "village", "source": "UNDP - 2006"}}]}