{"version": 0.6, "generator": "Overpass API 0.7.62.1 084b4234", "osm3s": {"timestamp_osm_base": "2024-09-30T19:03:00Z", "copyright": "The data included in this document is from www.openstreetmap.org. The data is made available under ODbL."}, "elements": [{"type": "node", "id": 44927119, "lat": 1.35, "lon": 35.05, "tags": {"is_in": "West pokot,Kenya", "name": "Mtembur", "place": "village", "wikidata": "Q6930427"}}, {"type": "node", "id": 44930894, "lat": 1.4833, "lon": 35.0166, "tags": {"created_by": "JOSM", "is_in": "West pokot,Kenya", "name": "Kuchelebai", "place": "village"}}, {"type": "node", "id": 44931243, "lat": 1.4666, "lon": 35.0166, "tags": {"created_by": "JOSM", "is_in": "West pokot,Kenya", "name": "Kongelai", "place": "village"}}, {"type": "node", "id": 44990208, "lat": 1.45, "lon": 34.8833, "tags": {"is_in": "West pokot,Kenya", "name": "Kiberengi", "place": "village", "wikidata": "Q6404005"}}, {"type": "node", "id": 44999834, "lat": 1.4825513, "lon": 35.0110798, "tags": {"is_in": "West pokot,Kenya", "name": "Kacheliba", "place": "village"}}, {"type": "node", "id": 1841551590, "lat": 1.5675, "lon": 34.93056, "tags": {"name": "Karita", "place": "hamlet"}}, {"type": "node", "id": 2229118008, "lat": 1.45, "lon": 34.8, "tags": {"GNS:dsg_code": "PPL", "GNS:dsg_string": "populated place", "GNS:id": "-1731223", "fixme": "no population estimate available, defaulted to village", "name": "Lokales", "place": "village", "source": "GNS"}}, {"type": "node", "id": 2229124780, "lat": 1.6, "lon": 34.85, "tags": {"GNS:dsg_code": "PPL", "GNS:dsg_string": "populated place", "GNS:id": "-1734600", "fixme": "no population estimate available, defaulted to village", "name": "Paripari", "place": "village", "source": "GNS"}}, {"type": "node", "id": 9894493827, "lat": 1.3423012, "lon": 34.7906934, "tags": {"name": "Muyembe", "place": "village", "source": "UBOS 2014"}}, {"type": "node", "id": 9894493828, "lat": 1.3277456, "lon": 34.7896289, "tags": {"name": "Kamokon", "place": "village", "source": "UBOS 2014"}}, {"type": "node", "id": 9894493831, "lat": 1.3515893, "lon": 34.7922877, "tags": {"name": "Kaplakatet", "place": "village", "source": "UBOS 2014"}}, {"type": "node", "id": 9894493832, "lat": 1.3262909, "lon": 34.7821894, "tags": {"name": "Kapsukut", "place": "village", "source": "UBOS 2014"}}, {"type": "node", "id": 9894493839, "lat": 1.3623142, "lon": 34.7797701, "tags": {"name": "Kululu", "place": "village", "source": "UBOS 2014"}}, {"type": "node", "id": 9894493840, "lat": 1.3388762, "lon": 34.7854119, "tags": {"name": "Mengo", "place": "village", "source": "UBOS 2014"}}, {"type": "node", "id": 9894493841, "lat": 1.3308658, "lon": 34.7986489, "tags": {"name": "Rorok", "place": "village", "source": "UBOS 2014"}}, {"type": "node", "id": 9894493843, "lat": 1.3792925, "lon": 34.7751667, "tags": {"name": "Chepsoikey", "place": "village", "source": "UBOS 2014"}}, {"type": "node", "id": 9894493845, "lat": 1.3335948, "lon": 34.7777498, "tags": {"name": "Tuyet", "place": "village", "source": "UBOS 2014"}}, {"type": "node", "id": 9894493849, "lat": 1.3458519, "lon": 34.7962214, "tags": {"name": "Nyokoswo", "place": "village", "source": "UBOS 2014"}}, {"type": "node", "id": 9894493853, "lat": 1.3375062, "lon": 34.7956887, "tags": {"name": "Kapkutunyo", "place": "village", "source": "UBOS 2014"}}, {"type": "node", "id": 9894493863, "lat": 1.345834, "lon": 34.7835063, "tags": {"name": "Riwo Hill", "place": "village", "source": "UBOS 2014"}}, {"type": "node", "id": 9894493865, "lat": 1.3946241, "lon": 34.7697021, "tags": {"name": "Kabasken", "place": "village", "source": "UBOS 2014"}}, {"type": "node", "id": 9894493876, "lat": 1.3451016, "lon": 34.7721538, "tags": {"name": "Kapsuiege", "place": "village", "source": "UBOS 2014"}}, {"type": "node", "id": 9894493880, "lat": 1.3527383, "lon": 34.7875046, "tags": {"name": "Kokoyong", "place": "village", "source": "UBOS 2014"}}, {"type": "node", "id": 10201985616, "lat": 1.7365849, "lon": 34.8861682, "tags": {"name": "Sikotai", "place": "village", "source": "Ubos 2014"}}, {"type": "node", "id": 10202079829, "lat": 1.626456, "lon": 34.9573347, "tags": {"name": "Natirira", "place": "village", "source": "Ubos 2014"}}, {"type": "node", "id": 10202079830, "lat": 1.672908, "lon": 34.9862798, "tags": {"name": "Morupus", "place": "village", "source": "Ubos 2014"}}, {"type": "node", "id": 10202079831, "lat": 1.6245583, "lon": 34.9267825, "tags": {"name": "Lolepon", "place": "village", "source": "Ubos 2014"}}, {"type": "node", "id": 10202079832, "lat": 1.6269222, "lon": 34.8068308, "tags": {"name": "Lochawa", "place": "village", "source": "Ubos 2014"}}, {"type": "node", "id": 10202079833, "lat": 1.6313342, "lon": 34.8313533, "tags": {"name": "Kidikdik", "place": "village", "source": "Ubos 2014"}}, {"type": "node", "id": 10202079834, "lat": 1.6239934, "lon": 34.9056201, "tags": {"name": "Katopoten", "place": "village", "source": "Ubos 2014"}}, {"type": "node", "id": 10202079835, "lat": 1.6763653, "lon": 34.9576318, "tags": {"name": "Kangulet", "place": "village", "source": "Ubos 2014"}}, {"type": "node", "id": 10202079836, "lat": 1.6405066, "lon": 34.905422, "tags": {"name": "Kangonoi", "place": "village", "source": "Ubos 2014"}}, {"type": "node", "id": 10202079837, "lat": 1.6286125, "lon": 34.8792536, "tags": {"name": "Kalokotyo", "place": "village", "source": "Ubos 2014"}}, {"type": "node", "id": 10202079838, "lat": 1.6654688, "lon": 34.9134752, "tags": {"name": "Kalawani", "place": "village", "source": "Ubos 2014"}}, {"type": "node", "id": 10202079839, "lat": 1.6283641, "lon": 34.8540176, "tags": {"name": "Kaichom", "place": "village", "source": "Ubos 2014"}}, {"type": "node", "id": 10202079840, "lat": 1.6906304, "lon": 34.8528654, "tags": {"name": "Hunting Area", "place": "village", "source": "Ubos 2014"}}, {"type": "node", "id": 10202079841, "lat": 1.6185985, "lon": 34.7809159, "tags": {"name": "Grazing Area", "place": "village", "source": "Ubos 2014"}}, {"type": "node", "id": 10202079842, "lat": 1.6159411, "lon": 34.9448311, "tags": {"name": "Compas", "place": "village", "source": "Ubos 2014"}}, {"type": "node", "id": 10202079843, "lat": 1.6562328, "lon": 34.8679718, "tags": {"name": "Cheptuyis", "place": "village", "source": "Ubos 2014"}}, {"type": "node", "id": 10202079844, "lat": 1.6502696, "lon": 34.9542184, "tags": {"name": "Cheptapoyo", "place": "village", "source": "Ubos 2014"}}, {"type": "node", "id": 10202079845, "lat": 1.4336769, "lon": 34.786398, "tags": {"name": "Tinga", "place": "village", "source": "Ubos 2014"}}, {"type": "node", "id": 10202079846, "lat": 1.4557081, "lon": 34.7747331, "tags": {"name": "Namoru", "place": "village", "source": "Ubos 2014"}}, {"type": "node", "id": 10202079847, "lat": 1.4508404, "lon": 34.8137551, "tags": {"name": "Murukokoi", "place": "village", "source": "Ubos 2014"}}, {"type": "node", "id": 10202079848, "lat": 1.4854163, "lon": 34.8317605, "tags": {"name": "Morwo", "place": "village", "source": "Ubos 2014"}}, {"type": "node", "id": 10202079853, "lat": 1.396449, "lon": 34.7867079, "tags": {"name": "Lotongot", "place": "village", "source": "Ubos 2014"}}, {"type": "node", "id": 10202079856, "lat": 1.4676242, "lon": 34.8342404, "tags": {"name": "Kokwochaya", "place": "village", "source": "Ubos 2014"}}, {"type": "node", "id": 10202079857, "lat": 1.4888121, "lon": 34.8060188, "tags": {"name": "Katukomo", "place": "village", "source": "Ubos 2014"}}, {"type": "node", "id": 10202079858, "lat": 1.4777096, "lon": 34.8146091, "tags": {"name": "Karengeoche", "place": "village", "source": "Ubos 2014"}}, {"type": "node", "id": 10202079863, "lat": 1.4744321, "lon": 34.7915123, "tags": {"name": "Cheptoror", "place": "village", "source": "Ubos 2014"}}, {"type": "node", "id": 10202079864, "lat": 1.4396089, "lon": 34.8018224, "tags": {"name": "Cheptokol", "place": "village", "source": "Ubos 2014"}}, {"type": "node", "id": 10202079865, "lat": 1.457284, "lon": 34.786649, "tags": {"name": "Chepkararat", "place": "village", "source": "Ubos 2014"}}, {"type": "node", "id": 10202079870, "lat": 1.5280232, "lon": 34.8247649, "tags": {"name": "Taparak", "place": "village", "source": "Ubos 2014"}}, {"type": "node", "id": 10202079871, "lat": 1.556638, "lon": 34.8268892, "tags": {"name": "Riting", "place": "village", "source": "Ubos 2014"}}, {"type": "node", "id": 10202079872, "lat": 1.5906376, "lon": 34.9041445, "tags": {"name": "Ngongosowon", "place": "village", "source": "Ubos 2014"}}, {"type": "node", "id": 10202079873, "lat": 1.5666104, "lon": 34.8586649, "tags": {"name": "Nawoi", "place": "village", "source": "Ubos 2014"}}, {"type": "node", "id": 10202079874, "lat": 1.5956603, "lon": 34.8194382, "tags": {"name": "Namodo", "place": "village", "source": "Ubos 2014"}}, {"type": "node", "id": 10202079877, "lat": 1.5080462, "lon": 34.8271408, "tags": {"name": "Morwo", "place": "village", "source": "Ubos 2014"}}, {"type": "node", "id": 10202079878, "lat": 1.5412313, "lon": 34.8474533, "tags": {"name": "Morwakengan", "place": "village", "source": "Ubos 2014"}}, {"type": "node", "id": 10202079879, "lat": 1.5942903, "lon": 34.8411821, "tags": {"name": "Moromodo", "place": "village", "source": "Ubos 2014"}}, {"type": "node", "id": 10202079880, "lat": 1.5458792, "lon": 34.7960833, "tags": {"name": "Mokogwo", "place": "village", "source": "Ubos 2014"}}, {"type": "node", "id": 10202079881, "lat": 1.5306093, "lon": 34.8599984, "tags": {"name": "Korenyang", "place": "village", "source": "Ubos 2014"}}, {"type": "node", "id": 10202079882, "lat": 1.5541956, "lon": 34.9140313, "tags": {"name": "Katukumwok", "place": "village", "source": "Ubos 2014"}}, {"type": "node", "id": 10202079883, "lat": 1.529158, "lon": 34.841554, "tags": {"name": "Karita", "place": "village", "source": "Ubos 2014"}}, {"type": "node", "id": 10202079884, "lat": 1.5492629, "lon": 34.8623706, "tags": {"name": "Kakengere", "place": "village", "source": "Ubos 2014"}}, {"type": "node", "id": 10202079885, "lat": 1.5866889, "lon": 34.857774, "tags": {"name": "Kaetuku", "place": "village", "source": "Ubos 2014"}}, {"type": "node", "id": 10202079886, "lat": 1.563929, "lon": 34.7824425, "tags": {"name": "Grazing Area", "place": "village", "source": "Ubos 2014"}}, {"type": "node", "id": 10202079887, "lat": 1.6063342, "lon": 34.892797, "tags": {"name": "Cherelachkochua", "place": "village", "source": "Ubos 2014"}}, {"type": "node", "id": 10202079888, "lat": 1.5154566, "lon": 34.8368653, "tags": {"name": "Chemoikut", "place": "village", "source": "Ubos 2014"}}, {"type": "node", "id": 10202079889, "lat": 1.5812326, "lon": 34.8920906, "tags": {"name": "Akurauyan", "place": "village", "source": "Ubos 2014"}}, {"type": "node", "id": 10202079890, "lat": 1.5661411, "lon": 34.9094706, "tags": {"name": "Abongai", "place": "village", "source": "Ubos 2014"}}, {"type": "node", "id": 10202089420, "lat": 1.7076623, "lon": 34.9816124, "tags": {"name": "Morupus", "place": "village", "source": "Ubos 2014"}}, {"type": "node", "id": 10202089427, "lat": 1.6912059, "lon": 34.9350027, "tags": {"name": "Kodukoi", "place": "village", "source": "Ubos 2014"}}, {"type": "node", "id": 10202089430, "lat": 1.7298971, "lon": 34.8663089, "tags": {"name": "Kapetawoi", "place": "village", "source": "Ubos 2014"}}, {"type": "node", "id": 10202089431, "lat": 1.7134587, "lon": 34.9077178, "tags": {"name": "Kanaroyon", "place": "village", "source": "Ubos 2014"}}, {"type": "node", "id": 10202089433, "lat": 1.7091468, "lon": 34.9586985, "tags": {"name": "Dingding", "place": "village", "source": "Ubos 2014"}}, {"type": "node", "id": 10202089434, "lat": 1.7233106, "lon": 34.9385024, "tags": {"name": "Akuryon", "place": "village", "source": "Ubos 2014"}}, {"type": "node", "id": 10904592958, "lat": 1.7355959, "lon": 34.780975, "tags": {"name": "Ulingiro", "place": "village", "source": "UBOS_2021"}}, {"type": "node", "id": 10924126477, "lat": 1.5284529, "lon": 34.7873961}, {"type": "node", "id": 10924126478, "lat": 1.5265623, "lon": 34.7924089}, {"type": "node", "id": 10924126479, "lat": 1.5237102, "lon": 34.7942096}, {"type": "node", "id": 10924126480, "lat": 1.5217891, "lon": 34.7924383}, {"type": "node", "id": 10924126481, "lat": 1.5199962, "lon": 34.7916448}, {"type": "node", "id": 10924126482, "lat": 1.5184034, "lon": 34.7887797}, {"type": "node", "id": 10924126483, "lat": 1.518584, "lon": 34.7850763}, {"type": "node", "id": 10924126484, "lat": 1.5197747, "lon": 34.7800844}, {"type": "node", "id": 10924126485, "lat": 1.5220107, "lon": 34.7774239}, {"type": "node", "id": 10924126486, "lat": 1.5277798, "lon": 34.7766393}, {"type": "node", "id": 10924126487, "lat": 1.5295579, "lon": 34.7804541}, {"type": "node", "id": 10924126488, "lat": 1.5300554, "lon": 34.7848127}, {"type": "node", "id": 10924338960, "lat": 1.4678378, "lon": 34.8658359}, {"type": "node", "id": 10924338961, "lat": 1.4664284, "lon": 34.8661459}, {"type": "node", "id": 10924338962, "lat": 1.4664382, "lon": 34.8668349}, {"type": "node", "id": 10924338963, "lat": 1.4673258, "lon": 34.8678757}, {"type": "node", "id": 10924338964, "lat": 1.4679983, "lon": 34.867435}, {"type": "node", "id": 10924338965, "lat": 1.4683177, "lon": 34.8669094}, {"type": "way", "id": 1175621152, "nodes": [10924126477, 10924126478, 10924126479, 10924126480, 10924126481, 10924126482, 10924126483, 10924126484, 10924126485, 10924126486, 10924126487, 10924126488, 10924126477], "tags": {"place": "village"}}, {"type": "way", "id": 1175649382, "nodes": [10924338960, 10924338961, 10924338962, 10924338963, 10924338964, 10924338965, 10924338960], "tags": {"place": "village"}}]}