{"version": 0.6, "generator": "Overpass API 0.7.62.1 084b4234", "osm3s": {"timestamp_osm_base": "2024-09-30T19:56:45Z", "copyright": "The data included in this document is from www.openstreetmap.org. The data is made available under ODbL."}, "elements": [{"type": "node", "id": 1404222140, "lat": 10.601, "lon": 50.527199, "tags": {"fixme": "Please, check location!", "name": "El Fira", "pcode": "NC-3906-K23-001", "place": "village", "source": "UNDP - 1997"}}, {"type": "node", "id": 1404223840, "lat": 10.7501, "lon": 50.298302, "tags": {"fixme": "Please, check location!", "name": "El Arare", "pcode": "NC-3906-F18-001", "place": "village", "source": "UNDP - 1997"}}, {"type": "node", "id": 1404227253, "lat": 10.66599, "lon": 50.53527, "tags": {"alt_name": "Xamurre", "name": "Xamure", "pcode": "NC-3906-J23-001", "place": "village", "source": "UNDP - 2006, UNDP - 1997, FSAU"}}, {"type": "node", "id": 1404228290, "lat": 10.7211, "lon": 50.331402, "tags": {"fixme": "Please, check location!", "name": "Legunle", "pcode": "NC-3906-G19-001", "place": "village", "source": "UNDP - 1997"}}, {"type": "node", "id": 1404232770, "lat": 10.42333, "lon": 50.18933, "tags": {"name": "Dhextaal", "pcode": "NC-3906-P16-001", "place": "village", "source": "UNDP - 2006"}}, {"type": "node", "id": 1404233164, "lat": 10.56245, "lon": 50.42396, "tags": {"name": "Timirshe", "pcode": "NC-3906-L21-001", "place": "village", "source": "UNDP - 2006, UNDP - 1997, FSAU"}}]}