{"version": 0.6, "generator": "Overpass API 0.7.62.1 084b4234", "osm3s": {"timestamp_osm_base": "2024-09-30T22:03:35Z", "copyright": "The data included in this document is from www.openstreetmap.org. The data is made available under ODbL."}, "elements": [{"type": "node", "id": 1150884423, "lat": 9.75, "lon": 41.0, "tags": {"is_in:country": "Ethiopia", "is_in:country_code": "ET", "name": "Ch'Erch'Er Na Adal Na Gara Guracha Awraja", "place": "locality", "source": "GeoDatabase"}}, {"type": "node", "id": 1150887989, "lat": 9.65, "lon": 40.88333, "tags": {"is_in:country": "Ethiopia", "is_in:country_code": "ET", "name": "Bishine Shet'", "place": "locality", "source": "GeoDatabase"}}, {"type": "node", "id": 1150892304, "lat": 9.96667, "lon": 41.13333, "tags": {"name": "Sultelli", "place": "locality", "source": "GeoDatabase"}}, {"type": "node", "id": 1150895019, "lat": 9.83333, "lon": 40.98333, "tags": {"is_in:country": "Ethiopia", "is_in:country_code": "ET", "name": "Mauro", "place": "locality", "source": "GeoDatabase"}}, {"type": "node", "id": 1150902911, "lat": 9.65, "lon": 41.01667, "tags": {"is_in:country": "Ethiopia", "is_in:country_code": "ET", "name": "Unda Rugdaia", "place": "locality", "source": "GeoDatabase"}}, {"type": "node", "id": 1150903287, "lat": 9.8, "lon": 40.86667, "tags": {"is_in:country": "Ethiopia", "is_in:country_code": "ET", "name": "Farare", "place": "locality", "source": "GeoDatabase"}}, {"type": "node", "id": 1150905565, "lat": 9.76667, "lon": 40.83333, "tags": {"is_in:country": "Ethiopia", "is_in:country_code": "ET", "name": "Doba", "place": "locality", "source": "GeoDatabase"}}, {"type": "node", "id": 1150914745, "lat": 9.73333, "lon": 40.83333, "tags": {"is_in:country": "Ethiopia", "is_in:country_code": "ET", "name": "Amoissa", "place": "locality", "source": "GeoDatabase"}}, {"type": "node", "id": 1150922642, "lat": 9.9794415, "lon": 41.1654684, "tags": {"alt_name": "Osboli", "name": "Asbuli", "place": "village", "source": "GeoDatabase", "wikidata": "Q38249604", "wikipedia": "en:Asbuli"}}, {"type": "node", "id": 1150934383, "lat": 10.01, "lon": 41.06167, "tags": {"is_in:country": "Ethiopia", "is_in:country_code": "ET", "name": "Gudbene Meda", "place": "locality", "source": "GeoDatabase"}}, {"type": "node", "id": 1150945665, "lat": 9.83333, "lon": 40.91667, "tags": {"is_in:country": "Ethiopia", "is_in:country_code": "ET", "name": "Maiugeri", "place": "locality", "source": "GeoDatabase"}}, {"type": "node", "id": 1150957788, "lat": 9.71667, "lon": 40.96667, "tags": {"is_in:country": "Ethiopia", "is_in:country_code": "ET", "name": "Ama Esa Meda", "place": "locality", "source": "GeoDatabase"}}]}