{"version": 0.6, "generator": "Overpass API 0.7.62.1 084b4234", "osm3s": {"timestamp_osm_base": "2024-09-30T21:28:45Z", "copyright": "The data included in this document is from www.openstreetmap.org. The data is made available under ODbL."}, "elements": [{"type": "node", "id": 1150882609, "lat": 11.78333, "lon": 40.05, "tags": {"is_in:country_code": "ET", "is_in:county": "Ethiopia", "name": "Robtili Shet'", "place": "locality", "source": "GeoDatabase"}}, {"type": "node", "id": 1150883612, "lat": 11.73333, "lon": 40.16667, "tags": {"is_in:country_code": "ET", "is_in:county": "Ethiopia", "name": "Amolita Shet'", "place": "locality", "source": "GeoDatabase"}}, {"type": "node", "id": 1150883635, "lat": 11.63333, "lon": 40.15, "tags": {"is_in:country_code": "ET", "is_in:county": "Ethiopia", "name": "Mi'Awa Shet'", "place": "locality", "source": "GeoDatabase"}}, {"type": "node", "id": 1150887170, "lat": 11.75, "lon": 40.0, "tags": {"is_in:country_code": "ET", "is_in:county": "Ethiopia", "name": "Yeju Awraja", "place": "locality", "source": "GeoDatabase"}}, {"type": "node", "id": 1150887380, "lat": 11.61667, "lon": 40.1, "tags": {"is_in:country_code": "ET", "is_in:county": "Ethiopia", "name": "Andarcalo", "place": "locality", "source": "GeoDatabase"}}, {"type": "node", "id": 1150888165, "lat": 11.58333, "lon": 40.0, "tags": {"is_in:country_code": "ET", "is_in:county": "Ethiopia", "name": "Ambasel Awraja", "place": "locality", "source": "GeoDatabase"}}, {"type": "node", "id": 1150890278, "lat": 11.63333, "lon": 40.3, "tags": {"is_in:country_code": "ET", "is_in:county": "Ethiopia", "name": "Dirma Shet'", "place": "locality", "source": "GeoDatabase"}}, {"type": "node", "id": 1150892279, "lat": 11.58333, "lon": 40.06666, "tags": {"is_in:country_code": "ET", "is_in:county": "Ethiopia", "name": "Ch'Ifra Meda", "place": "locality", "source": "GeoDatabase"}}, {"type": "node", "id": 1150896388, "lat": 11.85, "lon": 40.36667, "tags": {"is_in:country_code": "ET", "is_in:county": "Ethiopia", "name": "Burk'A Shet'", "place": "locality", "source": "GeoDatabase"}}, {"type": "node", "id": 1150898410, "lat": 11.68333, "lon": 40.38333, "tags": {"is_in:country_code": "ET", "is_in:county": "Ethiopia", "name": "Jara Shet'", "place": "locality", "source": "GeoDatabase"}}, {"type": "node", "id": 1150898950, "lat": 11.65, "lon": 40.0, "tags": {"is_in:country_code": "ET", "is_in:county": "Ethiopia", "name": "Bulbula", "place": "locality", "source": "GeoDatabase"}}, {"type": "node", "id": 1150903343, "lat": 11.73333, "lon": 40.21667, "tags": {"is_in:country_code": "ET", "is_in:county": "Ethiopia", "name": "Mersa", "place": "locality", "source": "GeoDatabase"}}, {"type": "node", "id": 1150912248, "lat": 11.8, "lon": 40.0, "tags": {"is_in:country_code": "ET", "is_in:county": "Ethiopia", "name": "Ragden", "place": "locality", "source": "GeoDatabase"}}, {"type": "node", "id": 1150912548, "lat": 11.63333, "lon": 40.1, "tags": {"is_in:country_code": "ET", "is_in:county": "Ethiopia", "name": "Burk'A Shet'", "place": "locality", "source": "GeoDatabase"}}, {"type": "node", "id": 1150915176, "lat": 11.6033251, "lon": 40.0162457, "tags": {"name": "Chifra", "place": "town", "source": "GeoDatabase"}}, {"type": "node", "id": 1150919281, "lat": 11.68333, "lon": 40.33333, "tags": {"is_in:country_code": "ET", "is_in:county": "Ethiopia", "name": "Ogoggo", "place": "locality", "source": "GeoDatabase"}}, {"type": "node", "id": 1150923413, "lat": 11.85, "lon": 40.05, "tags": {"is_in:country_code": "ET", "is_in:county": "Ethiopia", "name": "Gambato", "place": "locality", "source": "GeoDatabase"}}, {"type": "node", "id": 1150927230, "lat": 11.86667, "lon": 40.35, "tags": {"is_in:country_code": "ET", "is_in:county": "Ethiopia", "name": "Boyta Shet'", "place": "locality", "source": "GeoDatabase"}}, {"type": "node", "id": 1150931617, "lat": 11.85, "lon": 40.3, "tags": {"is_in:country_code": "ET", "is_in:county": "Ethiopia", "name": "Uwa Shet'", "place": "locality", "source": "GeoDatabase"}}, {"type": "node", "id": 1150934342, "lat": 11.58333, "lon": 40.05, "tags": {"is_in:country_code": "ET", "is_in:county": "Ethiopia", "name": "Uodedsca", "place": "locality", "source": "GeoDatabase"}}, {"type": "node", "id": 1150943501, "lat": 11.61667, "lon": 40.36667, "tags": {"is_in:country_code": "ET", "is_in:county": "Ethiopia", "name": "Gega Bota", "place": "locality", "source": "GeoDatabase"}}, {"type": "node", "id": 1150943624, "lat": 11.83333, "lon": 40.18333, "tags": {"is_in:country_code": "ET", "is_in:county": "Ethiopia", "name": "Uwa Meda", "place": "locality", "source": "GeoDatabase"}}, {"type": "node", "id": 1150948499, "lat": 11.61667, "lon": 40.26667, "tags": {"is_in:country_code": "ET", "is_in:county": "Ethiopia", "name": "Idi Meli Bota", "place": "locality", "source": "GeoDatabase"}}, {"type": "node", "id": 1150951779, "lat": 11.81667, "lon": 40.03333, "tags": {"is_in:country_code": "ET", "is_in:county": "Ethiopia", "name": "Duba Meda", "place": "locality", "source": "GeoDatabase"}}, {"type": "node", "id": 1150956137, "lat": 11.7, "lon": 40.18333, "tags": {"is_in:country_code": "ET", "is_in:county": "Ethiopia", "name": "Damutta", "place": "locality", "source": "GeoDatabase"}}, {"type": "node", "id": 1150956322, "lat": 11.65, "lon": 40.13333, "tags": {"is_in:country_code": "ET", "is_in:county": "Ethiopia", "name": "Lihadi", "place": "locality", "source": "GeoDatabase"}}, {"type": "node", "id": 1150961573, "lat": 11.6, "lon": 40.35, "tags": {"is_in:country_code": "ET", "is_in:county": "Ethiopia", "name": "Waneba Shet'", "place": "locality", "source": "GeoDatabase"}}, {"type": "node", "id": 1150973947, "lat": 11.78333, "lon": 40.35, "tags": {"is_in:country_code": "ET", "is_in:county": "Ethiopia", "name": "Uruyegifi Terara", "place": "locality", "source": "GeoDatabase"}}, {"type": "node", "id": 1150977118, "lat": 11.6, "lon": 40.05, "tags": {"is_in:country_code": "ET", "is_in:county": "Ethiopia", "name": "Mede'Ani Shet'", "place": "locality", "source": "GeoDatabase"}}, {"type": "node", "id": 1150980398, "lat": 11.73333, "lon": 40.06666, "tags": {"is_in:country_code": "ET", "is_in:county": "Ethiopia", "name": "Fura", "place": "locality", "source": "GeoDatabase"}}]}