{"version": 0.6, "generator": "Overpass API 0.7.62.1 084b4234", "osm3s": {"timestamp_osm_base": "2024-09-30T18:32:00Z", "copyright": "The data included in this document is from www.openstreetmap.org. The data is made available under ODbL."}, "elements": [{"type": "node", "id": 44925060, "lat": -0.7224425, "lon": 36.4387834, "tags": {"name": "Naivasha", "place": "town", "population": "14563", "wikidata": "Q1007647", "wikipedia": "en:Naivasha"}}, {"type": "node", "id": 44929244, "lat": -0.616434, "lon": 36.433315, "tags": {"name": "Melewa", "place": "village", "wikidata": "Q6812204"}}, {"type": "node", "id": 653500355, "lat": -0.8272445, "lon": 36.332726, "tags": {"name": "Watalii", "place": "village"}}, {"type": "node", "id": 1634534499, "lat": -0.8187208, "lon": 36.2593801, "tags": {"addr:city": "Kongoni", "addr:street": "Moi North lake Road", "name": "Kongoni", "place": "town"}}, {"type": "node", "id": 1634534501, "lat": -0.8233264, "lon": 36.2027311, "tags": {"name": "Ngoondi", "place": "village"}}, {"type": "node", "id": 1710478419, "lat": -0.7049952, "lon": 36.429335}, {"type": "node", "id": 1710478424, "lat": -0.704811, "lon": 36.4355049}, {"type": "node", "id": 1710478431, "lat": -0.7072984, "lon": 36.4263014}, {"type": "node", "id": 1710478432, "lat": -0.7117734, "lon": 36.4285817}, {"type": "node", "id": 1710478433, "lat": -0.7189767, "lon": 36.4468928}, {"type": "node", "id": 1710478434, "lat": -0.7214193, "lon": 36.4332925}, {"type": "node", "id": 1710478435, "lat": -0.7255146, "lon": 36.4512991}, {"type": "node", "id": 1710478436, "lat": -0.7223279, "lon": 36.4336636}, {"type": "node", "id": 1710478437, "lat": -0.7341362, "lon": 36.4546944}, {"type": "node", "id": 1710478438, "lat": -0.7314023, "lon": 36.4363937}, {"type": "node", "id": 1710478441, "lat": -0.73336, "lon": 36.4372011}, {"type": "node", "id": 1710478443, "lat": -0.7347848, "lon": 36.4540429}, {"type": "node", "id": 1710478451, "lat": -0.73763, "lon": 36.4415809}, {"type": "node", "id": 1710478452, "lat": -0.7370222, "lon": 36.4398678}, {"type": "node", "id": 2567594588, "lat": -0.6984752, "lon": 36.4258374}, {"type": "node", "id": 2567594589, "lat": -0.6996729, "lon": 36.4230637}, {"type": "node", "id": 2567594590, "lat": -0.7028696, "lon": 36.4246125}, {"type": "node", "id": 2567594591, "lat": -0.7030837, "lon": 36.424113}, {"type": "node", "id": 2567594592, "lat": -0.7056822, "lon": 36.4344245}, {"type": "node", "id": 2567594594, "lat": -0.7095741, "lon": 36.4275059}, {"type": "node", "id": 2567594595, "lat": -0.7102962, "lon": 36.4386078}, {"type": "node", "id": 2567594628, "lat": -0.7141018, "lon": 36.4415859}, {"type": "node", "id": 2567594631, "lat": -0.7157246, "lon": 36.4303373}, {"type": "node", "id": 2567594638, "lat": -0.7186801, "lon": 36.4318841}, {"type": "node", "id": 2567594641, "lat": -0.7194404, "lon": 36.4355047}, {"type": "node", "id": 2567594642, "lat": -0.7194689, "lon": 36.4358901}, {"type": "node", "id": 2567594643, "lat": -0.7197971, "lon": 36.4355095}, {"type": "node", "id": 2567594644, "lat": -0.7207061, "lon": 36.4350635}, {"type": "node", "id": 2567594645, "lat": -0.7208931, "lon": 36.4351756}, {"type": "node", "id": 2567594646, "lat": -0.7209153, "lon": 36.4486625}, {"type": "node", "id": 2567594647, "lat": -0.7212766, "lon": 36.4357759}, {"type": "node", "id": 2567594648, "lat": -0.7213765, "lon": 36.4348863}, {"type": "node", "id": 2567594649, "lat": -0.7214288, "lon": 36.4353144}, {"type": "node", "id": 2567594650, "lat": -0.7216048, "lon": 36.4339538}, {"type": "node", "id": 2567594651, "lat": -0.7218144, "lon": 36.449262}, {"type": "node", "id": 2567594652, "lat": -0.7223279, "lon": 36.4338825}, {"type": "node", "id": 2567594653, "lat": -0.7223964, "lon": 36.434929}, {"type": "node", "id": 2567594654, "lat": -0.722692, "lon": 36.4358443}, {"type": "node", "id": 2567594656, "lat": -0.7236439, "lon": 36.4503399}, {"type": "node", "id": 2567594659, "lat": -0.7254295, "lon": 36.4348149}, {"type": "node", "id": 2567594661, "lat": -0.7256314, "lon": 36.4352618}, {"type": "node", "id": 2567594663, "lat": -0.7259902, "lon": 36.4351245}, {"type": "node", "id": 2567594665, "lat": -0.7262327, "lon": 36.4358547}, {"type": "node", "id": 2567594666, "lat": -0.7263428, "lon": 36.4363563}, {"type": "node", "id": 2567594667, "lat": -0.7266017, "lon": 36.4354412}, {"type": "node", "id": 2567594668, "lat": -0.7266683, "lon": 36.4357229}, {"type": "node", "id": 2567594669, "lat": -0.7269308, "lon": 36.4364107}, {"type": "node", "id": 2567594670, "lat": -0.7270504, "lon": 36.4363633}, {"type": "node", "id": 2567594671, "lat": -0.7272635, "lon": 36.4357319}, {"type": "node", "id": 2567594672, "lat": -0.72767, "lon": 36.4357449}, {"type": "node", "id": 2567594674, "lat": -0.7279365, "lon": 36.4360328}, {"type": "node", "id": 2567594676, "lat": -0.7280649, "lon": 36.4355904}, {"type": "node", "id": 2567594683, "lat": -0.7283101, "lon": 36.452346}, {"type": "node", "id": 2567594700, "lat": -0.7292488, "lon": 36.4359764}, {"type": "node", "id": 2567594701, "lat": -0.7293463, "lon": 36.4371479}, {"type": "node", "id": 2567594707, "lat": -0.7297632, "lon": 36.4372174}, {"type": "node", "id": 2567594708, "lat": -0.7298583, "lon": 36.4368226}, {"type": "node", "id": 2567594722, "lat": -0.7305053, "lon": 36.4373982}, {"type": "node", "id": 2567594723, "lat": -0.7305576, "lon": 36.4369891}, {"type": "node", "id": 2567594732, "lat": -0.7310285, "lon": 36.4375314}, {"type": "node", "id": 2567594751, "lat": -0.7332053, "lon": 36.4377662}, {"type": "node", "id": 2567594758, "lat": -0.7336265, "lon": 36.4528063}, {"type": "node", "id": 2567594762, "lat": -0.7340159, "lon": 36.4387115}, {"type": "node", "id": 2567594763, "lat": -0.734142, "lon": 36.4382291}, {"type": "node", "id": 2567594764, "lat": -0.7343395, "lon": 36.4507339}, {"type": "node", "id": 2567594765, "lat": -0.7347021, "lon": 36.4496067}, {"type": "node", "id": 2567594766, "lat": -0.7353703, "lon": 36.4510309}, {"type": "node", "id": 2567594767, "lat": -0.735658, "lon": 36.4499575}, {"type": "node", "id": 2567594768, "lat": -0.7376362, "lon": 36.4410537}, {"type": "node", "id": 3396864194, "lat": -0.7051837, "lon": 36.4307313}, {"type": "node", "id": 3396864196, "lat": -0.7054388, "lon": 36.432621}, {"type": "node", "id": 3396864197, "lat": -0.7054618, "lon": 36.4327919}, {"type": "node", "id": 3799041204, "lat": -0.714033, "lon": 36.297753, "tags": {"name": "Kasarani", "place": "town"}}, {"type": "node", "id": 3987852162, "lat": -0.7359205, "lon": 36.4392336}, {"type": "node", "id": 3987852163, "lat": -0.7368547, "lon": 36.4406832}, {"type": "node", "id": 3987852164, "lat": -0.7373447, "lon": 36.4405751}, {"type": "node", "id": 4515247324, "lat": -0.7770786, "lon": 36.4355658, "tags": {"name": "Karagita", "place": "quarter"}}, {"type": "node", "id": 4697822473, "lat": -0.7267765, "lon": 36.4362827}, {"type": "node", "id": 4786895395, "lat": -0.7203115, "lon": 36.4353654}, {"type": "node", "id": 4947644326, "lat": -0.7074151, "lon": 36.4263631}, {"type": "node", "id": 6057392779, "lat": -0.7020748, "lon": 36.4277684}, {"type": "node", "id": 6057983779, "lat": -0.7035543, "lon": 36.428562}, {"type": "node", "id": 6057983782, "lat": -0.7039656, "lon": 36.4287827}, {"type": "node", "id": 6057983932, "lat": -0.7172098, "lon": 36.4310434}, {"type": "node", "id": 6059988243, "lat": -0.7216259, "lon": 36.4333769}, {"type": "node", "id": 7065823740, "lat": -0.818813, "lon": 36.3194436, "tags": {"name": "Kamere", "place": "village"}}, {"type": "node", "id": 9303670786, "lat": -0.6395382, "lon": 36.432415, "tags": {"name": "Aberdare Hills Golf Estate and Resort", "place": "neighbourhood"}}, {"type": "node", "id": 9685638320, "lat": -0.5863894, "lon": 36.4112376, "tags": {"name": "Mbo-i-Kamiti", "place": "village"}}, {"type": "node", "id": 9685638321, "lat": -0.6945743, "lon": 36.281117, "tags": {"name": "Loldia", "place": "village"}}, {"type": "node", "id": 9685638322, "lat": -0.5824468, "lon": 36.4455754, "tags": {"name": "Gwa Share B", "place": "village"}}, {"type": "node", "id": 9685638323, "lat": -0.5723003, "lon": 36.4464409, "tags": {"name": "Gwa Share A", "place": "village"}}, {"type": "node", "id": 9685638324, "lat": -0.6008329, "lon": 36.4486781, "tags": {"name": "Nyakinyua", "place": "village"}}, {"type": "node", "id": 9685638325, "lat": -0.6185467, "lon": 36.448821, "tags": {"name": "Kienjero", "place": "village"}}, {"type": "node", "id": 9685638326, "lat": -0.626306, "lon": 36.4596294, "tags": {"name": "Milimani", "place": "village"}}, {"type": "node", "id": 9685638327, "lat": -0.6277744, "lon": 36.449588, "tags": {"name": "Gichagi", "place": "village"}}, {"type": "node", "id": 9685638329, "lat": -0.6344492, "lon": 36.4495833, "tags": {"name": "Kangari", "place": "village"}}, {"type": "node", "id": 9685638330, "lat": -0.641331, "lon": 36.4628189, "tags": {"name": "Mugumoini B", "place": "village"}}, {"type": "node", "id": 9685638331, "lat": -0.6533021, "lon": 36.4459133, "tags": {"name": "Mugumoini A", "place": "village"}}, {"type": "node", "id": 9685638334, "lat": -0.6743396, "lon": 36.4546748, "tags": {"name": "Gathengera", "place": "village"}}, {"type": "node", "id": 9685638336, "lat": -0.694115, "lon": 36.4673688, "tags": {"name": "Nyondia Main", "place": "village"}}, {"type": "node", "id": 9685638337, "lat": -0.6941159, "lon": 36.45713, "tags": {"name": "Nyondia", "place": "village"}}, {"type": "node", "id": 9685638338, "lat": -0.6869517, "lon": 36.3305123, "tags": {"name": "Colour Crop Farm", "place": "village"}}, {"type": "node", "id": 9685638339, "lat": -0.6665132, "lon": 36.368313, "tags": {"name": "Marula Farm", "place": "village"}}, {"type": "node", "id": 9685638340, "lat": -0.6704498, "lon": 36.3343489, "tags": {"name": "Malewabay", "place": "village"}}, {"type": "node", "id": 9685638341, "lat": -0.6924908, "lon": 36.3056488, "tags": {"name": "Loldia", "place": "village"}}, {"type": "node", "id": 9685638342, "lat": -0.697715, "lon": 36.3321358, "tags": {"name": "Nyanjugu Farm", "place": "village"}}, {"type": "node", "id": 9685638343, "lat": -0.7095612, "lon": 36.2953405, "tags": {"name": "Line Saba B", "place": "village"}}, {"type": "node", "id": 9685638344, "lat": -0.7107207, "lon": 36.2949326, "tags": {"name": "Sokoni", "place": "village"}}, {"type": "node", "id": 9685638345, "lat": -0.7124216, "lon": 36.2997878, "tags": {"name": "Kasarani", "place": "village"}}, {"type": "node", "id": 9685638346, "lat": -0.7137095, "lon": 36.2938631, "tags": {"name": "Mabatini", "place": "village"}}, {"type": "node", "id": 9685638347, "lat": -0.7170647, "lon": 36.3048405, "tags": {"name": "Groove Ltd", "place": "village"}}, {"type": "node", "id": 9685638348, "lat": -0.7197777, "lon": 36.2983512, "tags": {"name": "Shalimar Camp", "place": "village"}}, {"type": "node", "id": 9685638349, "lat": -0.7334731, "lon": 36.27544, "tags": {"name": "Rocco Farm,Olesuswa,Bilashaka And Eco Scape", "place": "village"}}, {"type": "node", "id": 9685638350, "lat": -0.6201076, "lon": 36.4337321, "tags": {"name": "Malewa", "place": "village"}}, {"type": "node", "id": 9685638351, "lat": -0.6151051, "lon": 36.4281343, "tags": {"name": "Nganoini", "place": "village"}}, {"type": "node", "id": 9685638352, "lat": -0.6447634, "lon": 36.4036466, "tags": {"name": "DTI/Kenya Nut/Malu", "place": "village"}}, {"type": "node", "id": 9685638353, "lat": -0.6734916, "lon": 36.4269011, "tags": {"name": "Panda", "place": "village"}}, {"type": "node", "id": 9685638354, "lat": -0.6653397, "lon": 36.3008361, "tags": {"name": "Greenpark", "place": "village"}}, {"type": "node", "id": 9691374123, "lat": -0.727118, "lon": 36.436054}, {"type": "node", "id": 9693191393, "lat": -0.7344961, "lon": 36.4543869}, {"type": "node", "id": 9694428090, "lat": -0.5765398, "lon": 36.3669142, "tags": {"name": "weigh bridge", "place": "village"}}, {"type": "node", "id": 9734094317, "lat": -0.7560592, "lon": 36.4311785, "tags": {"name": "Junction 2", "place": "village"}}, {"type": "node", "id": 9734094318, "lat": -0.7563772, "lon": 36.4409476, "tags": {"name": "Junction Maili Mbili", "place": "village"}}, {"type": "node", "id": 9734094319, "lat": -0.7998039, "lon": 36.4642768, "tags": {"name": "Astu", "place": "village"}}, {"type": "node", "id": 9734094320, "lat": -0.8288925, "lon": 36.4565763, "tags": {"name": "Suswa", "place": "village"}}, {"type": "node", "id": 9734094336, "lat": -0.8036111, "lon": 36.4460504, "tags": {"name": "Rubiri/Suswa", "place": "village"}}, {"type": "node", "id": 9734094337, "lat": -0.7654568, "lon": 36.4368665, "tags": {"name": "Villaview", "place": "neighbourhood"}}, {"type": "node", "id": 9734094338, "lat": -0.7867331, "lon": 36.4451863, "tags": {"name": "Flamingo A", "place": "neighbourhood"}}, {"type": "node", "id": 9734094339, "lat": -0.7679565, "lon": 36.4436394, "tags": {"name": "Junction 1", "place": "village"}}, {"type": "node", "id": 9734094340, "lat": -0.7748023, "lon": 36.4410071, "tags": {"name": "Wild Fire", "place": "hamlet"}}, {"type": "node", "id": 9734094341, "lat": -0.7925032, "lon": 36.4528117, "tags": {"name": "Munyu", "place": "village"}}, {"type": "node", "id": 9734094342, "lat": -0.7901191, "lon": 36.4430913, "tags": {"name": "Flamingo B", "place": "neighbourhood"}}, {"type": "node", "id": 9734094343, "lat": -0.7892871, "lon": 36.430217, "tags": {"name": "Sanctuary B", "place": "neighbourhood"}}, {"type": "node", "id": 9734094344, "lat": -0.7786742, "lon": 36.4476115, "tags": {"name": "Mirera", "place": "village"}}, {"type": "node", "id": 9734094345, "lat": -0.7774929, "lon": 36.4393016, "tags": {"name": "Githuri A", "place": "neighbourhood"}}, {"type": "node", "id": 9734094346, "lat": -0.8021036, "lon": 36.4371695, "tags": {"name": "Rubiri", "place": "village"}}, {"type": "node", "id": 9734094347, "lat": -0.7867464, "lon": 36.4324533, "tags": {"name": "Sanctuary A", "place": "neighbourhood"}}, {"type": "node", "id": 9734094348, "lat": -0.7923946, "lon": 36.4302755, "tags": {"name": "Kosovo A", "place": "neighbourhood"}}, {"type": "node", "id": 9734094349, "lat": -0.7949561, "lon": 36.4289602, "tags": {"name": "Kosovo 'B'", "place": "neighbourhood"}}, {"type": "node", "id": 9734094350, "lat": -0.7890288, "lon": 36.4359241, "tags": {"name": "Catholic", "place": "neighbourhood"}}, {"type": "node", "id": 9734094351, "lat": -0.7802393, "lon": 36.4399535, "tags": {"name": "Githuri B", "place": "neighbourhood"}}, {"type": "node", "id": 9734094352, "lat": -0.7847468, "lon": 36.437337, "tags": {"name": "Mitimingi", "place": "village"}}, {"type": "node", "id": 9734094353, "lat": -0.7802838, "lon": 36.4365755, "tags": {"name": "Githuri C", "place": "neighbourhood"}}, {"type": "node", "id": 9734094354, "lat": -0.7827743, "lon": 36.4377851, "tags": {"name": "Githuri D", "place": "neighbourhood"}}, {"type": "node", "id": 9734094355, "lat": -0.7782916, "lon": 36.4326367, "tags": {"name": "Karagita Rafiki", "place": "village"}}, {"type": "node", "id": 9734094357, "lat": -0.7762252, "lon": 36.4340886, "tags": {"name": "Karagita Site B", "place": "neighbourhood"}}, {"type": "node", "id": 9734094358, "lat": -0.777966, "lon": 36.4302878, "tags": {"name": "Rafiki", "place": "quarter"}}, {"type": "node", "id": 9734094359, "lat": -0.7752831, "lon": 36.4328578, "tags": {"name": "Karagita Site A (Lower)", "place": "neighbourhood"}}, {"type": "node", "id": 9734094360, "lat": -0.7753241, "lon": 36.4375173, "tags": {"name": "Site Wildfire B2", "place": "neighbourhood"}}, {"type": "node", "id": 9734094361, "lat": -0.777351, "lon": 36.4313492, "tags": {"name": "Karagita Pentagon", "place": "neighbourhood"}}, {"type": "node", "id": 9734094362, "lat": -0.7746978, "lon": 36.4307899, "tags": {"name": "Karagita Center", "place": "village"}}, {"type": "node", "id": 9734094363, "lat": -0.7769007, "lon": 36.4316217, "tags": {"name": "Karagita Old Town", "place": "neighbourhood"}}, {"type": "node", "id": 9734094364, "lat": -0.7358129, "lon": 36.4344652, "tags": {"name": "Lake View Primary", "place": "village"}}, {"type": "node", "id": 9739336866, "lat": -0.7493678, "lon": 36.4531642, "tags": {"name": "Upper Unity", "place": "village"}}, {"type": "node", "id": 9739336867, "lat": -0.7726008, "lon": 36.4565882, "tags": {"name": "Mountainview", "place": "village"}}, {"type": "node", "id": 9739336869, "lat": -0.7513583, "lon": 36.4637502, "tags": {"name": "Kasoko", "place": "village"}}, {"type": "node", "id": 9739336870, "lat": -0.7536408, "lon": 36.4588026, "tags": {"name": "Vintage", "place": "village"}}, {"type": "node", "id": 9739336871, "lat": -0.7588026, "lon": 36.4524025, "tags": {"name": "Lower Unity", "place": "village"}}, {"type": "node", "id": 9739336872, "lat": -0.7572737, "lon": 36.468208, "tags": {"name": "Kwa Nganga", "place": "village"}}, {"type": "node", "id": 9739336873, "lat": -0.7258156, "lon": 36.4314642, "tags": {"name": "Kag", "place": "village"}}, {"type": "node", "id": 9739336874, "lat": -0.7288342, "lon": 36.4382562, "tags": {"name": "Policeline", "place": "village"}}, {"type": "node", "id": 9739336875, "lat": -0.7300856, "lon": 36.4232725, "tags": {"name": "Pipeline Upper", "place": "village"}}, {"type": "node", "id": 9739336876, "lat": -0.7271726, "lon": 36.4292311, "tags": {"name": "Generation", "place": "village"}}, {"type": "node", "id": 9739336877, "lat": -0.7281893, "lon": 36.4218735, "tags": {"name": "Sewage", "place": "village"}}, {"type": "node", "id": 9739336878, "lat": -0.7296372, "lon": 36.430169, "tags": {"name": "Lower Tukutane", "place": "village"}}, {"type": "node", "id": 9739336879, "lat": -0.7276337, "lon": 36.4293473, "tags": {"name": "Lower Generation", "place": "village"}}, {"type": "node", "id": 9739336880, "lat": -0.7241648, "lon": 36.4313999, "tags": {"name": "Mukurino", "place": "village"}}, {"type": "node", "id": 9739336881, "lat": -0.7295594, "lon": 36.4333867, "tags": {"name": "Upper Tukutane", "place": "village"}}, {"type": "node", "id": 9739336882, "lat": -0.7263446, "lon": 36.4326962, "tags": {"name": "Generation Upper", "place": "village"}}, {"type": "node", "id": 9739336883, "lat": -0.7162682, "lon": 36.4277307, "tags": {"name": "Golfclub", "place": "village"}}, {"type": "node", "id": 9739336884, "lat": -0.7224599, "lon": 36.4220231, "tags": {"name": "Banda/Landing Beach", "place": "village"}}, {"type": "node", "id": 9752672494, "lat": -0.6739254, "lon": 36.2518472, "tags": {"name": "Ngopopo", "place": "village"}}, {"type": "node", "id": 9752672495, "lat": -0.6737543, "lon": 36.2206255, "tags": {"name": "Kabendera", "place": "village"}}, {"type": "node", "id": 9752672496, "lat": -0.6736608, "lon": 36.2124733, "tags": {"name": "Kihungiru", "place": "village"}}, {"type": "node", "id": 9752672498, "lat": -0.7410473, "lon": 36.2450023, "tags": {"name": "Aquila A", "place": "village"}}, {"type": "node", "id": 9752672499, "lat": -0.7154209, "lon": 36.2573464, "tags": {"name": "Kiburuti", "place": "village"}}, {"type": "node", "id": 9752672500, "lat": -0.8266237, "lon": 36.2894482, "tags": {"name": "Oserian Engineering", "place": "village"}}, {"type": "node", "id": 9752672503, "lat": -0.8226669, "lon": 36.2030847, "tags": {"name": "Ngondi Town Centre", "place": "village"}}, {"type": "node", "id": 9752672504, "lat": -0.8914308, "lon": 36.251097, "tags": {"name": "Olmkunyak", "place": "village"}}, {"type": "node", "id": 9752672505, "lat": -0.9104556, "lon": 36.2326766, "tags": {"name": "Olmara", "place": "village"}}, {"type": "node", "id": 9752672506, "lat": -0.9172238, "lon": 36.2198371, "tags": {"name": "Ntuutu", "place": "village"}}, {"type": "node", "id": 9752672508, "lat": -0.9078641, "lon": 36.2425187, "tags": {"name": "Olomnyak", "place": "village"}}, {"type": "node", "id": 9752672509, "lat": -0.8571308, "lon": 36.2040761, "tags": {"name": "Kahumbu", "place": "village"}}, {"type": "node", "id": 9752672510, "lat": -0.8927196, "lon": 36.2174315, "tags": {"name": "Kahuho A", "place": "village"}}, {"type": "node", "id": 9752672512, "lat": -0.868091, "lon": 36.2122675, "tags": {"name": "Gitamaiyu", "place": "village"}}, {"type": "node", "id": 9752672515, "lat": -0.8819123, "lon": 36.2042654, "tags": {"name": "Yatta", "place": "village"}}, {"type": "node", "id": 9752714911, "lat": -0.8945829, "lon": 36.4482494, "tags": {"name": "Rwanyaga", "place": "village"}}, {"type": "node", "id": 9752715921, "lat": -0.8818158, "lon": 36.2163771, "tags": {"name": "Kahuho B", "place": "village"}}, {"type": "node", "id": 9752715922, "lat": -0.9052404, "lon": 36.2086566, "tags": {"name": "Nguguti A", "place": "village"}}, {"type": "node", "id": 9752715923, "lat": -0.8222428, "lon": 36.2020918, "tags": {"name": "Kongoni (Town Center)", "place": "village"}}, {"type": "node", "id": 9752715924, "lat": -0.8242394, "lon": 36.2049891, "tags": {"name": "Line Saba", "place": "village"}}, {"type": "node", "id": 9752715926, "lat": -0.7597656, "lon": 36.2353727, "tags": {"name": "Crater Lake Trading Centre( Duro)", "place": "village"}}, {"type": "node", "id": 9752715928, "lat": -0.8413137, "lon": 36.2138168, "tags": {"name": "Kianugu A", "place": "village"}}, {"type": "node", "id": 9752715929, "lat": -0.8319676, "lon": 36.2029466, "tags": {"name": "Kianugu B", "place": "village"}}, {"type": "node", "id": 9752715930, "lat": -0.791858, "lon": 36.2192826, "tags": {"name": "Tangi Tatu Upper", "place": "village"}}, {"type": "node", "id": 9752715931, "lat": -0.8503022, "lon": 36.2594863, "tags": {"name": "Kiangazi", "place": "village"}}, {"type": "node", "id": 9752715933, "lat": -0.8203052, "lon": 36.2542725, "tags": {"name": "Leleshwa", "place": "village"}}, {"type": "node", "id": 9752715935, "lat": -0.7508873, "lon": 36.2386816, "tags": {"name": "Huruma A", "place": "village"}}, {"type": "node", "id": 9752715936, "lat": -0.8156934, "lon": 36.2602049, "tags": {"name": "Kongongi Snake Park (Lower)", "place": "village"}}, {"type": "node", "id": 9752715937, "lat": -0.7930915, "lon": 36.2473121, "tags": {"name": "Elerai Lower", "place": "village"}}, {"type": "node", "id": 9752715938, "lat": -0.827531, "lon": 36.2187428, "tags": {"name": "Ngondi/Moindabi A", "place": "village"}}, {"type": "node", "id": 9752715939, "lat": -0.8089464, "lon": 36.2423242, "tags": {"name": "Oloika B", "place": "village"}}, {"type": "node", "id": 9752715940, "lat": -0.7765656, "lon": 36.2472482, "tags": {"name": "Crater A", "place": "village"}}, {"type": "node", "id": 9752715941, "lat": -0.797218, "lon": 36.278325, "tags": {"name": "Kongoni Roadside (Upper)", "place": "village"}}, {"type": "node", "id": 9752715942, "lat": -0.776547, "lon": 36.223947, "tags": {"name": "Kipkonyo A", "place": "village"}}, {"type": "node", "id": 9752715943, "lat": -0.7934582, "lon": 36.2335735, "tags": {"name": "Elerai Upper", "place": "village"}}, {"type": "node", "id": 9752715944, "lat": -0.7718775, "lon": 36.2704068, "tags": {"name": "Huruma B", "place": "village"}}, {"type": "node", "id": 9752715945, "lat": -0.8205758, "lon": 36.2286723, "tags": {"name": "Moi-Ndabi Phase One", "place": "village"}}, {"type": "node", "id": 9752715947, "lat": -0.764521, "lon": 36.2268499, "tags": {"name": "Kipkonyo B", "place": "village"}}, {"type": "node", "id": 9752715948, "lat": -0.8169328, "lon": 36.2040362, "tags": {"name": "Ngondi/Moindabi B", "place": "village"}}, {"type": "node", "id": 9752715949, "lat": -0.8097571, "lon": 36.2514397, "tags": {"name": "Upper Sero", "place": "village"}}, {"type": "node", "id": 9752715950, "lat": -0.7729628, "lon": 36.2389579, "tags": {"name": "Crater B", "place": "village"}}, {"type": "node", "id": 9752715951, "lat": -0.8093463, "lon": 36.2282218, "tags": {"name": "Moindabi Centre", "place": "village"}}, {"type": "node", "id": 9752715952, "lat": -0.8123249, "lon": 36.2176747, "tags": {"name": "Oloika A", "place": "village"}}, {"type": "node", "id": 9752715953, "lat": -0.6974267, "lon": 36.2154043, "tags": {"name": "Gathinikiro", "place": "village"}}, {"type": "node", "id": 9752715954, "lat": -0.7344463, "lon": 36.2248162, "tags": {"name": "Central Center", "place": "village"}}, {"type": "node", "id": 9752715957, "lat": -0.7031052, "lon": 36.2496044, "tags": {"name": "Jikaze", "place": "village"}}, {"type": "node", "id": 9752715958, "lat": -0.7093643, "lon": 36.2369568, "tags": {"name": "Njonjo", "place": "village"}}, {"type": "node", "id": 9752715959, "lat": -0.7390457, "lon": 36.257535, "tags": {"name": "Aquila B", "place": "village"}}, {"type": "node", "id": 9752715961, "lat": -0.7042368, "lon": 36.2173876, "tags": {"name": "Kangui", "place": "village"}}, {"type": "node", "id": 9752715962, "lat": -0.7248189, "lon": 36.2363341, "tags": {"name": "Bahati", "place": "village"}}, {"type": "node", "id": 9752715963, "lat": -0.6702188, "lon": 36.2294942, "tags": {"name": "Konjonga", "place": "village"}}, {"type": "node", "id": 9752715964, "lat": -0.7514435, "lon": 36.2065094, "tags": {"name": "Ndereti", "place": "village"}}, {"type": "node", "id": 9752715965, "lat": -0.6960199, "lon": 36.2270124, "tags": {"name": "Manyatta", "place": "village"}}, {"type": "node", "id": 9752715966, "lat": -0.7044652, "lon": 36.227184, "tags": {"name": "Kamihuti", "place": "village"}}, {"type": "node", "id": 9752715967, "lat": -0.7024282, "lon": 36.2226437, "tags": {"name": "Gathondia Center", "place": "village"}}, {"type": "node", "id": 9756178281, "lat": -0.7395784, "lon": 36.4543587, "tags": {"name": "Kwsti", "place": "village"}}, {"type": "node", "id": 9756178282, "lat": -0.7379836, "lon": 36.4461323, "tags": {"name": "Suberical", "place": "village"}}, {"type": "node", "id": 9756178283, "lat": -0.7398086, "lon": 36.4657068, "tags": {"name": "Corner", "place": "village"}}, {"type": "node", "id": 9756178286, "lat": -0.7476441, "lon": 36.467806, "tags": {"name": "Merryland", "place": "village"}}, {"type": "node", "id": 9756178287, "lat": -0.8423113, "lon": 36.427189, "tags": {"name": "Kedong", "place": "village"}}, {"type": "node", "id": 9756178290, "lat": -0.9007622, "lon": 36.331282, "tags": {"name": "Olemnyaki", "place": "village"}}, {"type": "node", "id": 9756178291, "lat": -0.8319108, "lon": 36.3046665, "tags": {"name": "Oserian Soweto", "place": "village"}}, {"type": "node", "id": 9756178295, "lat": -0.9142338, "lon": 36.2765082, "tags": {"name": "Narasha", "place": "village"}}, {"type": "node", "id": 9756178296, "lat": -0.8296444, "lon": 36.3005378, "tags": {"name": "Oserian Sigalame", "place": "village"}}, {"type": "node", "id": 9756178297, "lat": -0.8303086, "lon": 36.3052455, "tags": {"name": "Oserian Shauri Yako", "place": "village"}}, {"type": "node", "id": 9756178298, "lat": -0.8259109, "lon": 36.3053568, "tags": {"name": "Oserian Githanga", "place": "village"}}, {"type": "node", "id": 9756178299, "lat": -0.8334907, "lon": 36.3047771, "tags": {"name": "Huruma", "place": "village"}}, {"type": "node", "id": 9756178300, "lat": -0.8355014, "lon": 36.303755, "tags": {"name": "Msambweni 1&2", "place": "village"}}, {"type": "node", "id": 9756178301, "lat": -0.8375014, "lon": 36.3034604, "tags": {"name": "Oserian Msambweni 1&2", "place": "village"}}, {"type": "node", "id": 9756178302, "lat": -0.8440918, "lon": 36.3097189, "tags": {"name": "Malindi", "place": "village"}}, {"type": "node", "id": 9756178303, "lat": -0.8269139, "lon": 36.3010448, "tags": {"name": "Kisumu Ndogo", "place": "village"}}, {"type": "node", "id": 9756178304, "lat": -0.8242458, "lon": 36.301312, "tags": {"name": "Milimani", "place": "village"}}, {"type": "node", "id": 9756178305, "lat": -0.8420195, "lon": 36.320296, "tags": {"name": "Kilifi 1&2", "place": "village"}}, {"type": "node", "id": 9756178306, "lat": -0.8289239, "lon": 36.3052241, "tags": {"name": "Oserian Kangui", "place": "village"}}, {"type": "node", "id": 9756178307, "lat": -0.8295565, "lon": 36.3149976, "tags": {"name": "Masaini", "place": "village"}}, {"type": "node", "id": 9756178308, "lat": -0.8371184, "lon": 36.3662031, "tags": {"name": "Riftcamp B", "place": "village"}}, {"type": "node", "id": 9756178309, "lat": -0.8178199, "lon": 36.3164459, "tags": {"name": "Lake View 2", "place": "village"}}, {"type": "node", "id": 9756178310, "lat": -0.8208932, "lon": 36.3127696, "tags": {"name": "Buruburu-Kengen", "place": "village"}}, {"type": "node", "id": 9756178311, "lat": -0.8202686, "lon": 36.3166363, "tags": {"name": "Lake View 1", "place": "village"}}, {"type": "node", "id": 9756178312, "lat": -0.8206068, "lon": 36.3181426, "tags": {"name": "Runda", "place": "village"}}, {"type": "node", "id": 9756178313, "lat": -0.8318875, "lon": 36.3310188, "tags": {"name": "Kwa Amunga", "place": "village"}}, {"type": "node", "id": 9756178314, "lat": -0.8331766, "lon": 36.3569442, "tags": {"name": "Longonot", "place": "village"}}, {"type": "node", "id": 9756178315, "lat": -0.8159435, "lon": 36.3203551, "tags": {"name": "Lake View", "place": "village"}}, {"type": "node", "id": 9756178316, "lat": -0.8172663, "lon": 36.325136, "tags": {"name": "Orpower", "place": "village"}}, {"type": "node", "id": 9756200425, "lat": -0.8114438, "lon": 36.3928157, "tags": {"name": "Sopa Hotel", "place": "village"}}, {"type": "node", "id": 9756200426, "lat": -0.7168844, "lon": 36.4459796, "tags": {"name": "Lower Mithuri", "place": "village"}}, {"type": "node", "id": 9756200427, "lat": -0.7178011, "lon": 36.4379174, "tags": {"name": "Lower Site", "place": "village"}}, {"type": "node", "id": 9756200428, "lat": -0.7914635, "lon": 36.4128395, "tags": {"name": "Block Hotel", "place": "village"}}, {"type": "node", "id": 9756200429, "lat": -0.7266407, "lon": 36.4681434, "tags": {"name": "Valley Lily", "place": "village"}}, {"type": "node", "id": 9756200432, "lat": -0.7073176, "lon": 36.4548149, "tags": {"name": "Kianugu", "place": "village"}}, {"type": "node", "id": 9756200433, "lat": -0.7156585, "lon": 36.4636749, "tags": {"name": "Kianganga", "place": "village"}}, {"type": "node", "id": 9756200435, "lat": -0.7198285, "lon": 36.4408372, "tags": {"name": "Pcea", "place": "village"}}, {"type": "node", "id": 9756200436, "lat": -0.7223759, "lon": 36.4423431, "tags": {"name": "Boma", "place": "village"}}, {"type": "node", "id": 9756200437, "lat": -0.7276341, "lon": 36.4616114, "tags": {"name": "Gameview", "place": "village"}}, {"type": "node", "id": 9756200438, "lat": -0.716169, "lon": 36.434677, "tags": {"name": "Town", "place": "village"}}, {"type": "node", "id": 9756200439, "lat": -0.7204112, "lon": 36.4425968, "tags": {"name": "Nyama Kima", "place": "village"}}, {"type": "node", "id": 9756200440, "lat": -0.7138421, "lon": 36.4384179, "tags": {"name": "Lower Site", "place": "village"}}, {"type": "node", "id": 9756200441, "lat": -0.7196474, "lon": 36.4437751, "tags": {"name": "Ymca", "place": "village"}}, {"type": "node", "id": 9756200442, "lat": -0.7147938, "lon": 36.4481699, "tags": {"name": "Upper Mithuri", "place": "village"}}, {"type": "node", "id": 9756200443, "lat": -0.7184375, "lon": 36.4421182, "tags": {"name": "Mukuru", "place": "village"}}, {"type": "node", "id": 9756200444, "lat": -0.7288116, "lon": 36.4533788, "tags": {"name": "Guestinn", "place": "village"}}, {"type": "node", "id": 9756200445, "lat": -0.7213878, "lon": 36.4457072, "tags": {"name": "Kabatini", "place": "village"}}, {"type": "node", "id": 9756200446, "lat": -0.7159582, "lon": 36.4416191, "tags": {"name": "Upper Site", "place": "village"}}, {"type": "node", "id": 9756200447, "lat": -0.7197487, "lon": 36.4464927, "tags": {"name": "Shabaha", "place": "village"}}, {"type": "node", "id": 9756200448, "lat": -0.7363829, "lon": 36.428053, "tags": {"name": "Pipeline Lower", "place": "village"}}, {"type": "node", "id": 9756200449, "lat": -0.7116719, "lon": 36.4310264, "tags": {"name": "Industrial Area B", "place": "village"}}, {"type": "node", "id": 9756200450, "lat": -0.6990944, "lon": 36.4275276, "tags": {"name": "Hopewell B", "place": "village"}}, {"type": "node", "id": 9756200451, "lat": -0.706798, "lon": 36.4303437, "tags": {"name": "Industrial Area D", "place": "village"}}, {"type": "node", "id": 9756200452, "lat": -0.7030446, "lon": 36.4308375, "tags": {"name": "Tuskeys", "place": "village"}}, {"type": "node", "id": 9756200453, "lat": -0.7127696, "lon": 36.4176388, "tags": {"name": "Manera", "place": "village"}}, {"type": "node", "id": 9756200454, "lat": -0.7070546, "lon": 36.4281973, "tags": {"name": "Industrial Area C", "place": "village"}}, {"type": "node", "id": 9756200455, "lat": -0.7057694, "lon": 36.4335097, "tags": {"name": "Upper Kanjo", "place": "village"}}, {"type": "node", "id": 9756200456, "lat": -0.7114268, "lon": 36.4337792, "tags": {"name": "Kanju Phase I", "place": "village"}}, {"type": "node", "id": 9756200457, "lat": -0.6958145, "lon": 36.4357243, "tags": {"name": "Slaughter", "place": "village"}}, {"type": "node", "id": 9756200458, "lat": -0.7026585, "lon": 36.4013244, "tags": {"name": "Kalro", "place": "village"}}, {"type": "node", "id": 9756200459, "lat": -0.7083766, "lon": 36.4360475, "tags": {"name": "Ebenezer", "place": "village"}}, {"type": "node", "id": 9756200460, "lat": -0.7076243, "lon": 36.4315811, "tags": {"name": "Kanju Phase 5", "place": "village"}}, {"type": "node", "id": 9756200461, "lat": -0.7005332, "lon": 36.4245427, "tags": {"name": "Hopewell A", "place": "village"}}, {"type": "node", "id": 9756200462, "lat": -0.7124713, "lon": 36.4302673, "tags": {"name": "Town Shipmosque", "place": "village"}}, {"type": "node", "id": 9756200463, "lat": -0.6874243, "lon": 36.3830983, "tags": {"name": "Kccstaff", "place": "village"}}, {"type": "node", "id": 9756200464, "lat": -0.7115647, "lon": 36.4322816, "tags": {"name": "Industrial Area A", "place": "village"}}, {"type": "node", "id": 9756200465, "lat": -0.7121859, "lon": 36.4365634, "tags": {"name": "Juakali", "place": "village"}}, {"type": "node", "id": 9756200466, "lat": -0.7102694, "lon": 36.4342331, "tags": {"name": "Kanju Phs 2", "place": "village"}}, {"type": "node", "id": 9756200467, "lat": -0.6726491, "lon": 36.3887449, "tags": {"name": "Kcckambimbao", "place": "village"}}, {"type": "node", "id": 9756200468, "lat": -0.7181052, "lon": 36.4322874, "tags": {"name": "Railways", "place": "village"}}, {"type": "node", "id": 9756200469, "lat": -0.7115332, "lon": 36.4286316, "tags": {"name": "Social Area", "place": "village"}}, {"type": "node", "id": 9756202417, "lat": -0.8446427, "lon": 36.3452875, "tags": {"name": "Upper Kwa Muhia", "place": "village"}}, {"type": "node", "id": 9756202418, "lat": -0.836902, "lon": 36.3677594, "tags": {"name": "Riftcamp C", "place": "village"}}, {"type": "node", "id": 9756202419, "lat": -0.8383344, "lon": 36.3637134, "tags": {"name": "Ymca", "place": "village"}}, {"type": "node", "id": 9756202420, "lat": -0.8361877, "lon": 36.3525711, "tags": {"name": "Kasarani B", "place": "village"}}, {"type": "node", "id": 9756202421, "lat": -0.82833, "lon": 36.3387458, "tags": {"name": "Lower Kwa Muhia", "place": "village"}}, {"type": "node", "id": 9756202422, "lat": -0.8378651, "lon": 36.3590155, "tags": {"name": "Kimwato", "place": "village"}}, {"type": "node", "id": 9756202423, "lat": -0.8395583, "lon": 36.359853, "tags": {"name": "Kasarani C", "place": "village"}}, {"type": "node", "id": 9756202424, "lat": -0.8378209, "lon": 36.3563736, "tags": {"name": "Kasarani A", "place": "village"}}, {"type": "node", "id": 9756202425, "lat": -0.8289118, "lon": 36.3260175, "tags": {"name": "Kentalya Farm", "place": "village"}}, {"type": "node", "id": 9756202426, "lat": -0.8358321, "lon": 36.3658042, "tags": {"name": "Riftcamp A", "place": "village"}}, {"type": "node", "id": 9756202427, "lat": -0.8710571, "lon": 36.3913548, "tags": {"name": "Hellsgate (Camp)", "place": "village"}}, {"type": "node", "id": 9756202428, "lat": -0.830756, "lon": 36.349411, "tags": {"name": "Dck", "place": "village"}}, {"type": "node", "id": 9756202429, "lat": -0.8283814, "lon": 36.3715479, "tags": {"name": "Florensis Kenya", "place": "village"}}, {"type": "node", "id": 9756202430, "lat": -0.8216242, "lon": 36.3796864, "tags": {"name": "Lake Naivasha Simba Lodge", "place": "village"}}, {"type": "node", "id": 9756202431, "lat": -0.8015876, "lon": 36.4259028, "tags": {"name": "Kiwanja Ndege", "place": "village"}}, {"type": "node", "id": 9756202432, "lat": -0.8220362, "lon": 36.3216622, "tags": {"name": "Kamere C", "place": "village"}}, {"type": "node", "id": 9782414720, "lat": -0.5750025, "lon": 36.2185286, "tags": {"name": "Morilem", "place": "village"}}, {"type": "node", "id": 9782414723, "lat": -0.6221489, "lon": 36.284029, "tags": {"name": "Thome", "place": "village"}}, {"type": "node", "id": 9782414725, "lat": -0.6253002, "lon": 36.2349038, "tags": {"name": "Songoroi A", "place": "village"}}, {"type": "node", "id": 9782414818, "lat": -0.6183561, "lon": 36.2570984, "tags": {"name": "Ex Major", "place": "village"}}, {"type": "node", "id": 9782414819, "lat": -0.6406534, "lon": 36.2537545, "tags": {"name": "Ex Lewis", "place": "village"}}, {"type": "node", "id": 9782414918, "lat": -0.5709202, "lon": 36.2097822, "tags": {"name": "Kapedo", "place": "village"}}, {"type": "node", "id": 9782414921, "lat": -0.5971252, "lon": 36.2316538, "tags": {"name": "Songoroi B", "place": "village"}}, {"type": "node", "id": 9782414922, "lat": -0.6458468, "lon": 36.2676575, "tags": {"name": "Eburu Center", "place": "village"}}, {"type": "node", "id": 9782415019, "lat": -0.5942107, "lon": 36.2835136, "tags": {"name": "Nyakinywa", "place": "village"}}, {"type": "node", "id": 9782415118, "lat": -0.5801512, "lon": 36.227238, "tags": {"name": "Lokichogio", "place": "village"}}, {"type": "node", "id": 9782415121, "lat": -0.6409804, "lon": 36.3271773, "tags": {"name": "Muhu Farm", "place": "village"}}, {"type": "node", "id": 9782415220, "lat": -0.6061561, "lon": 36.3794514, "tags": {"name": "Tallstation", "place": "village"}}, {"type": "node", "id": 9782415222, "lat": -0.6163446, "lon": 36.2141311, "tags": {"name": "Olepolos", "place": "village"}}, {"type": "node", "id": 9782415224, "lat": -0.6438796, "lon": 36.279515, "tags": {"name": "Ex Peter", "place": "village"}}, {"type": "node", "id": 9782415717, "lat": -0.5903951, "lon": 36.3288652, "tags": {"name": "Nagum", "place": "village"}}, {"type": "way", "id": 158930927, "nodes": [2567594638, 6057983932, 2567594631, 1710478432, 2567594594, 4947644326, 1710478431, 2567594591, 2567594590, 2567594589, 2567594588, 6057392779, 6057983779, 6057983782, 1710478419, 3396864194, 3396864196, 3396864197, 2567594592, 1710478424, 2567594595, 2567594628, 1710478433, 2567594646, 2567594651, 2567594656, 1710478435, 2567594683, 1710478437, 9693191393, 1710478443, 2567594758, 2567594764, 2567594766, 2567594767, 2567594765, 1710478451, 2567594768, 3987852164, 3987852163, 1710478452, 3987852162, 2567594762, 2567594763, 2567594751, 1710478441, 1710478438, 2567594732, 2567594722, 2567594723, 2567594708, 2567594707, 2567594701, 2567594700, 2567594676, 2567594674, 2567594672, 2567594671, 9691374123, 2567594670, 2567594669, 4697822473, 2567594666, 2567594665, 2567594668, 2567594667, 2567594663, 2567594661, 2567594659, 2567594654, 2567594653, 2567594649, 2567594647, 2567594642, 2567594641, 2567594643, 4786895395, 2567594644, 2567594645, 2567594648, 2567594650, 2567594652, 1710478436, 6059988243, 1710478434, 2567594638], "tags": {"landuse": "residential", "name": "Naivasha", "note": "Please do not delete tag place and name. It need for support search engine.", "place": "town"}}]}