{"version": 0.6, "generator": "Overpass API 0.7.62.1 084b4234", "osm3s": {"timestamp_osm_base": "2024-09-30T20:05:00Z", "copyright": "The data included in this document is from www.openstreetmap.org. The data is made available under ODbL."}, "elements": [{"type": "node", "id": 1404222616, "lat": 9.46057, "lon": 47.46013, "tags": {"name": "Dogoble", "pcode": "NC-3812-N22-001", "place": "village", "source": "UNDP - 2006, GTZ - 2002"}}, {"type": "node", "id": 1404223149, "lat": 9.2986, "lon": 47.480701, "tags": {"name": "Genyu Ado", "pcode": "NC-3812-S22-001", "place": "locality", "source": "UNDP - 1997"}}, {"type": "node", "id": 1404223217, "lat": 9.4103, "lon": 47.43244, "tags": {"name": "Shoodhe Satellite", "pcode": "NC-3812-Q21-001", "place": "village", "source": "UNDP - 2006"}}, {"type": "node", "id": 1404223538, "lat": 9.474728, "lon": 47.577662, "tags": {"alt_name": "Darrin Garsit", "name": "Derin Garaseed", "pcode": "NC-3812-N24-001", "place": "locality", "source": "GTZ - 2002, UNDP - 1997"}}, {"type": "node", "id": 1404223871, "lat": 9.382125, "lon": 47.377674, "tags": {"name": "Dhaban", "pcode": "NC-3812-Q20-002", "place": "locality", "source": "GTZ - 2002"}}, {"type": "node", "id": 1404224307, "lat": 9.413768, "lon": 47.376006, "tags": {"name": "Afweyne", "pcode": "NC-3812-Q20-001", "place": "hamlet", "source": "GTZ - 2002"}}, {"type": "node", "id": 1404225920, "lat": 9.57794, "lon": 47.48019, "tags": {"name": "Bacoolaha", "pcode": "NC-3812-L22-001", "place": "village", "source": "UNDP - 2006"}}, {"type": "node", "id": 1404230112, "lat": 9.5956135, "lon": 47.4002296, "tags": {"name": "Godwaraabe", "pcode": "NC-3812-K20-001", "place": "village", "source": "UNDP - 2006"}}, {"type": "node", "id": 1404231096, "lat": 9.31003, "lon": 47.55663, "tags": {"name": "Sufur Wayne", "pcode": "NC-3812-S24-001", "place": "village", "source": "UNDP - 2006"}}, {"type": "node", "id": 1404231974, "lat": 9.5685099, "lon": 47.7543018, "tags": {"alt_name": "Awrboogays", "name": "Awr-Boogays", "pcode": "NC-3812-L28-001", "place": "village", "source": "UNDP - 2006, GTZ - 2002, UNDP - 1997"}}, {"type": "node", "id": 7726466563, "lat": 9.318661, "lon": 47.6063285, "tags": {"alt_name": "Wag-hin", "fixme": "confirm name", "name": "Wagxin", "place": "village"}}, {"type": "node", "id": 9456328843, "lat": 9.5386687, "lon": 47.3568747, "tags": {"place": "locality"}}, {"type": "node", "id": 10170073314, "lat": 9.2609182, "lon": 47.6102333, "tags": {"fixme": "name missing", "place": "isolated_dwelling"}}, {"type": "node", "id": 10170076992, "lat": 9.2837313, "lon": 47.5580988, "tags": {"fixme": "name missing", "place": "isolated_dwelling"}}, {"type": "node", "id": 10170077090, "lat": 9.2759728, "lon": 47.5025035, "tags": {"fixme": "name missing", "place": "isolated_dwelling"}}, {"type": "node", "id": 10170077290, "lat": 9.2578303, "lon": 47.4752887, "tags": {"fixme": "name missing", "place": "isolated_dwelling"}}, {"type": "node", "id": 10173272171, "lat": 9.2757267, "lon": 47.4385934, "tags": {"fixme": "name missing", "place": "isolated_dwelling"}}, {"type": "node", "id": 10173272181, "lat": 9.2746438, "lon": 47.4375087, "tags": {"fixme": "name missing", "place": "hamlet"}}, {"type": "node", "id": 10173715882, "lat": 9.3633752, "lon": 47.461881, "tags": {"fixme": "name missing", "place": "hamlet"}}, {"type": "node", "id": 10173901952, "lat": 9.3812707, "lon": 47.5922364, "tags": {"fixme": "name missing", "place": "isolated_dwelling"}}, {"type": "node", "id": 10173902232, "lat": 9.2842741, "lon": 47.5924521, "tags": {"fixme": "name missing", "place": "isolated_dwelling"}}, {"type": "node", "id": 10570965902, "lat": 9.2653926, "lon": 47.7517249, "tags": {"fixme": "name missing", "place": "isolated_dwelling"}}, {"type": "node", "id": 10584593399, "lat": 9.2845427, "lon": 47.6216506, "tags": {"fixme": "name missing", "place": "isolated_dwelling"}}]}