{"version": 0.6, "generator": "Overpass API 0.7.62.1 084b4234", "osm3s": {"timestamp_osm_base": "2024-09-30T23:23:26Z", "copyright": "The data included in this document is from www.openstreetmap.org. The data is made available under ODbL."}, "elements": [{"type": "node", "id": 1150955533, "lat": 6.17556, "lon": 45.64389, "tags": {"is_in:country_code": "ET", "is_in:county": "Ethiopia", "name": "Bali God", "place": "locality", "source": "GeoDatabase"}}, {"type": "node", "id": 1404230434, "lat": 6.1029193, "lon": 45.7620488, "tags": {"name": "Gwyane Diriye", "pcode": "NB-3807-X17-001", "place": "town", "source": "FSAU", "waterway": "water_point"}}, {"type": "node", "id": 10034977912, "lat": 6.2401266, "lon": 45.7879009, "tags": {"alt_name": "Booraancad", "name": "Boran Ad", "place": "village", "waterway": "water_point"}}, {"type": "node", "id": 10034980527, "lat": 6.2602933, "lon": 45.6810773, "tags": {"alt_name": "Tuulo Sarmaan;Sarmaan", "name": "Tulo Sarmaan", "place": "village", "waterway": "water_point"}}, {"type": "node", "id": 10034980552, "lat": 5.9484685, "lon": 45.5976181, "tags": {"name": "Ribadleh", "old_name": "Ribadkleh", "place": "village"}}, {"type": "node", "id": 10167410998, "lat": 5.9931324, "lon": 45.7688764, "tags": {"name": "Kalafoge", "place": "village"}}, {"type": "node", "id": 10167411003, "lat": 5.925903, "lon": 45.737626, "tags": {"name": "Buraale", "name:en": "Burale", "place": "village"}}, {"type": "node", "id": 10167411015, "lat": 5.9733993, "lon": 45.8000501, "tags": {"alt_name": "Yoocaale", "name": "Yooale", "place": "village", "waterway": "water_point"}}, {"type": "node", "id": 10167416724, "lat": 5.9261694, "lon": 45.6918869, "tags": {"alt_name": "Tuulo Barwaaqo", "name": "Barwako", "place": "village", "waterway": "water_point"}}, {"type": "node", "id": 10167416727, "lat": 5.9481023, "lon": 45.7715309, "tags": {"alt_name": "Cumar Garaar", "name": "Omar Garar", "place": "village"}}, {"type": "node", "id": 10244202769, "lat": 6.1588955, "lon": 45.4808885, "tags": {"name": "Juge", "place": "village"}}, {"type": "node", "id": 10310186708, "lat": 6.0482298, "lon": 45.5739152, "tags": {"alt_name": "Xaaji Yare", "name": "Haji Yare", "place": "village", "waterway": "water_point"}}, {"type": "node", "id": 10310207114, "lat": 6.0575108, "lon": 45.6659817, "tags": {"alt_name": "Xodale", "name": "Hodale", "place": "village"}}, {"type": "node", "id": 10310207116, "lat": 6.0311191, "lon": 45.5379625, "tags": {"name": "Jeed", "place": "village"}}, {"type": "node", "id": 10310207122, "lat": 6.2555014, "lon": 45.3849761, "tags": {"alt_name": "Laasocaanood;Laasacaano;Laasocaano", "name": "Lasoano", "place": "town", "waterway": "water_point"}}, {"type": "node", "id": 10604864473, "lat": 5.9721045, "lon": 45.7315051, "tags": {"alt_name": "Macalin Maxamuud", "name": "Malin Mahmut", "place": "village", "waterway": "water_point"}}, {"type": "node", "id": 11612938022, "lat": 6.266226, "lon": 45.6362819, "tags": {"alt_name": "Ina Jaamac Mire", "name": "Ina Jama Mire", "place": "village"}}]}