{"version": 0.6, "generator": "Overpass API 0.7.62.1 084b4234", "osm3s": {"timestamp_osm_base": "2024-09-30T20:34:45Z", "copyright": "The data included in this document is from www.openstreetmap.org. The data is made available under ODbL."}, "elements": [{"type": "node", "id": 1404224777, "lat": 3.8024, "lon": 47.122398, "tags": {"name": "Ceel Jilib", "pcode": "NA-3804-E14-001", "place": "locality", "source": "UNDP - 1997"}}, {"type": "node", "id": 1404227570, "lat": 3.85068, "lon": 47.18403, "tags": {"name": "Jeneraal Daa'U", "pcode": "NA-3804-D16-001", "place": "suburb", "source": "UNDP - 2006"}}, {"type": "node", "id": 1404229292, "lat": 3.84888, "lon": 47.18158, "tags": {"name": "Xoriyo", "pcode": "NA-3804-D15-002", "place": "suburb", "source": "UNDP - 2006"}}, {"type": "node", "id": 1404229939, "lat": 3.6191, "lon": 47.172501, "tags": {"name": "El Endanane", "pcode": "NA-3804-K15-001", "place": "hamlet", "source": "UNDP - 1997"}}, {"type": "node", "id": 1404231132, "lat": 3.84909, "lon": 47.180309, "tags": {"alt_name": "Ceeldheer;El Dheer;El Dher;Eldher", "name": "Ceel Dheer", "pcode": "NA-3804-D15-001", "place": "town", "source": "UNDP - 1997, FSAU"}}, {"type": "node", "id": 1404231671, "lat": 3.83248, "lon": 47.14691, "tags": {"name": "Waniinle", "pcode": "NA-3804-E15-001", "place": "locality", "source": "UNDP - 2006"}}, {"type": "node", "id": 1404233225, "lat": 3.84888, "lon": 47.18102, "tags": {"name": "Ceel Masajid", "pcode": "NA-3804-D15-003", "place": "suburb", "source": "UNDP - 2006"}}, {"type": "node", "id": 4329004606, "lat": 3.7534861, "lon": 47.3021786}, {"type": "node", "id": 4329004607, "lat": 3.7539241, "lon": 47.3034395}, {"type": "node", "id": 4329004608, "lat": 3.7536865, "lon": 47.3038785}, {"type": "node", "id": 4329004609, "lat": 3.7530993, "lon": 47.3036637}, {"type": "node", "id": 4329004610, "lat": 3.7522279, "lon": 47.3027997}, {"type": "node", "id": 4329004611, "lat": 3.7515755, "lon": 47.302244}, {"type": "node", "id": 4329004612, "lat": 3.7521953, "lon": 47.3015949}, {"type": "node", "id": 4329004613, "lat": 3.7533044, "lon": 47.3012306}, {"type": "node", "id": 4329008613, "lat": 3.8743013, "lon": 47.3471066}, {"type": "node", "id": 4329008614, "lat": 3.8737492, "lon": 47.3474381}, {"type": "node", "id": 4329008615, "lat": 3.8738913, "lon": 47.3479518}, {"type": "node", "id": 4329008616, "lat": 3.8743922, "lon": 47.3484025}, {"type": "node", "id": 4329008617, "lat": 3.874907, "lon": 47.3478397}, {"type": "node", "id": 4329014075, "lat": 3.8945946, "lon": 47.3518181}, {"type": "node", "id": 4329014076, "lat": 3.8947953, "lon": 47.3519429}, {"type": "node", "id": 4329014077, "lat": 3.8948595, "lon": 47.3521816}, {"type": "node", "id": 4329014078, "lat": 3.8946936, "lon": 47.3525169}, {"type": "node", "id": 4329014079, "lat": 3.8944527, "lon": 47.3528334}, {"type": "node", "id": 4329014080, "lat": 3.8940915, "lon": 47.3526268}, {"type": "node", "id": 4329014081, "lat": 3.8941102, "lon": 47.3522969}, {"type": "node", "id": 4329014082, "lat": 3.8943711, "lon": 47.3519938}, {"type": "node", "id": 7205547446, "lat": 3.8845527, "lon": 47.1659455, "tags": {"place": "isolated_dwelling"}}, {"type": "node", "id": 7207927358, "lat": 3.8145899, "lon": 47.0968571, "tags": {"place": "hamlet"}}, {"type": "node", "id": 7207934552, "lat": 3.8789918, "lon": 47.1764088, "tags": {"place": "hamlet"}}, {"type": "node", "id": 7218338388, "lat": 3.8873545, "lon": 47.0832825, "tags": {"place": "isolated_dwelling"}}, {"type": "node", "id": 12042652320, "lat": 3.7528207, "lon": 47.3024945, "tags": {"name": "Mareeg", "place": "locality"}}, {"type": "way", "id": 434971309, "nodes": [4329004606, 4329004607, 4329004608, 4329004609, 4329004610, 4329004611, 4329004612, 4329004613, 4329004606], "tags": {"name": "Mareeg", "place": "locality"}}, {"type": "way", "id": 434971568, "nodes": [4329008613, 4329008614, 4329008615, 4329008616, 4329008617, 4329008613], "tags": {"name": "Ceel Maxaad Weheliye", "place": "hamlet"}}, {"type": "way", "id": 434971863, "nodes": [4329014075, 4329014076, 4329014077, 4329014078, 4329014079, 4329014080, 4329014081, 4329014082, 4329014075], "tags": {"name": "Ceel Cali Geedi", "place": "isolated_dwelling"}}]}