{"version": 0.6, "generator": "Overpass API 0.7.62.1 084b4234", "osm3s": {"timestamp_osm_base": "2024-09-30T19:31:59Z", "copyright": "The data included in this document is from www.openstreetmap.org. The data is made available under ODbL."}, "elements": [{"type": "node", "id": 1136512165, "lat": 9.6797935, "lon": 43.4782348, "tags": {"name": "Kalabeydh \u0643\u0644\u0628\u064a\u0636", "name:ar": "\u0643\u0644\u0628\u064a\u0636", "name:en": "Kalabeydh", "name:fr": "Kalabaydh", "name:zu": "Kalabaydh", "place": "town", "wikidata": "Q6350016", "wikipedia": "en:Kalabaydh"}}, {"type": "node", "id": 1404221666, "lat": 9.90354, "lon": 43.50064, "tags": {"name": "Laas Khadar", "pcode": "NC-3810-C01-002", "place": "village", "source": "UNDP - 2006"}}, {"type": "node", "id": 1404221873, "lat": 9.68162, "lon": 43.55388, "tags": {"name": "Reer Cigaal", "pcode": "NC-3810-H02-003", "place": "village", "source": "KEMRI - 2007"}}, {"type": "node", "id": 1404221990, "lat": 10.02025, "lon": 43.68967, "tags": {"name": "Barkhado", "pcode": "NC-3806-Z05-002", "place": "village", "source": "UNDP - 2006"}}, {"type": "node", "id": 1404222059, "lat": 9.76112, "lon": 43.61664, "tags": {"name": "Sareyaha", "pcode": "NC-3810-F03-002", "place": "village", "source": "KEMRI - 2007"}}, {"type": "node", "id": 1404222138, "lat": 9.67619, "lon": 43.81598, "tags": {"alt_name": "Gogol Wanaag", "name": "Golgol Wanaag", "pcode": "NC-3810-H07-001", "place": "village", "source": "UNDP - 2006, GTZ - 2002, FSAU"}}, {"type": "node", "id": 1404222566, "lat": 9.7965, "lon": 43.84355, "tags": {"name": "Fooda Kidiga", "pcode": "NC-3810-E08-003", "place": "village", "source": "UNDP - 2006"}}, {"type": "node", "id": 1404222600, "lat": 9.7936, "lon": 43.84354, "tags": {"alt_name": "Kidiga Dhanaan", "name": "Kadiga Dhanan", "pcode": "NC-3810-E08-001", "place": "hamlet", "source": "KEMRI - 2007, GTZ - 2002"}}, {"type": "node", "id": 1404222686, "lat": 9.68393, "lon": 43.75177, "tags": {"name": "Beeyada Sheekha", "pcode": "NC-3810-H06-003", "place": "village", "source": "KEMRI - 2007"}}, {"type": "node", "id": 1404222736, "lat": 9.89471, "lon": 43.58078, "tags": {"alt_name": "Bugdhaba", "name": "Buqdhada", "pcode": "NC-3810-C02-001", "place": "village", "source": "KEMRI - 2007, UNDP - 2006, UNDP - 1997"}}, {"type": "node", "id": 1404222761, "lat": 9.701562, "lon": 43.714645, "tags": {"name": "Boodhka Kabab", "pcode": "NC-3810-H05-001", "place": "village", "source": "GTZ - 2002"}}, {"type": "node", "id": 1404222930, "lat": 9.68998, "lon": 43.56374, "tags": {"name": "Badahabo", "pcode": "NC-3810-H02-001", "place": "village", "source": "KEMRI - 2007"}}, {"type": "node", "id": 1404223087, "lat": 9.99014, "lon": 43.56639, "tags": {"name": "Dharbo Idaad", "pcode": "NC-3810-A02-002", "place": "village", "source": "UNDP - 2006"}}, {"type": "node", "id": 1404223157, "lat": 9.903136, "lon": 43.499213, "tags": {"name": "Daarimo", "pcode": "NC-3809-C33-001", "place": "village", "source": "UNDP - 1997"}}, {"type": "node", "id": 1404223194, "lat": 9.97706, "lon": 43.59972, "tags": {"name": "Kax", "pcode": "NC-3810-A03-002", "place": "village", "source": "UNDP - 2006"}}, {"type": "node", "id": 1404223243, "lat": 9.68015, "lon": 43.60544, "tags": {"name": "Guulma Waydo", "pcode": "NC-3810-H03-003", "place": "village", "source": "KEMRI - 2007, UNDP - 2006, UNDP - 1997"}}, {"type": "node", "id": 1404223503, "lat": 9.70251, "lon": 43.75212, "tags": {"name": "Gatawaha", "pcode": "NC-3810-H06-002", "place": "village", "source": "KEMRI - 2007"}}, {"type": "node", "id": 1404223518, "lat": 9.6829511, "lon": 43.7206591, "tags": {"alt_name": "Agamsaha", "name": "Agamso", "pcode": "NC-3810-H05-002", "place": "village", "source": "KEMRI - 2007, UNDP - 1997, FSAU"}}, {"type": "node", "id": 1404223631, "lat": 9.6650537, "lon": 43.5434603, "tags": {"name": "Reer Cigaal-Yare", "pcode": "NC-3810-J01-003", "place": "village", "source": "KEMRI - 2007"}}, {"type": "node", "id": 1404223654, "lat": 9.74671, "lon": 43.63691, "tags": {"name": "Qabri Dhaweel", "pcode": "NC-3810-G04-002", "place": "village", "source": "UNDP - 2006"}}, {"type": "node", "id": 1404223836, "lat": 9.7043473, "lon": 43.621451, "tags": {"name": "Laag Barako", "pcode": "NC-3810-H03-002", "place": "suburb", "source": "GTZ - 2002"}}, {"type": "node", "id": 1404223851, "lat": 9.74105, "lon": 43.59958, "tags": {"alt_name": "Saarrey", "name": "Saarey", "pcode": "NC-3810-G03-001", "place": "village", "source": "KEMRI - 2007, UNDP - 2006, UNDP - 1997"}}, {"type": "node", "id": 1404223868, "lat": 9.72449, "lon": 43.67232, "tags": {"name": "Qudhaco", "pcode": "NC-3810-G04-001", "place": "village", "source": "KEMRI - 2007"}}, {"type": "node", "id": 1404223934, "lat": 9.79279, "lon": 43.84677, "tags": {"alt_name": "Laakta Daaso Casays", "name": "Lagta Daaso Casays", "pcode": "NC-3810-E08-002", "place": "village", "source": "KEMRI - 2007, UNDP - 1997"}}, {"type": "node", "id": 1404223979, "lat": 9.8573398, "lon": 43.6741702, "tags": {"name": "Bus", "pcode": "NC-3810-D04-001", "place": "village", "source": "KEMRI - 2007, GTZ - 2002, UNDP - 1997"}}, {"type": "node", "id": 1404224252, "lat": 9.6959228, "lon": 43.472439, "tags": {"alt_name": "Carro-Baraar", "name": "Arroberar", "pcode": "NC-3809-H33-003", "place": "village", "source": "KEMRI - 2007, UNDP - 2006"}}, {"type": "node", "id": 1404224264, "lat": 9.75244, "lon": 43.70119, "tags": {"name": "Gogaysa Hoose", "pcode": "NC-3810-F05-001", "place": "village", "source": "KEMRI - 2007"}}, {"type": "node", "id": 1404224329, "lat": 9.67634, "lon": 43.6766, "tags": {"name": "Reer Liibaan", "pcode": "NC-3810-H04-003", "place": "village", "source": "KEMRI - 2007"}}, {"type": "node", "id": 1404224420, "lat": 9.6587438, "lon": 43.723927, "tags": {"name": "Beeyo-Qaloocan 1", "pcode": "NC-3810-J05-001", "place": "village", "source": "KEMRI - 2007"}}, {"type": "node", "id": 1404224424, "lat": 9.6878564, "lon": 43.7386143, "tags": {"name": "Agamsaha Hoose", "pcode": "NC-3810-H06-001", "place": "village", "source": "KEMRI - 2007"}}, {"type": "node", "id": 1404224514, "lat": 9.959618, "lon": 43.807795, "tags": {"name": "Canjeel", "pcode": "NC-3810-A07-002", "place": "village", "source": "GTZ - 2002, UNDP - 1997"}}, {"type": "node", "id": 1404224645, "lat": 9.75985, "lon": 43.7514, "tags": {"alt_name": "Dhalaaddu", "name": "Dhalada", "pcode": "NC-3810-F06-001", "place": "village", "source": "UNDP - 2006, GTZ - 2002"}}, {"type": "node", "id": 1404224659, "lat": 9.66025, "lon": 43.68011, "tags": {"name": "Cam-Barwaaqo", "pcode": "NC-3810-J04-002", "place": "hamlet", "source": "UNDP - 2006"}}, {"type": "node", "id": 1404224810, "lat": 9.68556, "lon": 43.68622, "tags": {"name": "Galoolay", "pcode": "NC-3810-H05-003", "place": "village", "source": "UNDP - 2006, FSAU"}}, {"type": "node", "id": 1404224965, "lat": 9.77302, "lon": 43.59729, "tags": {"name": "Gogaysa Upper", "pcode": "NC-3810-F03-001", "place": "village", "source": "KEMRI - 2007"}}, {"type": "node", "id": 1404225050, "lat": 9.701, "lon": 43.67872, "tags": {"name": "Galooley 2", "pcode": "NC-3810-H04-001", "place": "village", "source": "KEMRI - 2007"}}, {"type": "node", "id": 1404225192, "lat": 9.852, "lon": 43.472401, "tags": {"name": "Fooda", "pcode": "NC-3809-D33-001", "place": "hamlet", "source": "KEMRI - 2007, UNDP - 1997"}}, {"type": "node", "id": 1404225302, "lat": 9.67846, "lon": 43.57916, "tags": {"name": "Reer Cabdile", "pcode": "NC-3810-H02-002", "place": "village", "source": "KEMRI - 2007"}}, {"type": "node", "id": 1404225495, "lat": 9.8333, "lon": 43.59748, "tags": {"alt_name": "Boocda Kabaab", "name": "Boocda-Kabaab", "pcode": "NC-3810-E03-001", "place": "village", "source": "KEMRI - 2007, UNDP - 2006, UNDP - 1997"}}, {"type": "node", "id": 1404225567, "lat": 9.7006723, "lon": 43.624965, "tags": {"name": "Wada Jir", "pcode": "NC-3810-H03-001", "place": "suburb", "source": "GTZ - 2002"}}, {"type": "node", "id": 1404225591, "lat": 9.68476, "lon": 43.68517, "tags": {"name": "Ceel-Giniseed", "pcode": "NC-3810-H05-004", "place": "village", "source": "UNDP - 2006"}}, {"type": "node", "id": 1404225695, "lat": 9.78369, "lon": 43.58444, "tags": {"name": "Laanqayrta", "pcode": "NC-3810-F02-002", "place": "village", "source": "UNDP - 2006"}}, {"type": "node", "id": 1404225700, "lat": 9.6709553, "lon": 43.6323293, "tags": {"name": "Qunyar Dega", "pcode": "NC-3810-H03-005", "place": "village", "source": "GTZ - 2002"}}, {"type": "node", "id": 1404225972, "lat": 9.6742, "lon": 43.52397, "tags": {"name": "Reer Cali Geedi", "pcode": "NC-3810-H01-001", "place": "village", "source": "KEMRI - 2007"}}, {"type": "node", "id": 1404226027, "lat": 9.96026, "lon": 43.8073, "tags": {"alt_name": "Caada", "name": "Aada", "pcode": "NC-3810-A07-001", "place": "village", "source": "KEMRI - 2007, UNDP - 2006, UNDP - 1997"}}, {"type": "node", "id": 1404226071, "lat": 9.6761316, "lon": 43.7283151, "tags": {"name": "Agamsaha Sare", "pcode": "NC-3810-H06-004", "place": "village", "source": "KEMRI - 2007"}}, {"type": "node", "id": 1404226099, "lat": 9.66487, "lon": 43.74258, "tags": {"name": "Sanlawe-Galbed", "pcode": "NC-3810-J06-003", "place": "village", "source": "KEMRI - 2007"}}, {"type": "node", "id": 1404226318, "lat": 9.6862539, "lon": 43.7225877, "tags": {"name": "Magaala Jibaax", "pcode": "NC-3810-H05-005", "place": "village", "source": "UNDP - 2006"}}, {"type": "node", "id": 1404226614, "lat": 9.6920561, "lon": 43.5759161, "tags": {"alt_name": "Sanlawe", "name": "Sanlaawaha", "pcode": "NC-3810-H02-005", "place": "village", "source": "KEMRI - 2007, UNDP - 2006, UNDP - 1997"}}, {"type": "node", "id": 1404226722, "lat": 9.68252, "lon": 43.55622, "tags": {"alt_name": "Lo'Ka Aroor", "name": "Looka Aroor", "pcode": "NC-3810-H02-004", "place": "village", "source": "KEMRI - 2007, UNDP - 2006, UNDP - 1997"}}, {"type": "node", "id": 1404227207, "lat": 9.82412, "lon": 43.47594, "tags": {"alt_name": "Ceel Bardale", "name": "Ceel-Bardaale", "pcode": "NC-3809-E33-001", "place": "village", "source": "KEMRI - 2007, GTZ - 2002, UNDP - 1997"}}, {"type": "node", "id": 1404227614, "lat": 9.67414, "lon": 43.83643, "tags": {"alt_name": "Beeyo Liibaan", "name": "Beeyo Liiban", "pcode": "NC-3810-H08-001", "place": "village", "source": "KEMRI - 2007, UNDP - 2006"}}, {"type": "node", "id": 1404227914, "lat": 9.74385, "lon": 43.48512, "tags": {"name": "Gurayar", "pcode": "NC-3809-G33-002", "place": "village", "source": "KEMRI - 2007, UNDP - 1997"}}, {"type": "node", "id": 1404227954, "lat": 9.70176, "lon": 43.77668, "tags": {"alt_name": "Laas Kadhaadh", "name": "Laas-Xadhaadh", "pcode": "NC-3810-H07-005", "place": "village", "source": "KEMRI - 2007, UNDP - 2006"}}, {"type": "node", "id": 1404228668, "lat": 9.68675, "lon": 43.78847, "tags": {"alt_name": "Huluq", "name": "Huluuq", "pcode": "NC-3810-H07-002", "place": "village", "source": "KEMRI - 2007, UNDP - 2006, UNDP - 1997"}}, {"type": "node", "id": 1404228855, "lat": 9.6810768, "lon": 43.476904, "tags": {"alt_name": "Kalabayr", "name": "Kalabaydh \u0643\u0627\u0644\u0627\u0628\u0627\u064a\u0636", "name:ar": "\u0643\u0627\u0644\u0627\u0628\u0627\u064a\u0636", "name:en": "Kalabaydh", "name:fr": "Kalabaydh", "pcode": "NC-3809-H33-001", "place": "village", "source": "KEMRI - 2007, UNDP - 2006, UNDP - 1997", "wikidata": "Q6350016"}}, {"type": "node", "id": 1404229104, "lat": 9.6970866, "lon": 43.6235513, "tags": {"name": "Ifad Gabilay \u0625\u0641\u0627\u062f \u063a\u0627\u0628\u064a\u0644\u064a", "name:ar": "\u0625\u0641\u0627\u062f \u063a\u0627\u0628\u064a\u0644\u064a", "name:en": "Ifad Gabilay", "name:fr": "Ifad Gabilay", "pcode": "NC-3810-H03-008", "place": "village", "source": "FSAU"}}, {"type": "node", "id": 1404229272, "lat": 9.75454, "lon": 43.4626, "tags": {"alt_name": "Ilma-Dado", "name": "Ilma Dedo", "pcode": "NC-3809-F33-001", "place": "village", "source": "KEMRI - 2007, UNDP - 2006, UNDP - 1997"}}, {"type": "node", "id": 1404229524, "lat": 9.68925, "lon": 43.64085, "tags": {"alt_name": "Jameycada", "name": "Jameecada", "pcode": "NC-3810-H04-007", "place": "village", "source": "KEMRI - 2007, UNDP - 2006, UNDP - 1997"}}, {"type": "node", "id": 1404229610, "lat": 9.901715, "lon": 43.501047, "tags": {"name": "Boodhka", "pcode": "NC-3810-C01-001", "place": "hamlet", "source": "KEMRI - 2007, UNDP - 2006, UNDP - 1997"}}, {"type": "node", "id": 1404229746, "lat": 9.83717, "lon": 43.6343, "tags": {"alt_name": "Hadhiley", "name": "Hadhley", "pcode": "NC-3810-D03-001", "place": "village", "source": "KEMRI - 2007, UNDP - 2006, UNDP - 1997"}}, {"type": "node", "id": 1404230019, "lat": 9.97713, "lon": 43.59979, "tags": {"name": "Kulmiya", "pcode": "NC-3810-A03-001", "place": "village", "source": "KEMRI - 2007"}}, {"type": "node", "id": 1404230123, "lat": 9.86607, "lon": 43.77715, "tags": {"name": "Dibiris (Dhalaada)", "pcode": "NC-3810-D07-004", "place": "village", "source": "UNDP - 2006"}}, {"type": "node", "id": 1404230230, "lat": 9.78905, "lon": 43.78905, "tags": {"alt_name": "Geesta Dheer", "name": "Gees Dheere", "pcode": "NC-3810-F07-002", "place": "village", "source": "KEMRI - 2007, UNDP - 2006"}}, {"type": "node", "id": 1404230406, "lat": 9.7051, "lon": 43.79816, "tags": {"alt_name": "Biyo Macaan", "name": "Biyo-Macan", "pcode": "NC-3810-H07-003", "place": "village", "source": "KEMRI - 2007, UNDP - 2006"}}, {"type": "node", "id": 1404230644, "lat": 9.6776301, "lon": 43.6224945, "tags": {"name": "Tiin", "pcode": "NC-3810-H03-007", "place": "village", "source": "UNDP - 1997"}}, {"type": "node", "id": 1404230750, "lat": 9.75331, "lon": 43.80345, "tags": {"name": "Gudbane", "pcode": "NC-3810-F07-003", "place": "hamlet", "source": "UNDP - 2006"}}, {"type": "node", "id": 1404230751, "lat": 9.7199964, "lon": 43.8509344, "tags": {"alt_name": "Dhagax Kuure; Dhagax Khoure;Dhagaxguure;Dhagah Kureh", "name": "Dhagax-Kuure", "pcode": "NC-3810-G08-002", "place": "village", "source": "KEMRI - 2007, UNDP - 2006"}}, {"type": "node", "id": 1404230767, "lat": 9.81471, "lon": 43.57725, "tags": {"name": "Fadac", "pcode": "NC-3810-E02-001", "place": "village", "source": "KEMRI - 2007"}}, {"type": "node", "id": 1404230784, "lat": 9.93851, "lon": 43.79458, "tags": {"name": "Heeryo (Hablo-Dabaal)", "pcode": "NC-3810-B07-002", "place": "village", "source": "UNDP - 2006"}}, {"type": "node", "id": 1404230801, "lat": 9.6768, "lon": 43.73049, "tags": {"name": "Galooley 1", "pcode": "NC-3810-H06-005", "place": "hamlet", "source": "KEMRI - 2007"}}, {"type": "node", "id": 1404230857, "lat": 9.84877, "lon": 43.778358, "tags": {"name": "Kadiga Dhanaan", "pcode": "NC-3810-D07-003", "place": "village", "source": "UNDP - 1997"}}, {"type": "node", "id": 1404230972, "lat": 9.94186, "lon": 43.66359, "tags": {"name": "Edagan", "pcode": "NC-3810-B04-001", "place": "village", "source": "KEMRI - 2007, UNDP - 2006"}}, {"type": "node", "id": 1404231045, "lat": 9.69762, "lon": 43.64612, "tags": {"alt_name": "Cumar Aadan", "name": "Cumer Aadan", "pcode": "NC-3810-H04-009", "place": "village", "source": "KEMRI - 2007, UNDP - 2006, UNDP - 1997"}}, {"type": "node", "id": 1404231074, "lat": 9.75931, "lon": 43.75077, "tags": {"name": "Galoolay", "pcode": "NC-3810-F06-003", "place": "village", "source": "FSAU"}}, {"type": "node", "id": 1404231260, "lat": 9.6649087, "lon": 43.7112882, "tags": {"name": "Caroguduudan Hose", "pcode": "NC-3810-J05-006", "place": "village", "source": "KEMRI - 2007"}}, {"type": "node", "id": 1404231344, "lat": 9.77864, "lon": 43.58217, "tags": {"name": "Gogaysa", "pcode": "NC-3810-F02-003", "place": "village", "source": "UNDP - 2006"}}, {"type": "node", "id": 1404231494, "lat": 9.81867, "lon": 43.55205, "tags": {"name": "Darimale", "pcode": "NC-3810-E02-002", "place": "village", "source": "UNDP - 2006"}}, {"type": "node", "id": 1404231517, "lat": 9.67632, "lon": 43.81599, "tags": {"name": "Boodhley", "pcode": "NC-3810-H07-004", "place": "village", "source": "KEMRI - 2007, UNDP - 2006"}}, {"type": "node", "id": 1404231599, "lat": 9.89141, "lon": 43.717151, "tags": {"name": "Edigaan", "pcode": "NC-3810-C05-001", "place": "village", "source": "GTZ - 2002"}}, {"type": "node", "id": 1404231614, "lat": 9.72271, "lon": 43.78848, "tags": {"name": "Gatawe", "pcode": "NC-3810-G07-001", "place": "village", "source": "UNDP - 2006"}}, {"type": "node", "id": 1404231655, "lat": 9.6805331, "lon": 43.5009061, "tags": {"name": "Botor", "pcode": "NC-3810-H01-002", "place": "village", "source": "UNDP - 2006"}}, {"type": "node", "id": 1404231808, "lat": 9.72037, "lon": 43.62989, "tags": {"name": "Sharif Cali", "pcode": "NC-3810-G03-002", "place": "village", "source": "KEMRI - 2007"}}, {"type": "node", "id": 1404231833, "lat": 9.70185, "lon": 43.65354, "tags": {"name": "Reerka-Dhagawayne", "pcode": "NC-3810-H04-005", "place": "village", "source": "UNDP - 2006"}}, {"type": "node", "id": 1404231866, "lat": 9.66367, "lon": 43.75014, "tags": {"name": "Sanlawe-Bari", "pcode": "NC-3810-J06-002", "place": "hamlet", "source": "KEMRI - 2007"}}, {"type": "node", "id": 1404231873, "lat": 9.7057353, "lon": 43.62505, "tags": {"alt_name": "Gebiley", "name": "Gebiley \u063a\u0627\u0628\u064a\u0644\u064a", "name:ar": "\u063a\u0627\u0628\u064a\u0644\u064a", "name:de": "Gabiley", "name:en": "Gabiley", "name:fr": "Gebiley", "name:hr": "Gabiley", "name:it": "Gabiley", "name:so": "Gabiley", "pcode": "NC-3810-H03-006", "place": "town", "source": "KEMRI - 2007, UNDP - 2006, UNDP - 1997"}}, {"type": "node", "id": 1404231968, "lat": 9.68709, "lon": 43.67385, "tags": {"name": "Ugaadhyahan", "pcode": "NC-3810-H04-006", "place": "village", "source": "UNDP - 2006"}}, {"type": "node", "id": 1404231985, "lat": 9.92675, "lon": 43.54808, "tags": {"alt_name": "Seemal", "name": "Seemaal", "pcode": "NC-3810-B02-001", "place": "village", "source": "KEMRI - 2007, UNDP - 2006, UNDP - 1997"}}, {"type": "node", "id": 1404232042, "lat": 9.70754, "lon": 43.642551, "tags": {"name": "Golka", "pcode": "NC-3810-H04-004", "place": "village", "source": "UNDP - 1997"}}, {"type": "node", "id": 1404232102, "lat": 9.7631778, "lon": 43.8171801, "tags": {"alt_name": "Butiji", "name": "Butujida Sare", "pcode": "NC-3810-F07-001", "place": "village", "source": "KEMRI - 2007, UNDP - 2006"}}, {"type": "node", "id": 1404232184, "lat": 9.66386, "lon": 43.63246, "tags": {"name": "Garbo Cad", "pcode": "NC-3810-J03-003", "place": "village", "source": "KEMRI - 2007"}}, {"type": "node", "id": 1404232259, "lat": 9.7661553, "lon": 43.8421973, "tags": {"alt_name": "Butuji Guricad", "name": "Guri-Cad", "pcode": "NC-3810-F08-001", "place": "village", "source": "KEMRI - 2007, UNDP - 2006"}}, {"type": "node", "id": 1404232352, "lat": 9.7304981, "lon": 43.6877178, "tags": {"name": "Caano-Geel", "pcode": "NC-3810-G05-001", "place": "hamlet", "source": "KEMRI - 2007"}}, {"type": "node", "id": 1404232749, "lat": 9.69349, "lon": 43.65658, "tags": {"alt_name": "Reehalas", "name": "Reer Halas", "pcode": "NC-3810-H04-008", "place": "village", "source": "KEMRI - 2007, UNDP - 2006, UNDP - 1997"}}, {"type": "node", "id": 1404233098, "lat": 9.9346, "lon": 43.63069, "tags": {"alt_name": "Isha Gugban", "name": "Isha-Gudban", "pcode": "NC-3810-B03-001", "place": "village", "source": "KEMRI - 2007, UNDP - 1997"}}, {"type": "node", "id": 1404233132, "lat": 9.73158, "lon": 43.73071, "tags": {"name": "\u062c\u0647\u062f\u064a \u063a\u0627\u0628\u064a\u0644\u064a Jidhi Gabiley", "name:ar": "\u062c\u0647\u062f\u064a \u063a\u0627\u0628\u064a\u0644\u064a", "name:en": "Jidhi Gabiley", "name:fr": "Jidhi Gabiley", "pcode": "NC-3810-G06-001", "place": "village", "source": "FSAU"}}, {"type": "node", "id": 1404233146, "lat": 9.6839, "lon": 43.6766, "tags": {"name": "Reer Al'Lale", "pcode": "NC-3810-H04-002", "place": "village", "source": "KEMRI - 2007"}}, {"type": "node", "id": 1404233274, "lat": 10.0028, "lon": 43.827099, "tags": {"name": "Dagah Waraba", "pcode": "NC-3806-Z08-001", "place": "village", "source": "UNDP - 1997"}}, {"type": "node", "id": 1404233379, "lat": 9.79812, "lon": 43.79199, "tags": {"name": "Kidiga Dhanaan", "pcode": "NC-3810-E07-001", "place": "village", "source": "UNDP - 2006"}}, {"type": "node", "id": 1404233387, "lat": 10.02013, "lon": 43.68993, "tags": {"alt_name": "Hadhwanag", "name": "Hadh Wanaag", "pcode": "NC-3806-Z05-001", "place": "village", "source": "KEMRI - 2007, UNDP - 2006, UNDP - 1997"}}, {"type": "node", "id": 1404233411, "lat": 9.753931, "lon": 43.589666, "tags": {"name": "Gogeysa", "pcode": "NC-3810-F02-001", "place": "village", "source": "GTZ - 2002"}}, {"type": "node", "id": 1404233510, "lat": 9.97341, "lon": 43.55057, "tags": {"alt_name": "Baysaare", "name": "Beesaare", "pcode": "NC-3810-A02-001", "place": "village", "source": "UNDP - 2006"}}, {"type": "node", "id": 1404233548, "lat": 9.917479, "lon": 43.777444, "tags": {"alt_name": "Ada", "name": "Caadda", "pcode": "NC-3810-B07-001", "place": "village", "source": "GTZ - 2002, UNDP - 1997"}}, {"type": "node", "id": 1404233646, "lat": 9.70975, "lon": 43.49161, "tags": {"name": "Botor", "pcode": "NC-3809-G33-001", "place": "village", "source": "KEMRI - 2007, UNDP - 2006, UNDP - 1997"}}, {"type": "node", "id": 1404233917, "lat": 9.7425, "lon": 43.48517, "tags": {"name": "Illinta", "pcode": "NC-3809-G33-003", "place": "village", "source": "UNDP - 2006"}}, {"type": "node", "id": 2454874210, "lat": 9.681532, "lon": 43.764145, "tags": {"name": "Arabsiyo \u0639\u0631\u0628\u0633\u064a\u0648", "name:ar": "\u0639\u0631\u0628\u0633\u064a\u0648", "name:cs": "Arabsiyo", "name:de": "Arabsiyo", "name:en": "Arabsiyo", "name:fa": "\u0639\u0631\u0628\u0633\u06cc\u0648", "name:fr": "Arabsiyo", "name:it": "Arabsiyo", "name:pl": "Arabsiyo", "name:ro": "Arabsiyo", "name:so": "Arabsiyo", "name:zu": "Arabsiyo", "place": "town", "wikidata": "Q24149", "wikipedia": "en:Arabsiyo"}}, {"type": "node", "id": 7268558786, "lat": 10.0116787, "lon": 43.7979512, "tags": {"place": "isolated_dwelling"}}, {"type": "node", "id": 7268559152, "lat": 10.0085028, "lon": 43.8164645, "tags": {"place": "isolated_dwelling"}}, {"type": "node", "id": 11591941889, "lat": 9.9785428, "lon": 43.6511372, "tags": {"fixme": "name missing", "place": "isolated_dwelling"}}, {"type": "node", "id": 11591941921, "lat": 9.9584712, "lon": 43.6649398, "tags": {"fixme": "name missing", "place": "isolated_dwelling"}}]}