{"version": 0.6, "generator": "Overpass API 0.7.62.1 084b4234", "osm3s": {"timestamp_osm_base": "2024-10-01T00:17:41Z", "copyright": "The data included in this document is from www.openstreetmap.org. The data is made available under ODbL."}, "elements": [{"type": "node", "id": 283675671, "lat": 8.286087, "lon": 37.781844, "tags": {"name": "\u12c8\u120d\u1242\u1324 / Welkite", "name:am": "\u12c8\u120d\u1242\u1324", "name:en": "Welkite", "name:fr": "Welkite", "place": "town", "source": "GPS,Photo", "wikidata": "Q1110026", "wikipedia": "en:Welkite"}}, {"type": "node", "id": 1104339265, "lat": 8.1750798, "lon": 37.5733515, "tags": {"name": "Abelti", "place": "village"}}, {"type": "node", "id": 1104352005, "lat": 8.1290933, "lon": 37.4924775, "tags": {"name": "Kumbi", "place": "village"}}, {"type": "node", "id": 1150882518, "lat": 8.25, "lon": 37.53333, "tags": {"is_in:country": "Ethiopia", "is_in:country_code": "ET", "name": "Medale Shet'", "place": "locality", "source": "GeoDatabase"}}, {"type": "node", "id": 1150884283, "lat": 8.36667, "lon": 37.65, "tags": {"is_in:country": "Ethiopia", "is_in:country_code": "ET", "name": "Gebu Shet'", "place": "locality", "source": "GeoDatabase", "wikidata": "Q23962135"}}, {"type": "node", "id": 1150886391, "lat": 8.31667, "lon": 37.56666, "tags": {"is_in:country": "Ethiopia", "is_in:country_code": "ET", "name": "Fite", "place": "locality", "source": "GeoDatabase"}}, {"type": "node", "id": 1150887375, "lat": 8.18333, "lon": 37.53333, "tags": {"is_in:country": "Ethiopia", "is_in:country_code": "ET", "name": "Abelt", "place": "locality", "source": "GeoDatabase"}}, {"type": "node", "id": 1150887941, "lat": 8.16667, "lon": 37.56666, "tags": {"is_in:country": "Ethiopia", "is_in:country_code": "ET", "name": "Abelti Abo Bete Kristiyan", "place": "locality", "source": "GeoDatabase"}}, {"type": "node", "id": 1150887978, "lat": 8.15, "lon": 37.8, "tags": {"is_in:country": "Ethiopia", "is_in:country_code": "ET", "name": "Wink'E Shet'", "place": "locality", "source": "GeoDatabase", "wikidata": "Q23961189"}}, {"type": "node", "id": 1150888538, "lat": 8.23333, "lon": 37.65, "tags": {"is_in:country": "Ethiopia", "is_in:country_code": "ET", "name": "Gibe River", "place": "locality", "source": "GeoDatabase"}}, {"type": "node", "id": 1150889503, "lat": 8.16667, "lon": 37.76667, "tags": {"is_in:country": "Ethiopia", "is_in:country_code": "ET", "name": "Haram Shet'", "place": "locality", "source": "GeoDatabase", "wikidata": "Q23961901"}}, {"type": "node", "id": 1150890159, "lat": 8.26667, "lon": 37.76667, "tags": {"is_in:country": "Ethiopia", "is_in:country_code": "ET", "name": "Ummuga", "place": "locality", "source": "GeoDatabase"}}, {"type": "node", "id": 1150892017, "lat": 8.41667, "lon": 37.6, "tags": {"is_in:country": "Ethiopia", "is_in:country_code": "ET", "name": "Ilala Bota", "place": "locality", "source": "GeoDatabase"}}, {"type": "node", "id": 1150892978, "lat": 8.35, "lon": 37.68333, "tags": {"is_in:country": "Ethiopia", "is_in:country_code": "ET", "name": "Debo", "place": "locality", "source": "GeoDatabase"}}, {"type": "node", "id": 1150893021, "lat": 8.11667, "lon": 37.68333, "tags": {"is_in:country": "Ethiopia", "is_in:country_code": "ET", "name": "Abriday", "place": "locality", "source": "GeoDatabase"}}, {"type": "node", "id": 1150894501, "lat": 8.41667, "lon": 37.76667, "tags": {"is_in:country": "Ethiopia", "is_in:country_code": "ET", "name": "Amenya Shet'", "place": "locality", "source": "GeoDatabase"}}, {"type": "node", "id": 1150897599, "lat": 8.13333, "lon": 37.83333, "tags": {"is_in:country": "Ethiopia", "is_in:country_code": "ET", "name": "Yefereze Gona", "place": "locality", "source": "GeoDatabase"}}, {"type": "node", "id": 1150898508, "lat": 8.45, "lon": 37.66667, "tags": {"is_in:country": "Ethiopia", "is_in:country_code": "ET", "name": "K'Uli K'Ela Shet'", "place": "locality", "source": "GeoDatabase"}}, {"type": "node", "id": 1150899161, "lat": 8.41667, "lon": 37.8, "tags": {"is_in:country": "Ethiopia", "is_in:country_code": "ET", "name": "Hoda Mela", "place": "locality", "source": "GeoDatabase"}}, {"type": "node", "id": 1150899193, "lat": 8.13333, "lon": 37.6, "tags": {"is_in:country": "Ethiopia", "is_in:country_code": "ET", "name": "Gotham", "place": "locality", "source": "GeoDatabase"}}, {"type": "node", "id": 1150899985, "lat": 8.18333, "lon": 37.76667, "tags": {"is_in:country": "Ethiopia", "is_in:country_code": "ET", "name": "Azer", "place": "locality", "source": "GeoDatabase"}}, {"type": "node", "id": 1150901749, "lat": 8.18333, "lon": 37.58333, "tags": {"is_in:country": "Ethiopia", "is_in:country_code": "ET", "name": "Ali", "place": "locality", "source": "GeoDatabase"}}, {"type": "node", "id": 1150902090, "lat": 8.3, "lon": 37.51667, "tags": {"is_in:country": "Ethiopia", "is_in:country_code": "ET", "name": "Borale", "place": "locality", "source": "GeoDatabase"}}, {"type": "node", "id": 1150914148, "lat": 8.15, "lon": 37.6, "tags": {"is_in:country": "Ethiopia", "is_in:country_code": "ET", "name": "Kewir Shet'", "place": "locality", "source": "GeoDatabase"}}, {"type": "node", "id": 1150914567, "lat": 8.33333, "lon": 37.73333, "tags": {"is_in:country": "Ethiopia", "is_in:country_code": "ET", "name": "Tululame", "place": "locality", "source": "GeoDatabase"}}, {"type": "node", "id": 1150914624, "lat": 8.2071534, "lon": 37.7902814, "tags": {"is_in:country": "Ethiopia", "is_in:country_code": "ET", "is_in:region": "Gurage Zone", "name": "Gubre Town", "place": "village", "population": "5678"}}, {"type": "node", "id": 1150918430, "lat": 8.38333, "lon": 37.86667, "tags": {"is_in:country": "Ethiopia", "is_in:country_code": "ET", "name": "Rifench'Ir", "place": "locality", "source": "GeoDatabase"}}, {"type": "node", "id": 1150921398, "lat": 8.21667, "lon": 37.46667, "tags": {"is_in:country": "Ethiopia", "is_in:country_code": "ET", "name": "Kobota", "place": "locality", "source": "GeoDatabase"}}, {"type": "node", "id": 1150921622, "lat": 8.36667, "lon": 37.75, "tags": {"is_in:country": "Ethiopia", "is_in:country_code": "ET", "name": "Kono", "place": "locality", "source": "GeoDatabase"}}, {"type": "node", "id": 1150923357, "lat": 8.2, "lon": 37.86667, "tags": {"is_in:country": "Ethiopia", "is_in:country_code": "ET", "name": "Yagwach T'Erek'", "place": "locality", "source": "GeoDatabase"}}, {"type": "node", "id": 1150923381, "lat": 8.41667, "lon": 37.51667, "tags": {"is_in:country": "Ethiopia", "is_in:country_code": "ET", "name": "Darge Shet'", "place": "locality", "source": "GeoDatabase"}}, {"type": "node", "id": 1150923525, "lat": 8.31667, "lon": 37.46667, "tags": {"is_in:country": "Ethiopia", "is_in:country_code": "ET", "name": "Dadele Shet'", "place": "locality", "source": "GeoDatabase"}}, {"type": "node", "id": 1150923579, "lat": 8.28333, "lon": 37.53333, "tags": {"is_in:country": "Ethiopia", "is_in:country_code": "ET", "name": "Monte Colba", "place": "locality", "source": "GeoDatabase"}}, {"type": "node", "id": 1150923662, "lat": 8.13333, "lon": 37.68333, "tags": {"is_in:country": "Ethiopia", "is_in:country_code": "ET", "name": "Haram Shet'", "place": "locality", "source": "GeoDatabase", "wikidata": "Q23961911"}}, {"type": "node", "id": 1150925510, "lat": 8.38333, "lon": 37.68333, "tags": {"is_in:country": "Ethiopia", "is_in:country_code": "ET", "name": "Gudra Shet'", "place": "locality", "source": "GeoDatabase"}}, {"type": "node", "id": 1150926965, "lat": 8.13333, "lon": 37.76667, "tags": {"is_in:country": "Ethiopia", "is_in:country_code": "ET", "name": "Cheha", "place": "locality", "source": "GeoDatabase"}}, {"type": "node", "id": 1150926993, "lat": 8.43333, "lon": 37.76667, "tags": {"is_in:country": "Ethiopia", "is_in:country_code": "ET", "name": "Gandja", "place": "locality", "source": "GeoDatabase"}}, {"type": "node", "id": 1150927108, "lat": 8.45, "lon": 37.85, "tags": {"is_in:country": "Ethiopia", "is_in:country_code": "ET", "name": "Eyerssa", "place": "locality", "source": "GeoDatabase"}}, {"type": "node", "id": 1150929543, "lat": 8.13333, "lon": 37.48333, "tags": {"is_in:country": "Ethiopia", "is_in:country_code": "ET", "name": "Gumbi", "place": "locality", "source": "GeoDatabase"}}, {"type": "node", "id": 1150932386, "lat": 8.4, "lon": 37.65, "tags": {"is_in:country": "Ethiopia", "is_in:country_code": "ET", "name": "Arole", "place": "locality", "source": "GeoDatabase"}}, {"type": "node", "id": 1150935102, "lat": 8.33333, "lon": 37.56666, "tags": {"is_in:country": "Ethiopia", "is_in:country_code": "ET", "name": "Rome Shet'", "place": "locality", "source": "GeoDatabase"}}, {"type": "node", "id": 1150935203, "lat": 8.21667, "lon": 37.61667, "tags": {"is_in:country": "Ethiopia", "is_in:country_code": "ET", "name": "Uabi", "place": "locality", "source": "GeoDatabase"}}, {"type": "node", "id": 1150936358, "lat": 8.21667, "lon": 37.68333, "tags": {"is_in:country": "Ethiopia", "is_in:country_code": "ET", "name": "Tuba", "place": "locality", "source": "GeoDatabase"}}, {"type": "node", "id": 1150938953, "lat": 8.3, "lon": 37.55, "tags": {"is_in:country": "Ethiopia", "is_in:country_code": "ET", "name": "Nacha", "place": "locality", "source": "GeoDatabase"}}, {"type": "node", "id": 1150956429, "lat": 8.28333, "lon": 37.68333, "tags": {"is_in:country": "Ethiopia", "is_in:country_code": "ET", "name": "Jejeba", "place": "locality", "source": "GeoDatabase"}}, {"type": "node", "id": 1150957729, "lat": 8.31667, "lon": 37.81666, "tags": {"is_in:country": "Ethiopia", "is_in:country_code": "ET", "name": "Lench'A", "place": "locality", "source": "GeoDatabase"}}, {"type": "node", "id": 1150960491, "lat": 8.400467, "lon": 37.8687407, "tags": {"name": "\u130e\u1229 / Goru", "name:am": "\u130e\u1229", "name:en": "Goru", "name:fr": "Goru", "place": "town", "source": "GeoDatabase,GPS,Photo"}}, {"type": "node", "id": 1150963531, "lat": 8.38333, "lon": 37.76667, "tags": {"is_in:country": "Ethiopia", "is_in:country_code": "ET", "name": "Buk'Ata", "place": "locality", "source": "GeoDatabase"}}, {"type": "node", "id": 1150967935, "lat": 8.15, "lon": 37.68333, "tags": {"is_in:country": "Ethiopia", "is_in:country_code": "ET", "name": "Gorombo", "place": "locality", "source": "GeoDatabase"}}, {"type": "node", "id": 1150969866, "lat": 8.38333, "lon": 37.71667, "tags": {"is_in:country": "Ethiopia", "is_in:country_code": "ET", "name": "Rogda", "place": "locality", "source": "GeoDatabase"}}, {"type": "node", "id": 1150971555, "lat": 8.15, "lon": 37.76667, "tags": {"is_in:country": "Ethiopia", "is_in:country_code": "ET", "name": "Tug Megheccia", "place": "locality", "source": "GeoDatabase"}}, {"type": "node", "id": 1150973445, "lat": 8.16667, "lon": 37.53333, "tags": {"is_in:country": "Ethiopia", "is_in:country_code": "ET", "name": "Bede", "place": "locality", "source": "GeoDatabase"}}, {"type": "node", "id": 1150974885, "lat": 8.4, "lon": 37.6, "tags": {"is_in:country": "Ethiopia", "is_in:country_code": "ET", "name": "Ilala", "place": "locality", "source": "GeoDatabase"}}, {"type": "node", "id": 1150978480, "lat": 8.36667, "lon": 37.81666, "tags": {"is_in:country": "Ethiopia", "is_in:country_code": "ET", "name": "T'Ifench'Ir", "place": "locality", "source": "GeoDatabase"}}, {"type": "node", "id": 1150978569, "lat": 8.35, "lon": 37.66667, "tags": {"is_in:country": "Ethiopia", "is_in:country_code": "ET", "name": "Dalola", "place": "locality", "source": "GeoDatabase", "wikidata": "Q23962432"}}, {"type": "node", "id": 1150978723, "lat": 8.25, "lon": 37.66667, "tags": {"is_in:country": "Ethiopia", "is_in:country_code": "ET", "name": "Soiama", "place": "locality", "source": "GeoDatabase", "wikidata": "Q24026207"}}, {"type": "node", "id": 1150982262, "lat": 8.2, "lon": 37.7, "tags": {"is_in:country": "Ethiopia", "is_in:country_code": "ET", "name": "Ibri", "place": "locality", "source": "GeoDatabase"}}, {"type": "node", "id": 1973115640, "lat": 8.4133846, "lon": 37.6704127, "tags": {"place": "village"}}, {"type": "node", "id": 2155925475, "lat": 8.4220491, "lon": 37.5212081, "tags": {"name": "Giundu", "place": "town"}}, {"type": "node", "id": 2155944920, "lat": 8.324194, "lon": 37.590388, "tags": {"place": "village"}}, {"type": "node", "id": 2841807734, "lat": 8.1753272, "lon": 37.7914023, "tags": {"name": "Attat", "place": "village"}}, {"type": "node", "id": 3181570570, "lat": 8.1311523, "lon": 37.8659893, "tags": {"alt_name": "Megenasse", "name": "Maganasse", "place": "village"}}, {"type": "node", "id": 4517973323, "lat": 8.2100145, "lon": 37.7913836, "tags": {"place": "farm"}}]}