{"version": 0.6, "generator": "Overpass API 0.7.62.1 084b4234", "osm3s": {"timestamp_osm_base": "2024-09-30T18:20:35Z", "copyright": "The data included in this document is from www.openstreetmap.org. The data is made available under ODbL."}, "elements": [{"type": "node", "id": 44914752, "lat": -0.2, "lon": 38.3166, "tags": {"name": "Thangata", "place": "village"}}, {"type": "node", "id": 45000339, "lat": 0.1, "lon": 38.0166, "tags": {"name": "Gatunga", "place": "village"}}, {"type": "node", "id": 10754838633, "lat": -0.2090347, "lon": 38.3380936}, {"type": "node", "id": 10754838634, "lat": -0.2074452, "lon": 38.3378694}, {"type": "node", "id": 10754838635, "lat": -0.2079575, "lon": 38.3342593}, {"type": "node", "id": 10754838636, "lat": -0.2100552, "lon": 38.3322347}, {"type": "node", "id": 10754838637, "lat": -0.2115188, "lon": 38.3343975}, {"type": "node", "id": 10754838638, "lat": -0.2112179, "lon": 38.336601}, {"type": "node", "id": 10754838639, "lat": -0.2105512, "lon": 38.3385524}, {"type": "way", "id": 1156491998, "nodes": [10754838633, 10754838634, 10754838635, 10754838636, 10754838637, 10754838638, 10754838639, 10754838633], "tags": {"name": "Kaningo town", "place": "town"}}]}