{"version": 0.6, "generator": "Overpass API 0.7.62.1 084b4234", "osm3s": {"timestamp_osm_base": "2024-09-30T18:23:43Z", "copyright": "The data included in this document is from www.openstreetmap.org. The data is made available under ODbL."}, "elements": [{"type": "node", "id": 44929272, "lat": 0.1666, "lon": 35.6166, "tags": {"is_in": "E. marakwet,Kenya", "name": "Metkei", "place": "village", "wikidata": "Q6824170"}}, {"type": "node", "id": 44930032, "lat": 0.1333, "lon": 35.5833, "tags": {"created_by": "JOSM", "is_in": "Uasin gishu,Kenya", "name": "Masaita", "place": "village"}}, {"type": "node", "id": 44997881, "lat": 0.1833, "lon": 35.5333, "tags": {"is_in": "Uasin gishu,Kenya", "name": "Kapchorewe", "place": "village", "wikidata": "Q15233585"}}, {"type": "node", "id": 44998750, "lat": 0.024258, "lon": 35.785078, "tags": {"name": "Kabimoi", "place": "village", "wikidata": "Q6344168"}}, {"type": "node", "id": 45002967, "lat": 0.0497446, "lon": 35.722761, "tags": {"is_in:district": "Koibatek", "name": "Eldama Ravine", "place": "town", "wikidata": "Q1009186"}}, {"type": "node", "id": 45003207, "lat": 0.0833, "lon": 35.6333, "tags": {"name": "Chemosusu", "place": "village", "wikidata": "Q5090625"}}, {"type": "node", "id": 1555315797, "lat": -0.0567405, "lon": 35.6403052, "tags": {"name": "Makutano", "place": "village"}}, {"type": "node", "id": 1555338177, "lat": 0.0629624, "lon": 35.5467063, "tags": {"name": "Timboroa", "place": "town"}}, {"type": "node", "id": 1555341130, "lat": -0.0037281, "lon": 35.5673915, "tags": {"name": "Equator", "place": "village"}}, {"type": "node", "id": 1821807027, "lat": -0.0220986, "lon": 35.6913332, "tags": {"name": "Maji Mazuri", "place": "town"}}, {"type": "node", "id": 1821844128, "lat": -0.0243131, "lon": 35.7877496, "tags": {"name": "Lebolos", "place": "village"}}, {"type": "node", "id": 2260668962, "lat": -0.0974155, "lon": 35.6766591, "tags": {"name": "Kamara", "place": "village"}}, {"type": "node", "id": 2270977369, "lat": 0.1225923, "lon": 35.5993088, "tags": {"name": "Torongo", "place": "village"}}, {"type": "node", "id": 6943390617, "lat": -0.019695, "lon": 35.6901344}, {"type": "node", "id": 6943390619, "lat": -0.0196511, "lon": 35.6903075}, {"type": "node", "id": 6943390620, "lat": -0.0195852, "lon": 35.6901757}, {"type": "node", "id": 6943390621, "lat": -0.0197286, "lon": 35.6902971}, {"type": "node", "id": 6943390622, "lat": -0.0196059, "lon": 35.6903062}, {"type": "node", "id": 9239193208, "lat": 0.0067064, "lon": 35.7093599, "tags": {"name": "Benonin", "place": "village"}}, {"type": "node", "id": 9566104321, "lat": -0.1103739, "lon": 35.8037607, "tags": {"name": "Kandutura Station", "place": "village"}}, {"type": "node", "id": 9770291736, "lat": -0.0974375, "lon": 35.6725115, "tags": {"name": "Kapkwen", "place": "village"}}, {"type": "node", "id": 9770291737, "lat": -0.1002988, "lon": 35.6792572, "tags": {"name": "Cereal", "place": "village"}}, {"type": "node", "id": 9770291738, "lat": -0.0896354, "lon": 35.6876992, "tags": {"name": "Bureti A", "place": "village"}}, {"type": "node", "id": 9770291740, "lat": -0.0797891, "lon": 35.6464253, "tags": {"name": "Kiplelechon", "place": "village"}}, {"type": "node", "id": 9770291741, "lat": -0.1073612, "lon": 35.6610399, "tags": {"name": "Chebitet", "place": "village"}}, {"type": "node", "id": 9770291742, "lat": -0.1031741, "lon": 35.6501241, "tags": {"name": "Tartaryet", "place": "village"}}, {"type": "node", "id": 9770291744, "lat": -0.0867959, "lon": 35.6619668, "tags": {"name": "Cheptebe", "place": "village"}}, {"type": "node", "id": 9770291745, "lat": -0.080056, "lon": 35.6583042, "tags": {"name": "Kapsimotwo", "place": "village"}}, {"type": "node", "id": 9770291746, "lat": -0.1039033, "lon": 35.6573928, "tags": {"name": "Kapkures", "place": "village"}}, {"type": "node", "id": 9770291747, "lat": -0.0926941, "lon": 35.6364044, "tags": {"name": "Kiptenden", "place": "village"}}, {"type": "node", "id": 9770291748, "lat": -0.0922884, "lon": 35.6703453, "tags": {"name": "Tegat", "place": "village"}}, {"type": "node", "id": 9770291749, "lat": -0.085321, "lon": 35.6662751, "tags": {"name": "Kiwanja Ndege", "place": "village"}}, {"type": "node", "id": 9770291750, "lat": -0.0798471, "lon": 35.6667676, "tags": {"name": "Kapkokwoni", "place": "village"}}, {"type": "node", "id": 9770291751, "lat": -0.0840718, "lon": 35.6863489, "tags": {"name": "Tarkwet", "place": "village"}}, {"type": "node", "id": 9770291752, "lat": -0.0774894, "lon": 35.6854602, "tags": {"name": "Kamata", "place": "village"}}, {"type": "node", "id": 9770291753, "lat": -0.0864002, "lon": 35.6844505, "tags": {"name": "Bureti B", "place": "village"}}, {"type": "node", "id": 9770291754, "lat": -0.0871869, "lon": 35.6809297, "tags": {"name": "Tabora", "place": "village"}}, {"type": "node", "id": 9770291755, "lat": -0.0803249, "lon": 35.6710133, "tags": {"name": "Chebarus", "place": "village"}}, {"type": "node", "id": 9770291756, "lat": -0.0769487, "lon": 35.6710647, "tags": {"name": "Olenguruone", "place": "village"}}, {"type": "node", "id": 9770291757, "lat": -0.0842765, "lon": 35.6767074, "tags": {"name": "Kiwanja", "place": "village"}}, {"type": "node", "id": 9770291758, "lat": -0.0793421, "lon": 35.675642, "tags": {"name": "Langas", "place": "village"}}, {"type": "node", "id": 9770291759, "lat": -0.0928385, "lon": 35.6834986, "tags": {"name": "Bureti Netebes", "place": "village"}}, {"type": "node", "id": 9770291760, "lat": -0.0964993, "lon": 35.6762449, "tags": {"name": "Kamara Centre", "place": "village"}}, {"type": "node", "id": 9770291761, "lat": -0.0924532, "lon": 35.6774076, "tags": {"name": "Tanzania", "place": "village"}}, {"type": "node", "id": 9770291763, "lat": -0.1125424, "lon": 35.68364, "tags": {"name": "Chepsir", "place": "village"}}, {"type": "node", "id": 9770291764, "lat": -0.1115124, "lon": 35.6912278, "tags": {"name": "Miti Moja", "place": "village"}}, {"type": "node", "id": 9770291765, "lat": -0.1026365, "lon": 35.6821727, "tags": {"name": "Silibwet", "place": "village"}}, {"type": "node", "id": 9770291766, "lat": -0.1051781, "lon": 35.6877805, "tags": {"name": "Tuiyotich", "place": "village"}}, {"type": "node", "id": 9770291767, "lat": -0.0990663, "lon": 35.6875194, "tags": {"name": "Sigowet", "place": "village"}}, {"type": "node", "id": 9770291805, "lat": -0.0804807, "lon": 35.6852625, "tags": {"name": "Kimugul", "place": "village"}}, {"type": "way", "id": 741705504, "nodes": [6943390620, 6943390617, 6943390621, 6943390619, 6943390622, 6943390620], "tags": {"place": "square"}}]}