{"version": 0.6, "generator": "Overpass API 0.7.62.1 084b4234", "osm3s": {"timestamp_osm_base": "2024-10-01T00:04:01Z", "copyright": "The data included in this document is from www.openstreetmap.org. The data is made available under ODbL."}, "elements": [{"type": "node", "id": 1150883618, "lat": 10.62333, "lon": 41.46278, "tags": {"is_in:country": "Ethiopia", "is_in:country_code": "ET", "name": "Geblelu", "place": "locality", "source": "GeoDatabase"}}, {"type": "node", "id": 1150886897, "lat": 10.5, "lon": 41.41667, "tags": {"is_in:country": "Ethiopia", "is_in:country_code": "ET", "name": "Uema", "place": "locality", "source": "GeoDatabase"}}, {"type": "node", "id": 1150887347, "lat": 10.308878, "lon": 41.4800931, "tags": {"name": "Meriham Shet'", "place": "locality", "source": "GeoDatabase"}}, {"type": "node", "id": 1150887363, "lat": 10.55, "lon": 41.48333, "tags": {"is_in:country": "Ethiopia", "is_in:country_code": "ET", "name": "Killelu", "place": "locality", "source": "GeoDatabase"}}, {"type": "node", "id": 1150889980, "lat": 10.5, "lon": 41.35, "tags": {"is_in:country": "Ethiopia", "is_in:country_code": "ET", "name": "Korridra", "place": "locality", "source": "GeoDatabase"}}, {"type": "node", "id": 1150892845, "lat": 10.45944, "lon": 41.5875, "tags": {"name": "Abeno Shet'", "place": "locality", "source": "GeoDatabase"}}, {"type": "node", "id": 1150896783, "lat": 10.36667, "lon": 41.25, "tags": {"is_in:country": "Ethiopia", "is_in:country_code": "ET", "name": "Arnut", "place": "locality", "source": "GeoDatabase"}}, {"type": "node", "id": 1150897565, "lat": 10.57306, "lon": 41.45056, "tags": {"is_in:country": "Ethiopia", "is_in:country_code": "ET", "name": "Geresele Shet'", "place": "locality", "source": "GeoDatabase"}}, {"type": "node", "id": 1150904688, "lat": 10.41667, "lon": 41.5, "tags": {"name": "Ali Bekali", "place": "locality", "source": "GeoDatabase"}}, {"type": "node", "id": 1150911630, "lat": 10.55167, "lon": 41.26833, "tags": {"is_in:country": "Ethiopia", "is_in:country_code": "ET", "name": "Gebi Shet'", "place": "locality", "source": "GeoDatabase"}}, {"type": "node", "id": 1150912449, "lat": 10.25, "lon": 41.58333, "tags": {"is_in:country": "Ethiopia", "is_in:country_code": "ET", "name": "Hassandera Kebir", "place": "locality", "source": "GeoDatabase"}}, {"type": "node", "id": 1150912485, "lat": 10.6, "lon": 41.5, "tags": {"is_in:country": "Ethiopia", "is_in:country_code": "ET", "name": "Uaramelli", "place": "locality", "source": "GeoDatabase"}}, {"type": "node", "id": 1150918871, "lat": 10.45861, "lon": 41.40917, "tags": {"is_in:country": "Ethiopia", "is_in:country_code": "ET", "name": "Asendere Shet'", "place": "locality", "source": "GeoDatabase"}}, {"type": "node", "id": 1150922982, "lat": 10.57278, "lon": 41.45194, "tags": {"is_in:country": "Ethiopia", "is_in:country_code": "ET", "name": "Hariso Shet'", "place": "locality", "source": "GeoDatabase"}}, {"type": "node", "id": 1150924732, "lat": 10.31667, "lon": 41.31666, "tags": {"name": "Mount Bondura", "place": "locality", "source": "GeoDatabase"}}, {"type": "node", "id": 1150927584, "lat": 10.48333, "lon": 41.31666, "tags": {"is_in:country": "Ethiopia", "is_in:country_code": "ET", "name": "Nagakumi", "place": "locality", "source": "GeoDatabase"}}, {"type": "node", "id": 1150939243, "lat": 10.36667, "lon": 41.16667, "tags": {"is_in:country": "Ethiopia", "is_in:country_code": "ET", "name": "Bunduro", "place": "locality", "source": "GeoDatabase"}}, {"type": "node", "id": 1150945174, "lat": 10.34528, "lon": 41.57167, "tags": {"name": "Gheiol", "place": "locality", "source": "GeoDatabase"}}, {"type": "node", "id": 1150953986, "lat": 10.60056, "lon": 41.28889, "tags": {"is_in:country": "Ethiopia", "is_in:country_code": "ET", "name": "Timihir Bota", "place": "locality", "source": "GeoDatabase"}}, {"type": "node", "id": 1150956172, "lat": 10.53722, "lon": 41.51528, "tags": {"name": "Bok'Enego Bota", "place": "locality", "source": "GeoDatabase"}}, {"type": "node", "id": 1150962366, "lat": 10.31667, "lon": 41.25, "tags": {"is_in:country": "Ethiopia", "is_in:country_code": "ET", "name": "Menatolli", "place": "locality", "source": "GeoDatabase"}}, {"type": "node", "id": 1150966322, "lat": 10.28333, "lon": 41.2, "tags": {"is_in:country": "Ethiopia", "is_in:country_code": "ET", "name": "Gabolla", "place": "locality", "source": "GeoDatabase"}}, {"type": "node", "id": 1150970604, "lat": 10.21667, "lon": 41.2, "tags": {"is_in:country": "Ethiopia", "is_in:country_code": "ET", "name": "Mirechin", "place": "locality", "source": "GeoDatabase"}}, {"type": "node", "id": 1150972376, "lat": 10.56056, "lon": 41.17667, "tags": {"is_in:country": "Ethiopia", "is_in:country_code": "ET", "name": "As'Ali Terara", "place": "locality", "source": "GeoDatabase"}}, {"type": "node", "id": 1151002071, "lat": 10.38611, "lon": 41.19166, "tags": {"is_in:country": "Ethiopia", "is_in:country_code": "ET", "name": "Loh Meda", "place": "locality", "source": "GeoDatabase"}}]}