{"version": 0.6, "generator": "Overpass API 0.7.62.1 084b4234", "osm3s": {"timestamp_osm_base": "2024-09-30T21:22:41Z", "copyright": "The data included in this document is from www.openstreetmap.org. The data is made available under ODbL."}, "elements": [{"type": "node", "id": 1404221589, "lat": 0.5319, "lon": 41.497799, "tags": {"name": "Sencor Gherbic", "pcode": "NA-3716-M22-001", "place": "village", "source": "UNDP - 1997"}}, {"type": "node", "id": 1404221872, "lat": 0.5213, "lon": 41.670799, "tags": {"name": "Cangiara", "pcode": "NA-3716-M26-001", "place": "village", "source": "UNDP - 1997"}}, {"type": "node", "id": 1404223210, "lat": 0.3317, "lon": 41.7798, "tags": {"name": "Magado", "pcode": "NA-3716-S29-001", "place": "locality", "source": "UNDP - 1997"}}, {"type": "node", "id": 1404224912, "lat": 0.3206211, "lon": 41.6564254, "tags": {"name": "Girma Diacatti", "pcode": "NA-3716-S26-001", "place": "isolated_dwelling", "source": "UNDP - 1997"}}, {"type": "node", "id": 1404225374, "lat": 0.6713, "lon": 41.821999, "tags": {"name": "Anzubsito", "pcode": "NA-3716-H30-001", "place": "locality", "source": "UNDP - 1997"}}, {"type": "node", "id": 1404225715, "lat": 0.55, "lon": 41.548901, "tags": {"name": "Sencor Melbe", "pcode": "NA-3716-L24-001", "place": "village", "source": "UNDP - 1997"}}, {"type": "node", "id": 1404226239, "lat": 0.5789, "lon": 41.472, "tags": {"name": "Iach Monis", "pcode": "NA-3716-L22-001", "place": "village", "source": "UNDP - 1997"}}, {"type": "node", "id": 1404227185, "lat": 0.5311, "lon": 41.430099, "tags": {"name": "Bogi Bacadle", "pcode": "NA-3716-M21-001", "place": "village", "source": "UNDP - 1997"}}, {"type": "node", "id": 1404228067, "lat": 0.3982855, "lon": 41.67037, "tags": {"name": "Aboli", "pcode": "NA-3716-Q26-001", "place": "locality", "source": "UNDP - 1997"}}, {"type": "node", "id": 1404229753, "lat": 0.7016, "lon": 41.632, "tags": {"name": "Tarri", "pcode": "NA-3716-H25-001", "place": "village", "source": "UNDP - 1997"}}, {"type": "node", "id": 1404230175, "lat": 0.5524, "lon": 41.629501, "tags": {"name": "Sencar Aveggio", "pcode": "NA-3716-L25-001", "place": "village", "source": "UNDP - 1997"}}, {"type": "node", "id": 1404230688, "lat": 0.6713, "lon": 41.731701, "tags": {"name": "Xaliima Caddey", "pcode": "NA-3716-H28-001", "place": "village", "source": "UNDP - 1997"}}, {"type": "node", "id": 1404230780, "lat": 0.4336636, "lon": 41.815943, "tags": {"alt_name": "Hayo", "name": "Xayo", "pcode": "NA-3716-P29-001", "place": "village", "source": "UNDP - 1997, FSAU"}}, {"type": "node", "id": 1404231312, "lat": 0.3741013, "lon": 41.7296611, "tags": {"name": "Hararoba", "pcode": "NA-3716-Q28-001", "place": "locality", "source": "UNDP - 1997"}}, {"type": "node", "id": 1404231738, "lat": 0.6678837, "lon": 41.8334267, "tags": {"name": "Magar", "pcode": "NA-3716-J30-001", "place": "hamlet", "source": "UNDP - 1997, FSAU"}}, {"type": "node", "id": 9986237886, "lat": 0.4982596, "lon": 41.4309414, "tags": {"place": "isolated_dwelling"}}, {"type": "node", "id": 10768743128, "lat": 0.4509462, "lon": 41.5376689, "tags": {"place": "isolated_dwelling"}}, {"type": "node", "id": 10768743129, "lat": 0.452397, "lon": 41.5318274, "tags": {"place": "isolated_dwelling"}}, {"type": "node", "id": 10768743597, "lat": 0.4432367, "lon": 41.5325898, "tags": {"place": "isolated_dwelling"}}]}