{"version": 0.6, "generator": "Overpass API 0.7.62.1 084b4234", "osm3s": {"timestamp_osm_base": "2024-09-30T17:35:06Z", "copyright": "The data included in this document is from www.openstreetmap.org. The data is made available under ODbL."}, "elements": [{"type": "node", "id": 44927549, "lat": -0.156525, "lon": 35.187494, "tags": {"name": "Muhoroni", "place": "town", "wikidata": "Q580476"}}, {"type": "node", "id": 44931306, "lat": -0.1833, "lon": 35.2666, "tags": {"name": "Koru", "place": "village", "wikidata": "Q6432726"}}, {"type": "node", "id": 44992700, "lat": -0.1666, "lon": 35.15, "tags": {"name": "Kiligis", "place": "village"}}, {"type": "node", "id": 44992745, "lat": -0.2666, "lon": 35.2166, "tags": {"created_by": "JOSM", "is_in": "Kericho,Kenya", "name": "Kenegut", "place": "village"}}, {"type": "node", "id": 44997930, "lat": -0.3, "lon": 35.05, "tags": {"name": "Kap Sarok", "place": "village", "wikidata": "Q6366339"}}, {"type": "node", "id": 44998146, "lat": -0.3184943, "lon": 35.2173904, "tags": {"alt_name": "Kapsoit", "name": "Kapsoit", "place": "town"}}, {"type": "node", "id": 44999605, "lat": -0.2833, "lon": 35.1666, "tags": {"alt_name": "Kaituiy;Koituiy", "is_in": "Kericho,Kenya", "name": "Kaitui", "place": "village", "wikidata": "Q6348662"}}, {"type": "node", "id": 45004817, "lat": -0.3, "lon": 35.2833, "tags": {"name": "Ainamoi", "place": "village", "wikidata": "Q4697390"}}, {"type": "node", "id": 45004882, "lat": -0.3, "lon": 35.2833, "tags": {"name": "Ainemoi", "place": "village"}}, {"type": "node", "id": 2987222047, "lat": -0.087748, "lon": 35.126021, "tags": {"name": "Chemelil", "place": "town", "wikidata": "Q2962263"}}, {"type": "node", "id": 3901069802, "lat": -0.160583, "lon": 35.073504, "tags": {"name": "Awasi", "place": "town", "wikidata": "Q2874675"}}, {"type": "node", "id": 9852990456, "lat": -0.309005, "lon": 35.0188034, "tags": {"name": "KAGAYA/ KOCHUKA", "place": "village"}}, {"type": "node", "id": 9852990458, "lat": -0.3220321, "lon": 35.0116617, "tags": {"name": "KASAE ASAWO", "place": "neighbourhood"}}, {"type": "node", "id": 9852990459, "lat": -0.3180497, "lon": 35.0234629, "tags": {"name": "Kasaye Cherwa", "place": "village"}}, {"type": "node", "id": 9852990461, "lat": -0.3039707, "lon": 35.0120369, "tags": {"name": "KOGOL", "place": "village"}}, {"type": "node", "id": 9852990510, "lat": -0.2804097, "lon": 35.0108122, "tags": {"name": "KASRUNDA", "place": "neighbourhood"}}, {"type": "node", "id": 9852990511, "lat": -0.2940587, "lon": 35.0145482, "tags": {"name": "Kamloma East", "place": "village"}}, {"type": "node", "id": 9852990512, "lat": -0.2941073, "lon": 35.0078331, "tags": {"name": "Katuk/Kamloma West", "place": "village"}}, {"type": "node", "id": 9852990515, "lat": -0.2960307, "lon": 35.0201506, "tags": {"name": "KODUOR 'B'", "place": "village"}}, {"type": "node", "id": 9852990516, "lat": -0.2831093, "lon": 35.0188778, "tags": {"name": "KODUOR 'A'", "place": "neighbourhood"}}, {"type": "node", "id": 9852999217, "lat": -0.3114689, "lon": 35.0094903, "tags": {"name": "Kamwana", "place": "neighbourhood"}}, {"type": "node", "id": 9852999218, "lat": -0.3071853, "lon": 35.0303582, "tags": {"name": "MARABA 'B'", "place": "village"}}, {"type": "node", "id": 9852999219, "lat": -0.3142869, "lon": 35.0186708, "tags": {"name": "Kauko-ola", "place": "village"}}, {"type": "node", "id": 9852999220, "lat": -0.2967648, "lon": 35.0285917, "tags": {"name": "MARABA 'A'", "place": "village"}}, {"type": "node", "id": 9852999221, "lat": -0.2978534, "lon": 35.0423194, "tags": {"name": "CHERWA", "place": "village"}}, {"type": "node", "id": 9852999222, "lat": -0.2898395, "lon": 35.0301669, "tags": {"name": "OBINJU", "place": "village"}}, {"type": "node", "id": 9852999223, "lat": -0.2891638, "lon": 35.0453503, "tags": {"name": "OMBING'O 'B'", "place": "village"}}, {"type": "node", "id": 9935145384, "lat": -0.1568332, "lon": 35.0564695, "tags": {"name": "Kamworo", "place": "village"}}, {"type": "node", "id": 9935145385, "lat": -0.1597703, "lon": 35.0702689, "tags": {"name": "Town Centre", "place": "village"}}, {"type": "node", "id": 9935145386, "lat": -0.1627549, "lon": 35.0573899, "tags": {"name": "Kajina", "place": "village"}}, {"type": "node", "id": 9935145387, "lat": -0.1576488, "lon": 35.0694781, "tags": {"name": "Town Centre", "place": "village"}}, {"type": "node", "id": 9935145388, "lat": -0.1643531, "lon": 35.0699529, "tags": {"name": "Koguta", "place": "village"}}, {"type": "node", "id": 9935145389, "lat": -0.1676627, "lon": 35.0794981, "tags": {"name": "Masira", "place": "village"}}, {"type": "node", "id": 9935145390, "lat": -0.1631663, "lon": 35.0718419, "tags": {"name": "Town Centre", "place": "village"}}, {"type": "node", "id": 9935145391, "lat": -0.162139, "lon": 35.0723752, "tags": {"name": "Town Centre", "place": "village"}}, {"type": "node", "id": 9935145392, "lat": -0.1607756, "lon": 35.0728479, "tags": {"name": "Administration", "place": "village"}}, {"type": "node", "id": 9935145393, "lat": -0.1588031, "lon": 35.0735291, "tags": {"name": "Administration", "place": "village"}}, {"type": "node", "id": 9935145394, "lat": -0.1593928, "lon": 35.0726256, "tags": {"name": "Administration", "place": "village"}}, {"type": "node", "id": 9935145395, "lat": -0.1627183, "lon": 35.0772956, "tags": {"name": "Administration", "place": "village"}}, {"type": "node", "id": 9935145397, "lat": -0.1649746, "lon": 35.0203391, "tags": {"name": "Kakola 'B'/Kakwany", "place": "village"}}, {"type": "node", "id": 9935145398, "lat": -0.1665822, "lon": 35.0065049, "tags": {"name": "Oren 'B'", "place": "village"}}, {"type": "node", "id": 9935145399, "lat": -0.1841043, "lon": 35.0149396, "tags": {"name": "Oren 'A'", "place": "village"}}, {"type": "node", "id": 9935145400, "lat": -0.205837, "lon": 35.0491546, "tags": {"name": "Kamuga/Kaguta", "place": "village"}}, {"type": "node", "id": 9935145401, "lat": -0.1899648, "lon": 35.037746, "tags": {"name": "Oren 'C'", "place": "village"}}, {"type": "node", "id": 9935145402, "lat": -0.1881079, "lon": 35.0492901, "tags": {"name": "Kakumu 'A'", "place": "village"}}, {"type": "node", "id": 9935145403, "lat": -0.1857552, "lon": 35.0664628, "tags": {"name": "Kasilwal 'A'", "place": "village"}}, {"type": "node", "id": 9935145404, "lat": -0.1758774, "lon": 35.0568247, "tags": {"name": "Kakumu 'B'", "place": "village"}}, {"type": "node", "id": 9935145405, "lat": -0.1967063, "lon": 35.0581401, "tags": {"name": "Kanyango", "place": "village"}}, {"type": "node", "id": 9935145406, "lat": -0.1997024, "lon": 35.0713119, "tags": {"name": "Kasilwal 'B'", "place": "village"}}, {"type": "node", "id": 9935145407, "lat": -0.1936852, "lon": 35.0880856, "tags": {"name": "Kawaondo", "place": "village"}}, {"type": "node", "id": 9935145408, "lat": -0.1856861, "lon": 35.0876305, "tags": {"name": "Kasilwal 'C'", "place": "village"}}, {"type": "node", "id": 9935145409, "lat": -0.1786794, "lon": 35.034224, "tags": {"name": "Kodwar Got", "place": "village"}}, {"type": "node", "id": 9935145410, "lat": -0.1742643, "lon": 35.0214706, "tags": {"name": "Kokal / Kokuodi", "place": "village"}}, {"type": "node", "id": 9935145411, "lat": -0.1525768, "lon": 35.0426774, "tags": {"name": "Karondo", "place": "village"}}, {"type": "node", "id": 9935145412, "lat": -0.1581781, "lon": 35.0410059, "tags": {"name": "Kasirere 'A'", "place": "village"}}, {"type": "node", "id": 9935145413, "lat": -0.1655025, "lon": 35.0380147, "tags": {"name": "Kakola 'A'", "place": "village"}}, {"type": "node", "id": 9935145414, "lat": -0.1769817, "lon": 35.0486539, "tags": {"name": "Kaswa", "place": "village"}}, {"type": "node", "id": 9935145415, "lat": -0.1672884, "lon": 35.0604332, "tags": {"name": "Kasirere 'B'", "place": "village"}}, {"type": "node", "id": 9935145416, "lat": -0.1681374, "lon": 35.0347236, "tags": {"name": "Kodwar/Kamunda", "place": "village"}}, {"type": "node", "id": 9935220217, "lat": -0.1740168, "lon": 35.0660467, "tags": {"name": "Kaginya", "place": "village"}}, {"type": "node", "id": 9935220218, "lat": -0.1695142, "lon": 35.0885485, "tags": {"name": "Kombura", "place": "village"}}, {"type": "node", "id": 9935220219, "lat": -0.1791021, "lon": 35.1052934, "tags": {"name": "Kabongo 'B'", "place": "village"}}, {"type": "node", "id": 9935220220, "lat": -0.1680265, "lon": 35.1055047, "tags": {"name": "Rawana", "place": "village"}}, {"type": "node", "id": 9935220221, "lat": -0.1772727, "lon": 35.0953081, "tags": {"name": "Kabongo 'A'", "place": "village"}}, {"type": "node", "id": 9935220222, "lat": -0.161018, "lon": 35.1063973, "tags": {"name": "Kamagaga II", "place": "village"}}, {"type": "node", "id": 9935220223, "lat": -0.1517254, "lon": 35.1106482, "tags": {"name": "Kamagaga I", "place": "village"}}, {"type": "node", "id": 9935220224, "lat": -0.1570311, "lon": 35.1228996, "tags": {"name": "Halaka", "place": "village"}}, {"type": "node", "id": 9935220225, "lat": -0.1473183, "lon": 35.1211696, "tags": {"name": "Angoro Ponge", "place": "village"}}, {"type": "node", "id": 9935220226, "lat": -0.1837938, "lon": 35.1094133, "tags": {"name": "Kanyaruga", "place": "village"}}, {"type": "node", "id": 9935220227, "lat": -0.1690375, "lon": 35.1135583, "tags": {"name": "Sirima", "place": "village"}}, {"type": "node", "id": 9935256811, "lat": -0.0425935, "lon": 35.1755519, "tags": {"name": "Holo 'b'", "place": "village"}}, {"type": "node", "id": 9935256812, "lat": -0.0654728, "lon": 35.1634314, "tags": {"name": "Lwala 'b'", "place": "village"}}, {"type": "node", "id": 9935256813, "lat": -0.0621218, "lon": 35.1704247, "tags": {"name": "Lwala 'a'", "place": "village"}}, {"type": "node", "id": 9935256814, "lat": -0.0738262, "lon": 35.1594145, "tags": {"name": "Mashambani 'a'", "place": "village"}}, {"type": "node", "id": 9935256815, "lat": -0.048167, "lon": 35.1477391, "tags": {"name": "Valley 'c'", "place": "village"}}, {"type": "node", "id": 9935256816, "lat": -0.0559726, "lon": 35.1314279, "tags": {"name": "Chemelil Estate", "place": "village"}}, {"type": "node", "id": 9935278217, "lat": -0.0513528, "lon": 35.1563605, "tags": {"name": "Holo 'a'", "place": "village"}}, {"type": "node", "id": 9935278218, "lat": -0.0677096, "lon": 35.1412721, "tags": {"name": "Mbogo I,ii &iii", "place": "village"}}, {"type": "node", "id": 9935278223, "lat": -0.0694788, "lon": 35.0515809, "tags": {"name": "Nubia", "place": "neighbourhood"}}, {"type": "node", "id": 9935278224, "lat": -0.0974131, "lon": 35.1296104, "tags": {"name": "Magere", "place": "village"}}, {"type": "node", "id": 9935278225, "lat": -0.1012295, "lon": 35.1161289, "tags": {"name": "Amani", "place": "village"}}, {"type": "node", "id": 9935278230, "lat": -0.0848425, "lon": 35.1407982, "tags": {"name": "Jogoo Bora", "place": "village"}}, {"type": "node", "id": 9935278232, "lat": -0.1047912, "lon": 35.1409106, "tags": {"name": "Osengeteti 'a'", "place": "village"}}, {"type": "node", "id": 9935278233, "lat": -0.0882174, "lon": 35.1446377, "tags": {"name": "Mashambani 'b'", "place": "village"}}, {"type": "node", "id": 9935278240, "lat": -0.0876677, "lon": 35.1259843, "tags": {"name": "Round About", "place": "village"}}, {"type": "node", "id": 9935278241, "lat": -0.0809078, "lon": 35.1322371, "tags": {"name": "Magere", "place": "village"}}, {"type": "node", "id": 9935278246, "lat": -0.082589, "lon": 35.1390722, "tags": {"name": "Jogoo Bora", "place": "neighbourhood"}}, {"type": "node", "id": 9935278249, "lat": -0.1251607, "lon": 35.190741, "tags": {"name": "God-nyithindo", "place": "village"}}, {"type": "node", "id": 9935278251, "lat": -0.1483358, "lon": 35.1288658, "tags": {"name": "Oduwo Nyando 'b'", "place": "village"}}, {"type": "node", "id": 9935278252, "lat": -0.1448723, "lon": 35.1359338, "tags": {"name": "Oduwo Oyani", "place": "village"}}, {"type": "node", "id": 9935278253, "lat": -0.1516166, "lon": 35.1361302, "tags": {"name": "Oduwo Nyando 'a'", "place": "village"}}, {"type": "node", "id": 9935278254, "lat": -0.1351117, "lon": 35.1418012, "tags": {"name": "Makindu West", "place": "village"}}, {"type": "node", "id": 9935278255, "lat": -0.1386222, "lon": 35.1353965, "tags": {"name": "Oyano Centre", "place": "village"}}, {"type": "node", "id": 9935278256, "lat": -0.1309605, "lon": 35.150062, "tags": {"name": "Oduwo Bao", "place": "village"}}, {"type": "node", "id": 9935278257, "lat": -0.0830164, "lon": 35.0601257, "tags": {"name": "Adegra", "place": "village"}}, {"type": "node", "id": 9935278258, "lat": -0.0797433, "lon": 35.0455836, "tags": {"name": "Ramanda", "place": "village"}}, {"type": "node", "id": 9935278259, "lat": -0.0627854, "lon": 35.0397445, "tags": {"name": "Kabonyo Blk 10&11", "place": "village"}}, {"type": "node", "id": 9935278260, "lat": -0.0617949, "lon": 35.0119642, "tags": {"name": "Kabonyo Blk 3", "place": "village"}}, {"type": "node", "id": 9935278261, "lat": -0.0616725, "lon": 35.0083788, "tags": {"name": "Kabonyo Blk 2", "place": "village"}}, {"type": "node", "id": 9935278262, "lat": -0.0618555, "lon": 35.0173661, "tags": {"name": "Kabonyo Blk 4", "place": "village"}}, {"type": "node", "id": 9935278263, "lat": -0.0730071, "lon": 35.0081601, "tags": {"name": "Gari Bao", "place": "village"}}, {"type": "node", "id": 9935278264, "lat": -0.0624118, "lon": 35.0262852, "tags": {"name": "Kabonyo Blk 6", "place": "village"}}, {"type": "node", "id": 9935278265, "lat": -0.0600102, "lon": 35.0231008, "tags": {"name": "Kabonyo Blk 5", "place": "village"}}, {"type": "node", "id": 9935278266, "lat": -0.0619435, "lon": 35.0300064, "tags": {"name": "Kabonyo Blk 7", "place": "village"}}, {"type": "node", "id": 9935278267, "lat": -0.0606244, "lon": 35.034663, "tags": {"name": "Kabonyo Blk 8/9", "place": "village"}}, {"type": "node", "id": 9935278268, "lat": -0.0630483, "lon": 35.0448464, "tags": {"name": "Kabonyo Blk 12", "place": "village"}}, {"type": "node", "id": 9935278269, "lat": -0.0652697, "lon": 35.0472259, "tags": {"name": "Kabonyo Blk 13", "place": "village"}}, {"type": "node", "id": 9935278270, "lat": -0.0606069, "lon": 35.0579862, "tags": {"name": "Aora 'b'", "place": "village"}}, {"type": "node", "id": 9935278271, "lat": -0.063509, "lon": 35.0638776, "tags": {"name": "Aora 'c'", "place": "village"}}, {"type": "node", "id": 9935278272, "lat": -0.0263551, "lon": 35.1218208, "tags": {"name": "Ngeta / Kapsista", "place": "village"}}, {"type": "node", "id": 9935278273, "lat": -0.0421861, "lon": 35.1105921, "tags": {"name": "Ainopngtuny/samjut Harji", "place": "village"}}, {"type": "node", "id": 9935278274, "lat": -0.1202157, "lon": 35.1819201, "tags": {"name": "Kibwon", "place": "village"}}, {"type": "node", "id": 9935278275, "lat": -0.1154698, "lon": 35.1755689, "tags": {"name": "Ka-george", "place": "village"}}, {"type": "node", "id": 9935278276, "lat": -0.119483, "lon": 35.1593376, "tags": {"name": "Kasungu", "place": "village"}}, {"type": "node", "id": 9935278277, "lat": -0.126232, "lon": 35.1679749, "tags": {"name": "Kowawa", "place": "village"}}, {"type": "node", "id": 9935278278, "lat": -0.1049417, "lon": 35.2186233, "tags": {"name": "Oneno Tamu /donde", "place": "village"}}, {"type": "node", "id": 9935278279, "lat": -0.107839, "lon": 35.2116037, "tags": {"name": "Upper Makindu", "place": "village"}}, {"type": "node", "id": 9935278280, "lat": -0.0971498, "lon": 35.2122487, "tags": {"name": "Riwa", "place": "village"}}, {"type": "node", "id": 9935278281, "lat": -0.1138655, "lon": 35.1982996, "tags": {"name": "Lower Makinon", "place": "village"}}, {"type": "node", "id": 9935278282, "lat": -0.0863511, "lon": 35.2020935, "tags": {"name": "Alara", "place": "village"}}, {"type": "node", "id": 9935278283, "lat": -0.0940508, "lon": 35.2035313, "tags": {"name": "Tamu Township 'n'", "place": "village"}}, {"type": "node", "id": 9935278284, "lat": -0.1073115, "lon": 35.1952868, "tags": {"name": "Tamu Central", "place": "village"}}, {"type": "node", "id": 9935278285, "lat": -0.0983266, "lon": 35.2029589, "tags": {"name": "Tamu Township 's'", "place": "village"}}, {"type": "node", "id": 9935278286, "lat": -0.0852221, "lon": 35.2199629, "tags": {"name": "Oneno Nam South", "place": "village"}}, {"type": "node", "id": 9935278287, "lat": -0.0987948, "lon": 35.1945406, "tags": {"name": "Ranen 'a'", "place": "village"}}, {"type": "node", "id": 9935278288, "lat": -0.1145743, "lon": 35.1450972, "tags": {"name": "Oseng'eteti 'b'", "place": "village"}}, {"type": "node", "id": 9935278289, "lat": -0.1079764, "lon": 35.1687621, "tags": {"name": "Kowiti", "place": "village"}}, {"type": "node", "id": 9935278290, "lat": -0.1253993, "lon": 35.1420989, "tags": {"name": "Oduwo Makindu", "place": "village"}}, {"type": "node", "id": 9935278291, "lat": -0.1064118, "lon": 35.155331, "tags": {"name": "Mihongwe", "place": "village"}}, {"type": "node", "id": 9935278292, "lat": -0.0883254, "lon": 35.1591376, "tags": {"name": "Bad Osen'g", "place": "village"}}, {"type": "node", "id": 9935278293, "lat": -0.0966441, "lon": 35.1724515, "tags": {"name": "Kware", "place": "village"}}, {"type": "node", "id": 9935278294, "lat": -0.1024062, "lon": 35.1847993, "tags": {"name": "Ranen 'b'", "place": "village"}}, {"type": "node", "id": 9935278295, "lat": -0.0880386, "lon": 35.1899231, "tags": {"name": "Nyamaroka", "place": "village"}}, {"type": "node", "id": 9935278296, "lat": -0.0713221, "lon": 35.1904727, "tags": {"name": "Achego", "place": "village"}}, {"type": "node", "id": 9935278297, "lat": -0.0851624, "lon": 35.1716331, "tags": {"name": "Yago 'b'", "place": "village"}}, {"type": "node", "id": 9935278298, "lat": -0.0779688, "lon": 35.1819345, "tags": {"name": "Yago 'a'", "place": "village"}}, {"type": "node", "id": 9935278299, "lat": -0.0765227, "lon": 35.2027823, "tags": {"name": "Keyo", "place": "village"}}, {"type": "node", "id": 9935278300, "lat": -0.0693307, "lon": 35.2146883, "tags": {"name": "Rarieda", "place": "village"}}, {"type": "node", "id": 9935278301, "lat": -0.0643001, "lon": 35.2007215, "tags": {"name": "Mbugra", "place": "village"}}, {"type": "node", "id": 9935278302, "lat": -0.0525599, "lon": 35.1843708, "tags": {"name": "Gul", "place": "village"}}, {"type": "node", "id": 9935278303, "lat": -0.0590882, "lon": 35.2186764, "tags": {"name": "Odiyo Wange", "place": "village"}}, {"type": "node", "id": 9935278304, "lat": -0.0328696, "lon": 35.1706693, "tags": {"name": "Valley 'a'", "place": "village"}}, {"type": "node", "id": 9935278305, "lat": -0.038689, "lon": 35.1664103, "tags": {"name": "Valley 'b'", "place": "village"}}, {"type": "node", "id": 9935278306, "lat": -0.0300515, "lon": 35.1979083, "tags": {"name": "Rapogi 'b'", "place": "village"}}, {"type": "node", "id": 9935278307, "lat": -0.0356985, "lon": 35.1795761, "tags": {"name": "Kopere Centre", "place": "village"}}, {"type": "node", "id": 9935278308, "lat": -0.0368022, "lon": 35.1820884, "tags": {"name": "Sikwota", "place": "village"}}, {"type": "node", "id": 9935278309, "lat": -0.0385748, "lon": 35.1961456, "tags": {"name": "Rapogi 'a'", "place": "village"}}, {"type": "node", "id": 9935278310, "lat": -0.0411881, "lon": 35.216934, "tags": {"name": "Siany", "place": "village"}}, {"type": "node", "id": 9935278311, "lat": -0.0818476, "lon": 35.2114637, "tags": {"name": "Oneno Nam Lower", "place": "village"}}, {"type": "node", "id": 9935278312, "lat": -0.0769091, "lon": 35.2140753, "tags": {"name": "Oneno Nam Upper", "place": "village"}}, {"type": "node", "id": 9935278313, "lat": -0.0506418, "lon": 35.213826, "tags": {"name": "Centre Squater", "place": "village"}}, {"type": "node", "id": 9935298445, "lat": -0.1072784, "lon": 35.1123386, "tags": {"name": "Chemelil Market", "place": "village"}}, {"type": "node", "id": 9935298446, "lat": -0.1075686, "lon": 35.1093012, "tags": {"name": "Chemelil Market", "place": "village"}}, {"type": "node", "id": 9935298447, "lat": -0.105454, "lon": 35.1076679, "tags": {"name": "Chemelil Market", "place": "village"}}, {"type": "node", "id": 9935298448, "lat": -0.1045152, "lon": 35.1032499, "tags": {"name": "Chemelil Market", "place": "village"}}, {"type": "node", "id": 9935298449, "lat": -0.0969295, "lon": 35.0853855, "tags": {"name": "Kirungu", "place": "village"}}, {"type": "node", "id": 9935298450, "lat": -0.1131509, "lon": 35.1141949, "tags": {"name": "Katuk / Mikwa", "place": "village"}}, {"type": "node", "id": 9935298451, "lat": -0.1256661, "lon": 35.124204, "tags": {"name": "Wangiri / Olembu", "place": "village"}}, {"type": "node", "id": 9935298452, "lat": -0.1510732, "lon": 35.0568858, "tags": {"name": "Kamine / Kobongo", "place": "village"}}, {"type": "node", "id": 9935298453, "lat": -0.1503212, "lon": 35.0923956, "tags": {"name": "Nyatao", "place": "village"}}, {"type": "node", "id": 9935298454, "lat": -0.1573406, "lon": 35.0750555, "tags": {"name": "Town Centre", "place": "village"}}, {"type": "node", "id": 9935298455, "lat": -0.1461932, "lon": 35.07133, "tags": {"name": "Pawteng' 'a'", "place": "village"}}, {"type": "node", "id": 9935298456, "lat": -0.1564283, "lon": 35.0711584, "tags": {"name": "Town Centre", "place": "village"}}, {"type": "node", "id": 9935298457, "lat": -0.1514376, "lon": 35.0785258, "tags": {"name": "Pawteng' 'b'", "place": "village"}}, {"type": "node", "id": 9935298458, "lat": -0.1581479, "lon": 35.0717318, "tags": {"name": "Town Centre", "place": "village"}}, {"type": "node", "id": 9935298460, "lat": -0.1045799, "lon": 35.0116297, "tags": {"name": "Waware", "place": "village"}}, {"type": "node", "id": 9935298463, "lat": -0.1258897, "lon": 35.0051617, "tags": {"name": "Masaka 'b'", "place": "village"}}, {"type": "node", "id": 9935298468, "lat": -0.1360037, "lon": 35.008764, "tags": {"name": "Masaka 'a'", "place": "village"}}, {"type": "node", "id": 9935298469, "lat": -0.1515182, "lon": 35.0100561, "tags": {"name": "Ngere West", "place": "village"}}, {"type": "node", "id": 9935298471, "lat": -0.1339656, "lon": 35.0158425, "tags": {"name": "Kamchaga", "place": "village"}}, {"type": "node", "id": 9935298472, "lat": -0.148045, "lon": 35.027932, "tags": {"name": "Ngere East", "place": "village"}}, {"type": "node", "id": 9935298473, "lat": -0.1490012, "lon": 35.0164833, "tags": {"name": "Ngere Central", "place": "village"}}, {"type": "node", "id": 9935298474, "lat": -0.1411918, "lon": 35.0245256, "tags": {"name": "Angogo 'a'", "place": "village"}}, {"type": "node", "id": 9935298475, "lat": -0.1162166, "lon": 35.0072961, "tags": {"name": "Kamachaga", "place": "village"}}, {"type": "node", "id": 9935298476, "lat": -0.1147419, "lon": 35.022426, "tags": {"name": "Kobiero", "place": "village"}}, {"type": "node", "id": 9935298477, "lat": -0.1158734, "lon": 35.0174609, "tags": {"name": "Wayengu", "place": "village"}}, {"type": "node", "id": 9935298478, "lat": -0.1185521, "lon": 35.0124212, "tags": {"name": "Wahambo", "place": "village"}}, {"type": "node", "id": 9935298487, "lat": -0.1321574, "lon": 35.0259924, "tags": {"name": "Jage /angogo 'b'", "place": "village"}}, {"type": "node", "id": 9935298488, "lat": -0.1170634, "lon": 35.0391113, "tags": {"name": "Kolang", "place": "village"}}, {"type": "node", "id": 9935298489, "lat": -0.1125766, "lon": 35.0302819, "tags": {"name": "Gem", "place": "village"}}, {"type": "node", "id": 9935298490, "lat": -0.1240193, "lon": 35.0238817, "tags": {"name": "Orago / Widhi", "place": "village"}}, {"type": "node", "id": 9935298491, "lat": -0.1345102, "lon": 35.0390186, "tags": {"name": "Hambo", "place": "village"}}, {"type": "node", "id": 9935298492, "lat": -0.1389129, "lon": 35.0348777, "tags": {"name": "Kanyango", "place": "village"}}, {"type": "node", "id": 9935298493, "lat": -0.1422874, "lon": 35.0559386, "tags": {"name": "Ngula", "place": "village"}}, {"type": "node", "id": 9935298494, "lat": -0.1042973, "lon": 35.026595, "tags": {"name": "Matabore", "place": "village"}}, {"type": "node", "id": 9935298495, "lat": -0.1266375, "lon": 35.0509342, "tags": {"name": "Liga", "place": "village"}}, {"type": "node", "id": 9935298496, "lat": -0.1120478, "lon": 35.0509129, "tags": {"name": "Milenye", "place": "village"}}, {"type": "node", "id": 9935298497, "lat": -0.1315462, "lon": 35.0441133, "tags": {"name": "Kongwenyi 'b'", "place": "village"}}, {"type": "node", "id": 9935298498, "lat": -0.1011015, "lon": 35.0179563, "tags": {"name": "Basi /ogwodo", "place": "village"}}, {"type": "node", "id": 9935298499, "lat": -0.1191303, "lon": 35.0682267, "tags": {"name": "Osembe", "place": "village"}}, {"type": "node", "id": 9935298500, "lat": -0.1035374, "lon": 35.0746391, "tags": {"name": "Kamwala 'a'", "place": "village"}}, {"type": "node", "id": 9935298501, "lat": -0.1011922, "lon": 35.0658567, "tags": {"name": "Wasweta", "place": "village"}}, {"type": "node", "id": 9935298502, "lat": -0.1116377, "lon": 35.0630462, "tags": {"name": "Wangunga", "place": "village"}}, {"type": "node", "id": 9935298503, "lat": -0.1225397, "lon": 35.0784324, "tags": {"name": "Simbi", "place": "village"}}, {"type": "node", "id": 9935298504, "lat": -0.1327059, "lon": 35.0596436, "tags": {"name": "Rakwaro", "place": "village"}}, {"type": "node", "id": 9935298505, "lat": -0.1345791, "lon": 35.0709922, "tags": {"name": "Thurbie", "place": "village"}}, {"type": "node", "id": 9935298506, "lat": -0.1333081, "lon": 35.0769813, "tags": {"name": "Genye", "place": "village"}}, {"type": "node", "id": 9935298507, "lat": -0.1119575, "lon": 35.0809679, "tags": {"name": "Kanjuro", "place": "village"}}, {"type": "node", "id": 9935298508, "lat": -0.1397878, "lon": 35.0471552, "tags": {"name": "Kongwenyi 'a'", "place": "village"}}, {"type": "node", "id": 9935298509, "lat": -0.1446876, "lon": 35.0845556, "tags": {"name": "Pawteng' 'c'", "place": "village"}}, {"type": "node", "id": 9935298510, "lat": -0.12021, "lon": 35.1070678, "tags": {"name": "Onyange", "place": "village"}}, {"type": "node", "id": 9935298511, "lat": -0.11492, "lon": 35.0999737, "tags": {"name": "Kanyakwar", "place": "village"}}, {"type": "node", "id": 9935298512, "lat": -0.1245312, "lon": 35.094566, "tags": {"name": "Wangowe / Kakrima", "place": "village"}}, {"type": "node", "id": 9935298513, "lat": -0.1292057, "lon": 35.108835, "tags": {"name": "Angoro Ponge", "place": "village"}}, {"type": "node", "id": 9935298514, "lat": -0.1299785, "lon": 35.0955811, "tags": {"name": "Wangowe /karambo", "place": "village"}}, {"type": "node", "id": 9935298515, "lat": -0.1307476, "lon": 35.0872468, "tags": {"name": "Chialo", "place": "village"}}, {"type": "node", "id": 9935298516, "lat": -0.1360665, "lon": 35.1007112, "tags": {"name": "Kamia 'b'", "place": "village"}}, {"type": "node", "id": 9935299513, "lat": -0.093784, "lon": 35.0370642, "tags": {"name": "Minyange 'a'", "place": "village"}}, {"type": "node", "id": 9935299514, "lat": -0.0913129, "lon": 35.0474664, "tags": {"name": "Minyange 'b'", "place": "village"}}, {"type": "node", "id": 9935299515, "lat": -0.0897436, "lon": 35.0188075, "tags": {"name": "Kodindo", "place": "village"}}, {"type": "node", "id": 9935299516, "lat": -0.0767386, "lon": 35.013792, "tags": {"name": "Magadi / Pundo", "place": "village"}}, {"type": "node", "id": 9935302496, "lat": -0.1596386, "lon": 35.1915614, "tags": {"name": "Konyango (pap)", "place": "neighbourhood"}}, {"type": "node", "id": 9935302498, "lat": -0.1496686, "lon": 35.1927137, "tags": {"name": "Biafra (staff)", "place": "village"}}, {"type": "node", "id": 9935302499, "lat": -0.1579615, "lon": 35.189088, "tags": {"name": "Konyango (pap)", "place": "neighbourhood"}}, {"type": "node", "id": 9935302500, "lat": -0.1543089, "lon": 35.1910285, "tags": {"name": "Biafra (bridge)", "place": "neighbourhood"}}, {"type": "node", "id": 9935302501, "lat": -0.1440483, "lon": 35.2079261, "tags": {"name": "Shauri Moyo", "place": "village"}}, {"type": "node", "id": 9935302502, "lat": -0.1639536, "lon": 35.2158994, "tags": {"name": "Lower Mutwala", "place": "village"}}, {"type": "node", "id": 9935302505, "lat": -0.162737, "lon": 35.2020571, "tags": {"name": "Mtwala", "place": "neighbourhood"}}, {"type": "node", "id": 9935302507, "lat": -0.1417234, "lon": 35.1978659, "tags": {"name": "Tonde 'b'", "place": "village"}}, {"type": "node", "id": 9935302508, "lat": -0.149146, "lon": 35.1989544, "tags": {"name": "Bondeni", "place": "village"}}, {"type": "node", "id": 9935302509, "lat": -0.1580357, "lon": 35.1783321, "tags": {"name": "Midika/kasuna (konyango)", "place": "neighbourhood"}}, {"type": "node", "id": 9935302511, "lat": -0.1529523, "lon": 35.1756719, "tags": {"name": "Midika", "place": "village"}}, {"type": "node", "id": 9935302512, "lat": -0.154874, "lon": 35.1767305, "tags": {"name": "Midika (midika/ Kasuna)", "place": "neighbourhood"}}, {"type": "node", "id": 9935302513, "lat": -0.1468068, "lon": 35.158659, "tags": {"name": "Agro Kagera", "place": "village"}}, {"type": "node", "id": 9935302514, "lat": -0.1452238, "lon": 35.1839034, "tags": {"name": "Agrochemical", "place": "village"}}, {"type": "node", "id": 9935302515, "lat": -0.1353164, "lon": 35.1780445, "tags": {"name": "Ka-ndege/muram", "place": "village"}}, {"type": "node", "id": 9935303617, "lat": -0.0810488, "lon": 35.0203585, "tags": {"name": "Amilo 'a'", "place": "village"}}, {"type": "node", "id": 9935303618, "lat": -0.0750636, "lon": 35.0302404, "tags": {"name": "Kanyinyang'", "place": "village"}}, {"type": "node", "id": 9935303619, "lat": -0.0863371, "lon": 35.0106265, "tags": {"name": "Nyakoko", "place": "village"}}, {"type": "node", "id": 9935303620, "lat": -0.0953963, "lon": 35.055997, "tags": {"name": "Omanyi", "place": "village"}}, {"type": "node", "id": 9935303621, "lat": -0.087523, "lon": 35.0239932, "tags": {"name": "Amilo 'b' /gem Kabar", "place": "village"}}, {"type": "node", "id": 9935303622, "lat": -0.0866469, "lon": 35.0341138, "tags": {"name": "Miranga", "place": "village"}}, {"type": "node", "id": 9935303623, "lat": -0.0837196, "lon": 35.0306875, "tags": {"name": "Olasi", "place": "village"}}, {"type": "node", "id": 9935311517, "lat": -0.1405543, "lon": 35.0921281, "tags": {"name": "Koguta", "place": "village"}}, {"type": "node", "id": 9935311518, "lat": -0.1572235, "lon": 35.0999629, "tags": {"name": "Kafwaye", "place": "village"}}, {"type": "node", "id": 9935311519, "lat": -0.144769, "lon": 35.107287, "tags": {"name": "Koturo 'a'", "place": "village"}}, {"type": "node", "id": 9935311520, "lat": -0.1453371, "lon": 35.1014377, "tags": {"name": "Kamia 'a'", "place": "village"}}, {"type": "node", "id": 9935311521, "lat": -0.1416442, "lon": 35.1158389, "tags": {"name": "Kachieng'", "place": "village"}}, {"type": "node", "id": 9935311522, "lat": -0.1364252, "lon": 35.1072849, "tags": {"name": "Koturo 'b'", "place": "village"}}, {"type": "node", "id": 9935311523, "lat": -0.1247386, "lon": 35.1309012, "tags": {"name": "Oduwo Border", "place": "village"}}, {"type": "node", "id": 9935311524, "lat": -0.122437, "lon": 35.116612, "tags": {"name": "Okwach", "place": "village"}}, {"type": "node", "id": 9935311525, "lat": -0.1083597, "lon": 35.0942259, "tags": {"name": "Geyo", "place": "village"}}, {"type": "node", "id": 9935311526, "lat": -0.1098528, "lon": 35.0879105, "tags": {"name": "Kaliech", "place": "village"}}, {"type": "node", "id": 9935311527, "lat": -0.102691, "lon": 35.0797792, "tags": {"name": "Karao", "place": "village"}}, {"type": "node", "id": 9935311528, "lat": -0.0917517, "lon": 35.0753837, "tags": {"name": "Kamwala 'b'", "place": "village"}}, {"type": "node", "id": 9935311529, "lat": -0.0873037, "lon": 35.0686745, "tags": {"name": "Kanjuro", "place": "village"}}, {"type": "node", "id": 9935328918, "lat": -0.160499, "lon": 35.2063052, "tags": {"name": "Mtwala", "place": "village"}}, {"type": "node", "id": 9935328920, "lat": -0.1460393, "lon": 35.226946, "tags": {"name": "Odhidhe 'a'&'b'", "place": "village"}}, {"type": "node", "id": 9935328921, "lat": -0.1482591, "lon": 35.1785447, "tags": {"name": "Agrochemical", "place": "village"}}, {"type": "node", "id": 9935328922, "lat": -0.1545826, "lon": 35.177468, "tags": {"name": "Midika (konyango)", "place": "neighbourhood"}}, {"type": "node", "id": 9935328923, "lat": -0.1534363, "lon": 35.1795195, "tags": {"name": "Midika (konyango)", "place": "neighbourhood"}}, {"type": "node", "id": 9935328924, "lat": -0.152041, "lon": 35.1803814, "tags": {"name": "Biafra Chula/biafra Lam (staff)", "place": "neighbourhood"}}, {"type": "node", "id": 9935328925, "lat": -0.1509366, "lon": 35.1840686, "tags": {"name": "Kasuna/ Kagera(staff)", "place": "village"}}, {"type": "node", "id": 9935328931, "lat": -0.1578711, "lon": 35.1924608, "tags": {"name": "Konyango (bridge", "place": "neighbourhood"}}, {"type": "node", "id": 9935328933, "lat": -0.1547378, "lon": 35.1949557, "tags": {"name": "Kadoda", "place": "neighbourhood"}}, {"type": "node", "id": 9935328941, "lat": -0.1500238, "lon": 35.1973672, "tags": {"name": "Bondeni", "place": "village"}}, {"type": "node", "id": 9935328943, "lat": -0.1550263, "lon": 35.1993903, "tags": {"name": "Town Centre", "place": "suburb"}}, {"type": "node", "id": 9935328944, "lat": -0.1515047, "lon": 35.2034549, "tags": {"name": "Shauri Moyo", "place": "neighbourhood"}}, {"type": "node", "id": 9935328946, "lat": -0.1537331, "lon": 35.1972406, "tags": {"name": "Shauri Yako", "place": "neighbourhood"}}, {"type": "node", "id": 9935328953, "lat": -0.1337746, "lon": 35.2010435, "tags": {"name": "Tonde 'a'", "place": "village"}}, {"type": "node", "id": 9935328954, "lat": -0.1328952, "lon": 35.2109228, "tags": {"name": "Jaber 'a'", "place": "village"}}, {"type": "node", "id": 9935328955, "lat": -0.1256217, "lon": 35.2210495, "tags": {"name": "Mariwa 'b'", "place": "village"}}, {"type": "node", "id": 9935328956, "lat": -0.1190165, "lon": 35.2248922, "tags": {"name": "Mariwa 'a'", "place": "village"}}, {"type": "node", "id": 9935328957, "lat": -0.1127875, "lon": 35.2222252, "tags": {"name": "Kiptur", "place": "village"}}, {"type": "node", "id": 9935328958, "lat": -0.125675, "lon": 35.2083839, "tags": {"name": "Odiyo Wange/jabor", "place": "village"}}, {"type": "node", "id": 9935328959, "lat": -0.1315032, "lon": 35.1938641, "tags": {"name": "Bao", "place": "village"}}, {"type": "node", "id": 9935328960, "lat": -0.1683799, "lon": 35.2752, "tags": {"name": "Ogwedhi 'a'", "place": "village"}}, {"type": "node", "id": 9935328961, "lat": -0.1579498, "lon": 35.2796508, "tags": {"name": "Abwombo 'b'", "place": "village"}}, {"type": "node", "id": 9935328962, "lat": -0.1545369, "lon": 35.2743447, "tags": {"name": "Abwombo 'a'", "place": "village"}}, {"type": "node", "id": 9935328963, "lat": -0.1794597, "lon": 35.2640635, "tags": {"name": "Shauri Yako 'b'ii", "place": "village"}}, {"type": "node", "id": 9935328964, "lat": -0.1787146, "lon": 35.2659196, "tags": {"name": "Shauri Yako 'b'i", "place": "village"}}, {"type": "node", "id": 9935328965, "lat": -0.1790518, "lon": 35.2578902, "tags": {"name": "Ziwani", "place": "village"}}, {"type": "node", "id": 9935328966, "lat": -0.1811489, "lon": 35.2666391, "tags": {"name": "Shauri Yako 'a'", "place": "village"}}, {"type": "node", "id": 9935328967, "lat": -0.1799968, "lon": 35.2796763, "tags": {"name": "Mission 'b'", "place": "village"}}, {"type": "node", "id": 9935328968, "lat": -0.1720214, "lon": 35.2458894, "tags": {"name": "Owaga", "place": "village"}}, {"type": "node", "id": 9935328969, "lat": -0.1672598, "lon": 35.263312, "tags": {"name": "Lower-homaline", "place": "village"}}, {"type": "node", "id": 9935328970, "lat": -0.1749689, "lon": 35.2635532, "tags": {"name": "Upper Trading /railway", "place": "village"}}, {"type": "node", "id": 9935328971, "lat": -0.2258763, "lon": 35.2755588, "tags": {"name": "Kipchorian", "place": "village"}}, {"type": "node", "id": 9935328972, "lat": -0.2143107, "lon": 35.2633377, "tags": {"name": "Ochoria / Kahawa", "place": "village"}}, {"type": "node", "id": 9935328973, "lat": -0.154859, "lon": 35.2620129, "tags": {"name": "Upper-homaline", "place": "village"}}, {"type": "node", "id": 9935328974, "lat": -0.1558714, "lon": 35.2669428, "tags": {"name": "Ongalo", "place": "village"}}, {"type": "node", "id": 9935328975, "lat": -0.1734267, "lon": 35.2778554, "tags": {"name": "Ogwedhi 'b'", "place": "village"}}, {"type": "node", "id": 9935328976, "lat": -0.1353007, "lon": 35.2507597, "tags": {"name": "Ruke / Kaoga", "place": "village"}}, {"type": "node", "id": 9935328977, "lat": -0.1324371, "lon": 35.2293576, "tags": {"name": "Ruke 'a' &'b'", "place": "village"}}, {"type": "node", "id": 9935328978, "lat": -0.1559191, "lon": 35.2271973, "tags": {"name": "Mumbo", "place": "village"}}, {"type": "node", "id": 9935328979, "lat": -0.1590198, "lon": 35.2462323, "tags": {"name": "Lengetet", "place": "village"}}, {"type": "node", "id": 9935328980, "lat": -0.1746587, "lon": 35.2229899, "tags": {"name": "Central Mutwala", "place": "village"}}, {"type": "node", "id": 9935328981, "lat": -0.1686185, "lon": 35.2335888, "tags": {"name": "Munara", "place": "village"}}, {"type": "node", "id": 9935328982, "lat": -0.1880136, "lon": 35.2715052, "tags": {"name": "Mission 'a'", "place": "neighbourhood"}}, {"type": "node", "id": 9935328983, "lat": -0.2037922, "lon": 35.2777838, "tags": {"name": "Awendo /koselu/ White Gate", "place": "village"}}, {"type": "node", "id": 9935328984, "lat": -0.1945024, "lon": 35.2937605, "tags": {"name": "Awendo Kampi", "place": "village"}}, {"type": "node", "id": 9935328985, "lat": -0.1804889, "lon": 35.3153268, "tags": {"name": "Upper Sauset", "place": "village"}}, {"type": "node", "id": 9935328986, "lat": -0.1800031, "lon": 35.2937882, "tags": {"name": "Monalisa", "place": "village"}}, {"type": "node", "id": 9935328987, "lat": -0.1938847, "lon": 35.3221092, "tags": {"name": "Lower Sauset", "place": "neighbourhood"}}, {"type": "node", "id": 9935328988, "lat": -0.2181192, "lon": 35.2981884, "tags": {"name": "Kipsamwe", "place": "neighbourhood"}}, {"type": "node", "id": 9935328989, "lat": -0.1990204, "lon": 35.3113498, "tags": {"name": "Kandege", "place": "village"}}, {"type": "node", "id": 9935328990, "lat": -0.2045138, "lon": 35.3279994, "tags": {"name": "Kowil /kagai", "place": "village"}}, {"type": "node", "id": 9935328991, "lat": -0.2168798, "lon": 35.3206186, "tags": {"name": "Karose", "place": "village"}}, {"type": "node", "id": 9935328992, "lat": -0.2135197, "lon": 35.3087831, "tags": {"name": "Kambi-kidi", "place": "village"}}, {"type": "node", "id": 9935328993, "lat": -0.1797614, "lon": 35.2311262, "tags": {"name": "Upper Mutwala", "place": "village"}}, {"type": "node", "id": 9935328994, "lat": -0.1838729, "lon": 35.238004, "tags": {"name": "Murram / Kiziwani", "place": "village"}}, {"type": "node", "id": 9935328995, "lat": -0.1984246, "lon": 35.2621936, "tags": {"name": "Limitidi / Bible", "place": "neighbourhood"}}, {"type": "node", "id": 9935328996, "lat": -0.1911563, "lon": 35.2479758, "tags": {"name": "Nyando / Stima", "place": "village"}}, {"type": "node", "id": 9935328997, "lat": -0.2042754, "lon": 35.2519455, "tags": {"name": "Oyani", "place": "neighbourhood"}}, {"type": "node", "id": 9935328998, "lat": -0.2098252, "lon": 35.2882018, "tags": {"name": "Kipchui", "place": "neighbourhood"}}, {"type": "node", "id": 9935329001, "lat": -0.2322146, "lon": 35.2946294, "tags": {"name": "Nyalilibuch", "place": "village"}}, {"type": "node", "id": 9935329002, "lat": -0.2317865, "lon": 35.3236401, "tags": {"name": "Cheptuiyet", "place": "village"}}, {"type": "node", "id": 9964403745, "lat": -0.1922479, "lon": 35.0061185, "tags": {"name": "Kanyilum Upper", "place": "village"}}, {"type": "node", "id": 9964403759, "lat": -0.250582, "lon": 35.0122078, "tags": {"name": "Kinasia Lower", "place": "village"}}, {"type": "node", "id": 9964403760, "lat": -0.2378083, "lon": 35.0090386, "tags": {"name": "Yogo 'a'", "place": "village"}}, {"type": "node", "id": 9964403761, "lat": -0.2300072, "lon": 35.0205643, "tags": {"name": "Yogo 'b'", "place": "village"}}, {"type": "node", "id": 9964403762, "lat": -0.2270915, "lon": 35.0071533, "tags": {"name": "Yogo", "place": "village"}}, {"type": "node", "id": 9964403766, "lat": -0.2505535, "lon": 35.0274547, "tags": {"name": "Kinasia Upper", "place": "village"}}, {"type": "node", "id": 9964403767, "lat": -0.2631657, "lon": 35.0045648, "tags": {"name": "Nyarombe Upper", "place": "village"}}, {"type": "node", "id": 9964403775, "lat": -0.2845552, "lon": 35.0348258, "tags": {"name": "Ombing'o 'a'", "place": "village"}}, {"type": "node", "id": 9964403776, "lat": -0.2747694, "lon": 35.0331333, "tags": {"name": "Sare Upper", "place": "village"}}, {"type": "node", "id": 9964403777, "lat": -0.2662617, "lon": 35.0459097, "tags": {"name": "Olasi 'a'", "place": "village"}}, {"type": "node", "id": 9964403778, "lat": -0.269485, "lon": 35.0200067, "tags": {"name": "Sare Lower", "place": "village"}}, {"type": "node", "id": 9964403779, "lat": -0.2837156, "lon": 35.0459427, "tags": {"name": "Ombing'o 'c'", "place": "village"}}, {"type": "node", "id": 9964403780, "lat": -0.2314211, "lon": 35.0386907, "tags": {"name": "Kandege", "place": "village"}}, {"type": "node", "id": 9964403781, "lat": -0.2495216, "lon": 35.047348, "tags": {"name": "Olasi 'b'", "place": "village"}}, {"type": "node", "id": 9964403782, "lat": -0.2215853, "lon": 35.0325303, "tags": {"name": "Holo Lower", "place": "village"}}, {"type": "node", "id": 9964403783, "lat": -0.2206589, "lon": 35.0486853, "tags": {"name": "Holo Upper", "place": "village"}}, {"type": "node", "id": 9964403784, "lat": -0.2110413, "lon": 35.0200376, "tags": {"name": "Onera", "place": "village"}}, {"type": "node", "id": 9964403785, "lat": -0.1992304, "lon": 35.0176357, "tags": {"name": "Waradho", "place": "village"}}, {"type": "node", "id": 10651322618, "lat": -0.0713341, "lon": 35.0502906, "tags": {"name": "Kibigori", "place": "town", "wikidata": "Q35483210", "wikipedia": "en:Kibigori"}}, {"type": "node", "id": 10687219157, "lat": -0.0991024, "lon": 35.023052, "tags": {"name": "Muhoroni", "place": "subcounty"}}, {"type": "node", "id": 10864224384, "lat": -0.3159565, "lon": 35.0069707, "tags": {"name": "STORE PAMBA", "place": "village"}}, {"type": "node", "id": 10866950431, "lat": -0.0974536, "lon": 35.0084465, "tags": {"name": "MASOGO", "place": "village"}}, {"type": "node", "id": 10914241168, "lat": 0.0251789, "lon": 35.0282402, "tags": {"name": "Ndurio", "place": "village"}}]}