{"version": 0.6, "generator": "Overpass API 0.7.62.1 084b4234", "osm3s": {"timestamp_osm_base": "2024-09-30T19:38:01Z", "copyright": "The data included in this document is from www.openstreetmap.org. The data is made available under ODbL."}, "elements": [{"type": "node", "id": 1138799310, "lat": 9.693053, "lon": 44.3546691, "tags": {"name": "Dirgau", "place": "village"}}, {"type": "node", "id": 1138799347, "lat": 9.7276806, "lon": 44.4059237, "tags": {"name": "Nand", "place": "village"}}, {"type": "node", "id": 1404221610, "lat": 9.893127, "lon": 44.183041, "tags": {"name": "Beeyo Baxday", "pcode": "NC-3810-C16-001", "place": "village", "source": "GTZ - 2002"}}, {"type": "node", "id": 1404222149, "lat": 9.72742, "lon": 44.40575, "tags": {"alt_name": "Geedka Dheenta", "name": "Dheenta", "pcode": "NC-3810-G20-001", "place": "village", "source": "UNDP - 2006, GTZ - 2002"}}, {"type": "node", "id": 1404222842, "lat": 9.85442, "lon": 44.35583, "tags": {"alt_name": "Alaalacadka", "name": "Alaala-Cadka", "pcode": "NC-3810-D19-001", "place": "village", "source": "UNDP - 2006, GTZ - 2002, UNDP - 1997"}}, {"type": "node", "id": 1404222893, "lat": 9.88029, "lon": 44.41702, "tags": {"alt_name": "Dhebi Hagoog", "name": "Dhabi-Hagoog", "pcode": "NC-3810-C21-001", "place": "village", "source": "UNDP - 2006, GTZ - 2002"}}, {"type": "node", "id": 1404223035, "lat": 9.966667, "lon": 44.200055, "tags": {"alt_name": "Llinta Bari", "name": "Illinta Bari", "pcode": "NC-3810-A16-001", "place": "village", "source": "UNDP - 2006, GTZ - 2002, UNDP - 1997"}}, {"type": "node", "id": 1404223413, "lat": 9.72726, "lon": 44.2841, "tags": {"name": "Rablay", "pcode": "NC-3810-G18-001", "place": "village", "source": "UNDP - 2006"}}, {"type": "node", "id": 1404223482, "lat": 9.85938, "lon": 44.442749, "tags": {"name": "Gulaanle", "pcode": "NC-3810-D21-001", "place": "village", "source": "UNDP - 1997"}}, {"type": "node", "id": 1404223918, "lat": 9.9290108, "lon": 44.2791936, "tags": {"alt_name": "Boo'Lay", "name": "Booclay", "pcode": "NC-3810-B18-001", "place": "village", "source": "UNDP - 2006, GTZ - 2002, UNDP - 1997"}}, {"type": "node", "id": 1404224280, "lat": 9.99562, "lon": 44.19294, "tags": {"name": "Daradawanle", "pcode": "NC-3810-A16-002", "place": "village", "source": "UNDP - 1997"}}, {"type": "node", "id": 1404225487, "lat": 9.70158, "lon": 44.308971, "tags": {"name": "Sobaad", "pcode": "NC-3810-H18-003", "place": "village", "source": "UNDP - 1997"}}, {"type": "node", "id": 1404225508, "lat": 9.670326, "lon": 44.08689, "tags": {"name": "Gubato", "pcode": "NC-3810-H13-001", "place": "village", "source": "GTZ - 2002"}}, {"type": "node", "id": 1404225685, "lat": 9.66861, "lon": 44.08556, "tags": {"name": "Farah Baladi", "pcode": "NC-3810-H13-003", "place": "village", "source": "UNDP - 1997"}}, {"type": "node", "id": 1404225791, "lat": 9.7745227, "lon": 44.4505546, "tags": {"name": "Laas Geel", "pcode": "NC-3810-F21-001", "place": "village", "source": "UNDP - 2006"}}, {"type": "node", "id": 1404226157, "lat": 9.67382, "lon": 44.29023, "tags": {"name": "Biyadhanane", "pcode": "NC-3810-H18-002", "place": "hamlet", "source": "UNDP - 1997"}}, {"type": "node", "id": 1404226179, "lat": 9.692492, "lon": 44.353268, "tags": {"name": "Carro Baydhay", "pcode": "NC-3810-H19-001", "place": "village", "source": "GTZ - 2002"}}, {"type": "node", "id": 1404226602, "lat": 9.72905, "lon": 44.43621, "tags": {"name": "Dhatiso", "pcode": "NC-3810-G21-002", "place": "hamlet", "source": "UNDP - 2006"}}, {"type": "node", "id": 1404227356, "lat": 9.810857, "lon": 44.275066, "tags": {"alt_name": "Xunbaweyne", "name": "Xumba Weyne", "pcode": "NC-3810-E18-001", "place": "village", "source": "UNDP - 2006, GTZ - 2002, UNDP - 1997"}}, {"type": "node", "id": 1404227424, "lat": 9.719863, "lon": 44.224505, "tags": {"alt_name": "Dararweyne", "name": "Darar Weyne", "pcode": "NC-3810-G16-001", "place": "village", "source": "UNDP - 2006, GTZ - 2002, UNDP - 1997"}}, {"type": "node", "id": 1404227850, "lat": 9.731289, "lon": 44.4231526, "tags": {"name": "Karasharka", "pcode": "NC-3810-G21-001", "place": "village", "source": "UNDP - 2006"}}, {"type": "node", "id": 1404229588, "lat": 9.766502, "lon": 44.281955, "tags": {"alt_name": "Jalelo", "name": "Jaleelo", "pcode": "NC-3810-F18-001", "place": "village", "source": "UNDP - 2006, GTZ - 2002, UNDP - 1997"}}, {"type": "node", "id": 1404229924, "lat": 9.65614, "lon": 44.25253, "tags": {"name": "White Sand Village", "pcode": "NC-3810-J17-001", "place": "village", "source": "UNDP - 2006"}}, {"type": "node", "id": 1404230127, "lat": 9.96741, "lon": 44.198219, "tags": {"name": "Illinta Bacaado", "pcode": "NC-3810-A16-003", "place": "village", "source": "UNDP - 1997"}}, {"type": "node", "id": 1404230431, "lat": 9.983895, "lon": 44.124355, "tags": {"alt_name": "Ilinta Dhexe", "name": "Illinta Dhexe", "pcode": "NC-3810-A14-001", "place": "village", "source": "UNDP - 2006, GTZ - 2002, UNDP - 1997"}}, {"type": "node", "id": 1404230523, "lat": 9.815075, "lon": 44.09608, "tags": {"alt_name": "Balayga Cas", "name": "Balliga Cas", "pcode": "NC-3810-E14-001", "place": "village", "source": "UNDP - 2006, GTZ - 2002, UNDP - 1997"}}, {"type": "node", "id": 1404230916, "lat": 9.63988, "lon": 44.07456, "tags": {"name": "Bacado", "pcode": "NC-3810-J13-001", "place": "village", "source": "UNDP - 2006, UNDP - 1997"}}, {"type": "node", "id": 1404231124, "lat": 9.92222, "lon": 44.152222, "tags": {"name": "Illinta Galbeed", "pcode": "NC-3810-B15-001", "place": "village", "source": "UNDP - 1997"}}, {"type": "node", "id": 1404231488, "lat": 9.8929, "lon": 44.09188, "tags": {"name": "Gaboobe", "pcode": "NC-3810-C14-002", "place": "village", "source": "UNDP - 2006"}}, {"type": "node", "id": 1404231496, "lat": 9.85453, "lon": 44.31214, "tags": {"name": "Daymo-Xun", "pcode": "NC-3810-D18-001", "place": "village", "source": "UNDP - 2006"}}, {"type": "node", "id": 1404232068, "lat": 9.883918, "lon": 44.124621, "tags": {"name": "Ilinta Dhexe", "pcode": "NC-3810-C14-001", "place": "village", "source": "GTZ - 2002"}}, {"type": "node", "id": 1404232829, "lat": 9.6930101, "lon": 44.3534378, "tags": {"name": "Diinqal", "pcode": "NC-3810-H19-002", "place": "village", "source": "UNDP - 2006"}}, {"type": "node", "id": 1404233454, "lat": 9.6911653, "lon": 44.3085323, "tags": {"alt_name": "Awbarkhadle", "name": "Aw Barkhadle", "pcode": "NC-3810-H18-001", "place": "village", "source": "UNDP - 2006, GTZ - 2002, UNDP - 1997"}}, {"type": "node", "id": 1404233536, "lat": 9.82222, "lon": 44.25222, "tags": {"name": "Qururuxley", "pcode": "NC-3810-E17-001", "place": "village", "source": "UNDP - 2006, GTZ - 2002, UNDP - 1997"}}, {"type": "node", "id": 7276255124, "lat": 9.9418175, "lon": 44.3458363, "tags": {"place": "isolated_dwelling"}}, {"type": "node", "id": 7276945326, "lat": 9.9385892, "lon": 44.3953052, "tags": {"place": "isolated_dwelling"}}, {"type": "node", "id": 7276945333, "lat": 9.9398856, "lon": 44.397887, "tags": {"place": "isolated_dwelling"}}, {"type": "node", "id": 7276945342, "lat": 9.9426258, "lon": 44.3953458, "tags": {"place": "isolated_dwelling"}}, {"type": "node", "id": 7276945368, "lat": 9.9501335, "lon": 44.3898779, "tags": {"place": "isolated_dwelling"}}, {"type": "node", "id": 7277053109, "lat": 9.9101293, "lon": 44.4073914, "tags": {"place": "isolated_dwelling"}}]}