{"version": 0.6, "generator": "Overpass API 0.7.62.1 084b4234", "osm3s": {"timestamp_osm_base": "2024-09-30T23:39:44Z", "copyright": "The data included in this document is from www.openstreetmap.org. The data is made available under ODbL."}, "elements": [{"type": "node", "id": 1150881010, "lat": 6.72806, "lon": 44.81944, "tags": {"is_in:country_code": "ET", "is_in:county": "Ethiopia", "name": "Nuri", "place": "locality", "source": "GeoDatabase"}}, {"type": "node", "id": 1150886843, "lat": 6.68917, "lon": 44.74972, "tags": {"is_in:country_code": "ET", "is_in:county": "Ethiopia", "name": "Hurali", "place": "locality", "source": "GeoDatabase"}}, {"type": "node", "id": 1150898991, "lat": 6.86583, "lon": 44.69111, "tags": {"is_in:country_code": "ET", "is_in:county": "Ethiopia", "name": "Giaffageh", "place": "locality", "source": "GeoDatabase"}}, {"type": "node", "id": 1150901515, "lat": 6.7909755, "lon": 44.9910742, "tags": {"is_in:country_code": "ET", "is_in:county": "Ethiopia", "name": "Yucub", "place": "village", "source": "GeoDatabase"}}, {"type": "node", "id": 1150921476, "lat": 6.68028, "lon": 44.67083, "tags": {"is_in:country_code": "ET", "is_in:county": "Ethiopia", "name": "Durre", "place": "locality", "source": "GeoDatabase"}}, {"type": "node", "id": 1150921885, "lat": 6.50139, "lon": 44.90528, "tags": {"is_in:country_code": "ET", "is_in:county": "Ethiopia", "name": "Uafdug", "place": "locality", "source": "GeoDatabase"}}, {"type": "node", "id": 1150922742, "lat": 6.7227028, "lon": 44.9837458, "tags": {"is_in:country_code": "ET", "is_in:county": "Ethiopia", "name": "El Iohb", "place": "locality", "source": "GeoDatabase"}}, {"type": "node", "id": 1150931934, "lat": 6.63861, "lon": 44.7, "tags": {"is_in:country_code": "ET", "is_in:county": "Ethiopia", "name": "Gheb", "place": "locality", "source": "GeoDatabase"}}, {"type": "node", "id": 1150934473, "lat": 6.75889, "lon": 44.78278, "tags": {"is_in:country_code": "ET", "is_in:county": "Ethiopia", "name": "Togaveyo", "place": "locality", "source": "GeoDatabase"}}, {"type": "node", "id": 1150937979, "lat": 6.8675, "lon": 45.03833, "tags": {"is_in:country_code": "ET", "is_in:county": "Ethiopia", "name": "Gerlogubay", "place": "village", "source": "GeoDatabase"}}, {"type": "node", "id": 1150963347, "lat": 6.6125, "lon": 44.79083, "tags": {"is_in:country_code": "ET", "is_in:county": "Ethiopia", "name": "Geb Dare", "place": "locality", "source": "GeoDatabase"}}, {"type": "node", "id": 1150966928, "lat": 6.86222, "lon": 44.86611, "tags": {"is_in:country_code": "ET", "is_in:county": "Ethiopia", "name": "Hahi", "place": "locality", "source": "GeoDatabase"}}, {"type": "node", "id": 1150973531, "lat": 6.54556, "lon": 44.87611, "tags": {"is_in:country_code": "ET", "is_in:county": "Ethiopia", "name": "Rebrebti Dubo", "place": "locality", "source": "GeoDatabase"}}, {"type": "node", "id": 1150977311, "lat": 6.77667, "lon": 44.84917, "tags": {"is_in:country_code": "ET", "is_in:county": "Ethiopia", "name": "Tagabain", "place": "locality", "source": "GeoDatabase"}}, {"type": "node", "id": 3129389961, "lat": 6.5431208, "lon": 44.9030857, "tags": {"place": "village"}}]}