{"version": 0.6, "generator": "Overpass API 0.7.62.1 084b4234", "osm3s": {"timestamp_osm_base": "2024-09-30T23:59:05Z", "copyright": "The data included in this document is from www.openstreetmap.org. The data is made available under ODbL."}, "elements": [{"type": "node", "id": 1150880736, "lat": 6.39472, "lon": 43.34972, "tags": {"is_in:country": "Ethiopia", "is_in:country_code": "ET", "name": "Durualeh", "place": "locality", "source": "GeoDatabase"}}, {"type": "node", "id": 1150883857, "lat": 6.195, "lon": 43.45722, "tags": {"is_in:country": "Ethiopia", "is_in:country_code": "ET", "name": "Ghebas", "place": "locality", "source": "GeoDatabase"}}, {"type": "node", "id": 1150892099, "lat": 6.51583, "lon": 43.51444, "tags": {"is_in:country": "Ethiopia", "is_in:country_code": "ET", "name": "Dagamadoba", "place": "locality", "source": "GeoDatabase"}}, {"type": "node", "id": 1150898621, "lat": 6.5091407, "lon": 43.4937138, "tags": {"name": "Denan", "place": "town", "source": "GeoDatabase", "wikidata": "Q368957"}}, {"type": "node", "id": 1150904031, "lat": 6.34417, "lon": 43.41583, "tags": {"is_in:country": "Ethiopia", "is_in:country_code": "ET", "name": "Turr", "place": "locality", "source": "GeoDatabase"}}, {"type": "node", "id": 1150933279, "lat": 6.2415505, "lon": 43.6022288, "tags": {"alt_name": "Borgianil", "country": "ET", "name": "Hadhawe", "place": "village", "source": "GeoDatabase"}}, {"type": "node", "id": 1150943247, "lat": 6.21944, "lon": 43.26361, "tags": {"is_in:country": "Ethiopia", "is_in:country_code": "ET", "name": "Gumbur Ottun", "place": "locality", "source": "GeoDatabase"}}, {"type": "node", "id": 1150944654, "lat": 6.28806, "lon": 43.46916, "tags": {"is_in:country": "Ethiopia", "is_in:country_code": "ET", "name": "Hididelli", "place": "locality", "source": "GeoDatabase"}}, {"type": "node", "id": 1150956756, "lat": 6.31778, "lon": 43.30222, "tags": {"is_in:country": "Ethiopia", "is_in:country_code": "ET", "name": "Gabro", "place": "locality", "source": "GeoDatabase"}}]}