{"version": 0.6, "generator": "Overpass API 0.7.62.1 084b4234", "osm3s": {"timestamp_osm_base": "2024-09-30T17:13:14Z", "copyright": "The data included in this document is from www.openstreetmap.org. The data is made available under ODbL."}, "elements": [{"type": "node", "id": 1404226065, "lat": -0.3027, "lon": 41.079399, "tags": {"name": "Cormale", "pcode": "SA-3704-H13-002", "place": "locality", "source": "UNDP - 1997"}}, {"type": "node", "id": 1404230210, "lat": -0.2319, "lon": 41.1194, "tags": {"name": "Dib Ul Chena", "pcode": "SA-3704-F14-001", "place": "locality", "source": "UNDP - 1997"}}, {"type": "node", "id": 2275588540, "lat": 0.1037641, "lon": 40.7846698, "tags": {"place": "village"}}, {"type": "node", "id": 10088769294, "lat": -0.1230215, "lon": 40.9978259, "tags": {"place": "hamlet"}}, {"type": "node", "id": 10089428604, "lat": -0.1205483, "lon": 40.9009813, "tags": {"place": "village"}}, {"type": "node", "id": 10089432119, "lat": -0.1225663, "lon": 40.984288, "tags": {"place": "isolated_dwelling"}}, {"type": "node", "id": 10091843057, "lat": 0.0065205, "lon": 40.9972832, "tags": {"place": "hamlet"}}]}