{"version": 0.6, "generator": "Overpass API 0.7.62.1 084b4234", "osm3s": {"timestamp_osm_base": "2024-09-30T21:28:45Z", "copyright": "The data included in this document is from www.openstreetmap.org. The data is made available under ODbL."}, "elements": [{"type": "node", "id": 1150881892, "lat": 11.36667, "lon": 41.35, "tags": {"is_in:country": "Ethiopia", "is_in:country_code": "ET", "name": "Gallifaghe", "place": "locality", "source": "GeoDatabase"}}, {"type": "node", "id": 1150885418, "lat": 11.51667, "lon": 41.25, "tags": {"is_in:country_code": "ET", "is_in:county": "Ethiopia", "name": "Merkele Terara", "place": "locality", "source": "GeoDatabase"}}, {"type": "node", "id": 1150886390, "lat": 11.31944, "lon": 41.53028, "tags": {"is_in:country": "Ethiopia", "is_in:country_code": "ET", "name": "Uie", "place": "locality", "source": "GeoDatabase"}}, {"type": "node", "id": 1150886606, "lat": 11.25, "lon": 41.23333, "tags": {"is_in:country": "Ethiopia", "is_in:country_code": "ET", "name": "Cacombili", "place": "locality", "source": "GeoDatabase"}}, {"type": "node", "id": 1150886859, "lat": 11.25833, "lon": 41.54361, "tags": {"is_in:country": "Ethiopia", "is_in:country_code": "ET", "name": "Dihilu", "place": "locality", "source": "GeoDatabase"}}, {"type": "node", "id": 1150886908, "lat": 11.41528, "lon": 41.44778, "tags": {"is_in:country": "Ethiopia", "is_in:country_code": "ET", "name": "Ye'Terara Ch'Af", "place": "locality", "source": "GeoDatabase"}}, {"type": "node", "id": 1150887136, "lat": 11.48333, "lon": 41.33333, "tags": {"is_in:country": "Ethiopia", "is_in:country_code": "ET", "name": "Gehar Meda", "place": "locality", "source": "GeoDatabase"}}, {"type": "node", "id": 1150890342, "lat": 11.28333, "lon": 41.5, "tags": {"is_in:country": "Ethiopia", "is_in:country_code": "ET", "name": "Buri Meda", "place": "locality", "source": "GeoDatabase"}}, {"type": "node", "id": 1150899163, "lat": 11.5, "lon": 41.5, "tags": {"is_in:country": "Ethiopia", "is_in:country_code": "ET", "name": "Awsa Awraja", "place": "locality", "source": "GeoDatabase"}}, {"type": "node", "id": 1150907899, "lat": 11.26667, "lon": 41.4, "tags": {"is_in:country": "Ethiopia", "is_in:country_code": "ET", "name": "Abroborifaghe", "place": "locality", "source": "GeoDatabase"}}, {"type": "node", "id": 1150910298, "lat": 11.4, "lon": 41.46667, "tags": {"is_in:country": "Ethiopia", "is_in:country_code": "ET", "name": "Umma Goma", "place": "locality", "source": "GeoDatabase"}}, {"type": "node", "id": 1150910924, "lat": 11.45944, "lon": 41.21916, "tags": {"is_in:country": "Ethiopia", "is_in:country_code": "ET", "name": "Megenta Yeterara Senselet", "place": "locality", "source": "GeoDatabase"}}, {"type": "node", "id": 1150915759, "lat": 11.23333, "lon": 41.31666, "tags": {"is_in:country": "Ethiopia", "is_in:country_code": "ET", "name": "Demera Meda", "place": "locality", "source": "GeoDatabase"}}, {"type": "node", "id": 1150919626, "lat": 11.38333, "lon": 41.36667, "tags": {"is_in:country": "Ethiopia", "is_in:country_code": "ET", "name": "Altura Culsu-Cuma", "place": "locality", "source": "GeoDatabase"}}, {"type": "node", "id": 1150921773, "lat": 11.50417, "lon": 41.50222, "tags": {"is_in:country_code": "ET", "is_in:county": "Ethiopia", "name": "Berga", "place": "locality", "source": "GeoDatabase"}}, {"type": "node", "id": 1150931961, "lat": 11.25, "lon": 41.45, "tags": {"is_in:country": "Ethiopia", "is_in:country_code": "ET", "name": "Furze", "place": "locality", "source": "GeoDatabase"}}, {"type": "node", "id": 1150936523, "lat": 11.35944, "lon": 41.42028, "tags": {"is_in:country": "Ethiopia", "is_in:country_code": "ET", "name": "Dereleka Shet'", "place": "locality", "source": "GeoDatabase"}}, {"type": "node", "id": 1150936548, "lat": 11.25, "lon": 41.53333, "tags": {"alt_name:ar": "\u0623\u0633\u0645\u0631\u0629 \u062a\u0631\u0631\u0627", "name": "Asmara Terara", "name:ar": "\u062c\u0628\u0644 \u0623\u0633\u0645\u0631\u0629", "place": "locality", "source": "GeoDatabase"}}, {"type": "node", "id": 1150936990, "lat": 11.54028, "lon": 41.2825, "tags": {"is_in:country_code": "ET", "is_in:county": "Ethiopia", "name": "Det Bahari Tekil", "place": "locality", "source": "GeoDatabase"}}, {"type": "node", "id": 1150943358, "lat": 11.43056, "lon": 41.35944, "tags": {"is_in:country": "Ethiopia", "is_in:country_code": "ET", "name": "Goma`Itu", "place": "locality", "source": "GeoDatabase"}}, {"type": "node", "id": 1150948715, "lat": 11.41667, "lon": 41.3, "tags": {"is_in:country": "Ethiopia", "is_in:country_code": "ET", "name": "Sangherra", "place": "locality", "source": "GeoDatabase"}}, {"type": "node", "id": 1150949546, "lat": 11.4475, "lon": 41.32722, "tags": {"is_in:country": "Ethiopia", "is_in:country_code": "ET", "name": "Gehar Shet'", "place": "locality", "source": "GeoDatabase"}}, {"type": "node", "id": 1150949587, "lat": 11.46583, "lon": 41.56722, "tags": {"is_in:country": "Ethiopia", "is_in:country_code": "ET", "name": "Haydamo Regreg", "place": "locality", "source": "GeoDatabase"}}, {"type": "node", "id": 1150963362, "lat": 11.45, "lon": 41.45, "tags": {"is_in:country": "Ethiopia", "is_in:country_code": "ET", "name": "Dale Yeterara Senselet", "place": "locality", "source": "GeoDatabase"}}, {"type": "node", "id": 1150963588, "lat": 11.37306, "lon": 41.47222, "tags": {"is_in:country": "Ethiopia", "is_in:country_code": "ET", "name": "Ad Gaherto", "place": "locality", "source": "GeoDatabase"}}, {"type": "node", "id": 1150972609, "lat": 11.31667, "lon": 41.48333, "tags": {"is_in:country": "Ethiopia", "is_in:country_code": "ET", "name": "Ahile Isate Gemora Yefelek'Ebet Bota", "place": "locality", "source": "GeoDatabase"}}, {"type": "node", "id": 1150975400, "lat": 11.4, "lon": 41.23333, "tags": {"is_in:country": "Ethiopia", "is_in:country_code": "ET", "name": "Aua", "place": "locality", "source": "GeoDatabase"}}, {"type": "node", "id": 1150980316, "lat": 11.43333, "lon": 41.4075, "tags": {"is_in:country": "Ethiopia", "is_in:country_code": "ET", "name": "Komami", "place": "locality", "source": "GeoDatabase"}}, {"type": "node", "id": 1150980346, "lat": 11.3675, "lon": 41.53944, "tags": {"is_in:country": "Ethiopia", "is_in:country_code": "ET", "name": "Sarikal Regreg", "place": "locality", "source": "GeoDatabase"}}, {"type": "node", "id": 4738667729, "lat": 11.5410113, "lon": 41.4480783, "tags": {"place": "village"}}]}