{"version": 0.6, "generator": "Overpass API 0.7.62.1 084b4234", "osm3s": {"timestamp_osm_base": "2024-09-30T20:33:43Z", "copyright": "The data included in this document is from www.openstreetmap.org. The data is made available under ODbL."}, "elements": [{"type": "node", "id": 1404224204, "lat": 5.85072, "lon": 46.9018, "tags": {"alt_name": "Gubet Fara", "name": "Gubad Farax", "pcode": "NB-3812-D09-001", "place": "village", "source": "UNDP - 2006, UNDP - 1997"}}, {"type": "node", "id": 1404225738, "lat": 5.822397, "lon": 47.057272, "tags": {"name": "Afwaax", "pcode": "NB-3812-E13-001", "place": "village", "source": "INGO - 2010", "verified": "no"}}, {"type": "node", "id": 1404225942, "lat": 5.89619, "lon": 46.83997, "tags": {"name": "Dhagax Dheer", "pcode": "NB-3812-C08-001", "place": "village", "source": "UNDP - 2006"}}, {"type": "node", "id": 1404227650, "lat": 5.8530399, "lon": 46.9639093, "tags": {"name": "Ardo", "pcode": "NB-3812-D11-001", "place": "village", "source": "INGO - 2010", "verified": "no"}}, {"type": "node", "id": 1404231631, "lat": 5.8958879, "lon": 46.9125547, "tags": {"alt_name": "Adakibir", "name": "Cada Kibir", "pcode": "NB-3812-C10-001", "place": "locality", "source": "UNDP - 2006"}}]}