{"version": 0.6, "generator": "Overpass API 0.7.62.1 084b4234", "osm3s": {"timestamp_osm_base": "2024-09-30T22:27:05Z", "copyright": "The data included in this document is from www.openstreetmap.org. The data is made available under ODbL."}, "elements": [{"type": "node", "id": 1150883003, "lat": 8.1, "lon": 40.96667, "tags": {"is_in:country": "Ethiopia", "is_in:country_code": "ET", "name": "Korjo", "place": "locality", "source": "GeoDatabase"}}, {"type": "node", "id": 1150885326, "lat": 8.05, "lon": 41.08333, "tags": {"is_in:country": "Ethiopia", "is_in:country_code": "ET", "name": "Burk'A Shet'", "place": "locality", "source": "GeoDatabase"}}, {"type": "node", "id": 1150888700, "lat": 7.8, "lon": 41.3, "tags": {"is_in:country": "Ethiopia", "is_in:country_code": "ET", "name": "Daron", "place": "locality", "source": "GeoDatabase"}}, {"type": "node", "id": 1150890400, "lat": 8.01667, "lon": 41.2, "tags": {"is_in:country": "Ethiopia", "is_in:country_code": "ET", "name": "Sacche", "place": "locality", "source": "GeoDatabase"}}, {"type": "node", "id": 1150894489, "lat": 7.78333, "lon": 41.06666, "tags": {"is_in:country": "Ethiopia", "is_in:country_code": "ET", "name": "Haro Gorontu", "place": "locality", "source": "GeoDatabase"}}, {"type": "node", "id": 1150905768, "lat": 7.76667, "lon": 40.95, "tags": {"is_in:country": "Ethiopia", "is_in:country_code": "ET", "name": "Dagatu", "place": "locality", "source": "GeoDatabase"}}, {"type": "node", "id": 1150916260, "lat": 7.93333, "lon": 41.06666, "tags": {"is_in:country": "Ethiopia", "is_in:country_code": "ET", "name": "Lege Hida", "place": "locality", "source": "GeoDatabase"}}, {"type": "node", "id": 1150919715, "lat": 8.03333, "lon": 41.23333, "tags": {"is_in:country": "Ethiopia", "is_in:country_code": "ET", "name": "Loko", "place": "locality", "source": "GeoDatabase"}}, {"type": "node", "id": 1150925485, "lat": 7.76667, "lon": 41.13333, "tags": {"is_in:country": "Ethiopia", "is_in:country_code": "ET", "name": "Dabuli", "place": "locality", "source": "GeoDatabase"}}, {"type": "node", "id": 1150925496, "lat": 7.98333, "lon": 40.95, "tags": {"is_in:country": "Ethiopia", "is_in:country_code": "ET", "name": "Shenan Shet'", "place": "locality", "source": "GeoDatabase"}}, {"type": "node", "id": 1150933865, "lat": 8.06667, "lon": 41.1, "tags": {"is_in:country": "Ethiopia", "is_in:country_code": "ET", "name": "Kutara", "place": "locality", "source": "GeoDatabase"}}, {"type": "node", "id": 1150937494, "lat": 8.1, "lon": 41.15, "tags": {"is_in:country": "Ethiopia", "is_in:country_code": "ET", "name": "Duncata", "place": "locality", "source": "GeoDatabase"}}, {"type": "node", "id": 1150958638, "lat": 7.93333, "lon": 41.08333, "tags": {"is_in:country": "Ethiopia", "is_in:country_code": "ET", "name": "Gubbisa", "place": "locality", "source": "GeoDatabase"}}, {"type": "node", "id": 1150961807, "lat": 8.06667, "lon": 41.3, "tags": {"is_in:country": "Ethiopia", "is_in:country_code": "ET", "name": "Manditu", "place": "locality", "source": "GeoDatabase"}}, {"type": "node", "id": 1150969856, "lat": 8.05, "lon": 40.96667, "tags": {"is_in:country": "Ethiopia", "is_in:country_code": "ET", "name": "Bilik'A Sefer", "place": "locality", "source": "GeoDatabase"}}, {"type": "node", "id": 1150972682, "lat": 8.0, "lon": 41.18333, "tags": {"is_in:country": "Ethiopia", "is_in:country_code": "ET", "name": "Oda Halelu", "place": "locality", "source": "GeoDatabase"}}, {"type": "node", "id": 1150976636, "lat": 8.13333, "lon": 41.11667, "tags": {"is_in:country": "Ethiopia", "is_in:country_code": "ET", "name": "Nege'Echo Shet'", "place": "locality", "source": "GeoDatabase"}}, {"type": "node", "id": 1150981471, "lat": 8.13333, "lon": 41.2, "tags": {"is_in:country": "Ethiopia", "is_in:country_code": "ET", "name": "Darbo Intalo", "place": "locality", "source": "GeoDatabase"}}, {"type": "node", "id": 3142017919, "lat": 7.8781811, "lon": 40.9893751, "tags": {"name": "Belitu", "place": "village"}}, {"type": "node", "id": 3143545168, "lat": 7.9812394, "lon": 41.1624032, "tags": {"place": "village"}}, {"type": "node", "id": 3143545430, "lat": 7.8755398, "lon": 41.1934739, "tags": {"place": "village"}}, {"type": "node", "id": 3143545569, "lat": 7.8514882, "lon": 41.2104362, "tags": {"place": "village"}}, {"type": "node", "id": 3143545659, "lat": 7.9480034, "lon": 41.2092345, "tags": {"place": "village"}}, {"type": "node", "id": 3143545847, "lat": 7.9615723, "lon": 41.1879383, "tags": {"place": "village"}}, {"type": "node", "id": 3143545856, "lat": 7.944635, "lon": 41.2212616, "tags": {"place": "village"}}, {"type": "node", "id": 3143545859, "lat": 7.9553882, "lon": 41.1908137, "tags": {"place": "village"}}, {"type": "node", "id": 3143545867, "lat": 7.99078, "lon": 41.182273, "tags": {"place": "village"}}, {"type": "node", "id": 3143546048, "lat": 7.9342635, "lon": 41.0744696, "tags": {"place": "village"}}, {"type": "node", "id": 3143546051, "lat": 7.9253698, "lon": 41.1626928, "tags": {"place": "town"}}, {"type": "node", "id": 3143546167, "lat": 7.9949347, "lon": 41.2037414, "tags": {"place": "village"}}, {"type": "node", "id": 3143546403, "lat": 8.0418073, "lon": 41.1972394, "tags": {"place": "village"}}]}