{"version": 0.6, "generator": "Overpass API 0.7.62.1 084b4234", "osm3s": {"timestamp_osm_base": "2024-09-30T20:38:52Z", "copyright": "The data included in this document is from www.openstreetmap.org. The data is made available under ODbL."}, "elements": [{"type": "node", "id": 1404221390, "lat": 3.9177867, "lon": 43.5779513, "tags": {"name": "Jebel", "pcode": "NA-3802-B02-001", "place": "hamlet", "source": "UNDP - 1997"}}, {"type": "node", "id": 1404221422, "lat": 3.68824, "lon": 43.33646, "tags": {"fixme": "abandoned?", "name": "Duuray", "pcode": "NA-3801-H30-001", "place": "locality", "source": "UNDP - 1997"}}, {"type": "node", "id": 1404221425, "lat": 3.72496, "lon": 43.28727, "tags": {"name": "Wajid", "pcode": "NA-3801-G29-001", "place": "locality", "source": "FSAU", "wikidata": "Q2064657"}}, {"type": "node", "id": 1404221716, "lat": 3.8952656, "lon": 43.4310789, "tags": {"alt_name": "Organton", "name": "Oor-Gaafin", "pcode": "NA-3801-C32-001", "place": "village", "source": "UNDP - 2006, UNDP - 1997, FSAU"}}, {"type": "node", "id": 1404222169, "lat": 4.01606, "lon": 43.35602, "tags": {"alt_name": "Towsiley", "name": "Towsiiley Hadame", "pcode": "NB-3813-Z30-001", "place": "village", "source": "UNDP - 2006, FSAU"}}, {"type": "node", "id": 1404222207, "lat": 4.0344, "lon": 43.30908, "tags": {"name": "Suban", "pcode": "NB-3813-Z29-002", "place": "hamlet", "source": "FSAU"}}, {"type": "node", "id": 1404222215, "lat": 3.84834, "lon": 43.29599, "tags": {"name": "Eeltuumad", "pcode": "NA-3801-D29-001", "place": "hamlet", "source": "FSAU"}}, {"type": "node", "id": 1404222380, "lat": 3.9035284, "lon": 43.5873555, "tags": {"alt_name": "Kulun Jareer", "name": "Kulunjerer", "pcode": "NA-3802-C02-001", "place": "village", "source": "UNDP - 2006, FSAU"}}, {"type": "node", "id": 1404222820, "lat": 4.0547871, "lon": 43.3541223, "tags": {"alt_name": "Carsham", "name": "Arshamo", "pcode": "NB-3813-Y30-002", "place": "village", "source": "UNDP - 2006, FSAU"}}, {"type": "node", "id": 1404223004, "lat": 4.09917, "lon": 43.26567, "tags": {"alt_name": "Wardhujiley", "name": "War Dhujiiley", "pcode": "NB-3813-X28-002", "place": "village", "source": "UNDP - 2006, FSAU"}}, {"type": "node", "id": 1404223277, "lat": 3.8435894, "lon": 43.324813, "tags": {"name": "Sofi Chirrey", "pcode": "NA-3801-D30-003", "place": "hamlet", "source": "FSAU"}}, {"type": "node", "id": 1404223623, "lat": 4.0369535, "lon": 43.2795024, "tags": {"name": "War Gaduudo", "pcode": "NB-3813-Z29-001", "place": "village", "source": "UNDP - 2006, FSAU"}}, {"type": "node", "id": 1404223861, "lat": 3.8310186, "lon": 43.3285571, "tags": {"alt_name": "Guure", "name": "Ceel-Gure", "pcode": "NA-3801-E30-001", "place": "village", "source": "UNDP - 2006, FSAU"}}, {"type": "node", "id": 1404224151, "lat": 3.6837195, "lon": 43.444946, "tags": {"name": "Riibey", "pcode": "NA-3801-H32-001", "place": "isolated_dwelling", "source": "UNDP - 2006"}}, {"type": "node", "id": 1404224464, "lat": 3.748, "lon": 43.5326, "tags": {"name": "Caracase", "pcode": "NA-3802-G01-001", "place": "village", "source": "UNDP - 1997"}}, {"type": "node", "id": 1404224481, "lat": 3.7025755, "lon": 43.3774722, "tags": {"name": "Roose", "pcode": "NA-3801-H31-002", "place": "village", "source": "UNDP - 2006"}}, {"type": "node", "id": 1404224633, "lat": 3.6829122, "lon": 43.3115148, "tags": {"fixme": "abandoned?", "name": "Towsiile", "pcode": "NA-3801-H29-002", "place": "locality", "source": "UNDP - 2006"}}, {"type": "node", "id": 1404225174, "lat": 4.08815, "lon": 43.33286, "tags": {"alt_name": "Difir", "name": "War-Dhifir", "pcode": "NB-3813-X30-001", "place": "village", "source": "UNDP - 2006, FSAU"}}, {"type": "node", "id": 1404225218, "lat": 3.6991827, "lon": 43.4474809, "tags": {"alt_name": "Ideeda Hoose", "name": "Ideed Hoosle", "pcode": "NA-3801-H32-002", "place": "village", "source": "UNDP - 2006, FSAU"}}, {"type": "node", "id": 1404226382, "lat": 4.07754, "lon": 43.34648, "tags": {"alt_name": "Bur Cadoy", "name": "Buur-Cadey", "pcode": "NB-3813-Y30-003", "place": "village", "source": "UNDP - 2006, UNDP - 1997, FSAU"}}, {"type": "node", "id": 1404227373, "lat": 3.8132835, "lon": 43.3101575, "tags": {"name": "Mad-Foodey", "pcode": "NA-3801-E29-001", "place": "village", "source": "UNDP - 2006, FSAU"}}, {"type": "node", "id": 1404228020, "lat": 3.78463, "lon": 43.3073073, "tags": {"name": "Kawo", "pcode": "NA-3801-F29-001", "place": "village", "source": "UNDP - 2006, FSAU"}}, {"type": "node", "id": 1404228068, "lat": 3.97815, "lon": 43.26761, "tags": {"name": "Aleemow", "pcode": "NA-3801-A28-001", "place": "village", "source": "UNDP - 2006, FSAU"}}, {"type": "node", "id": 1404229597, "lat": 3.7106135, "lon": 43.465813, "tags": {"name": "Ibrahim Kolow", "pcode": "NA-3801-G33-001", "place": "hamlet", "source": "UNDP - 2006"}}, {"type": "node", "id": 1404229626, "lat": 3.8225, "lon": 43.527599, "tags": {"name": "El Alul", "pcode": "NA-3802-E01-001", "place": "hamlet", "source": "UNDP - 1997"}}, {"type": "node", "id": 1404230064, "lat": 3.7042475, "lon": 43.4781907, "tags": {"name": "Dugsamey", "pcode": "NA-3801-H33-002", "place": "hamlet", "source": "UNDP - 1997"}}, {"type": "node", "id": 1404230124, "lat": 3.8009, "lon": 43.377899, "tags": {"name": "Horma", "pcode": "NA-3801-E31-001", "place": "village", "source": "UNDP - 1997"}}, {"type": "node", "id": 1404230317, "lat": 3.8293, "lon": 43.529301, "tags": {"name": "El Dontole", "pcode": "NA-3802-E01-002", "place": "hamlet", "source": "UNDP - 1997"}}, {"type": "node", "id": 1404230440, "lat": 4.06529, "lon": 43.3443, "tags": {"name": "War Bariyow", "pcode": "NB-3813-Y30-004", "place": "village", "source": "FSAU"}}, {"type": "node", "id": 1404230608, "lat": 3.79533, "lon": 43.368, "tags": {"alt_name": "Doonmogoyli", "name": "Don Mogille", "pcode": "NA-3801-E31-002", "place": "village", "source": "FSAU"}}, {"type": "node", "id": 1404230708, "lat": 3.8451, "lon": 43.323471, "tags": {"name": "Idannug", "pcode": "NA-3801-D30-001", "place": "hamlet", "source": "UNDP - 1997"}}, {"type": "node", "id": 1404230816, "lat": 4.04342, "lon": 43.34223, "tags": {"name": "Moosan", "pcode": "NB-3813-Y30-001", "place": "village", "source": "UNDP - 2006, FSAU"}}, {"type": "node", "id": 1404230980, "lat": 4.0729, "lon": 43.547001, "tags": {"name": "Urvein", "pcode": "NB-3814-Y02-001", "place": "village", "source": "UNDP - 1997"}}, {"type": "node", "id": 1404231209, "lat": 3.9955148, "lon": 43.3073549, "tags": {"alt_name": "War Lawi", "name": "War Lowi", "pcode": "NA-3801-A29-001", "place": "village", "source": "UNDP - 2006, FSAU"}}, {"type": "node", "id": 1404231482, "lat": 3.7074845, "lon": 43.2966631, "tags": {"name": "Meegaagle", "pcode": "NA-3801-H29-001", "place": "hamlet", "source": "UNDP - 2006"}}, {"type": "node", "id": 1404231841, "lat": 3.97782, "lon": 43.35565, "tags": {"name": "Shishibow", "pcode": "NA-3801-A30-001", "place": "hamlet", "source": "UNDP - 2006, FSAU"}}, {"type": "node", "id": 1404232715, "lat": 3.84602, "lon": 43.33238, "tags": {"name": "Jiiray", "pcode": "NA-3801-D30-002", "place": "hamlet", "source": "FSAU"}}, {"type": "node", "id": 8441241752, "lat": 3.7130999, "lon": 43.4463519, "tags": {"place": "hamlet"}}, {"type": "node", "id": 8446442448, "lat": 3.7264105, "lon": 43.2668316, "tags": {"place": "hamlet"}}, {"type": "node", "id": 8448836933, "lat": 3.6776479, "lon": 43.4089109, "tags": {"place": "isolated_dwelling"}}, {"type": "node", "id": 8448846588, "lat": 3.6820511, "lon": 43.4699151, "tags": {"place": "hamlet"}}, {"type": "node", "id": 8448846681, "lat": 3.6833948, "lon": 43.4425512, "tags": {"place": "isolated_dwelling"}}, {"type": "node", "id": 8448847073, "lat": 3.6914809, "lon": 43.4542108, "tags": {"place": "hamlet"}}, {"type": "node", "id": 8448847567, "lat": 3.7020643, "lon": 43.4804052, "tags": {"place": "hamlet"}}, {"type": "node", "id": 8448847767, "lat": 3.7122782, "lon": 43.4829453, "tags": {"place": "hamlet"}}, {"type": "node", "id": 8475674597, "lat": 3.6937132, "lon": 43.4015993, "tags": {"place": "hamlet"}}]}