{"version": 0.6, "generator": "Overpass API 0.7.62.1 084b4234", "osm3s": {"timestamp_osm_base": "2024-09-30T22:56:34Z", "copyright": "The data included in this document is from www.openstreetmap.org. The data is made available under ODbL."}, "elements": [{"type": "node", "id": 281214575, "lat": 9.0049643, "lon": 38.6874854, "tags": {"name": "\u12ae\u120d\u134c \u1240\u122b\u1292\u12ce", "name:en": "Kolfe Keranyo", "name:fr": "Kolfe Keranyo", "place": "suburb"}}, {"type": "node", "id": 304195660, "lat": 9.0519743, "lon": 38.5721716}, {"type": "node", "id": 304195666, "lat": 9.0507756, "lon": 38.5641125}, {"type": "node", "id": 622357226, "lat": 9.06591, "lon": 38.6934573, "tags": {"name": "\u12a0\u1235\u12ae \u12a0\u12ab\u1263\u1262", "name:en": "Asko Area", "name:fr": "Asko Area", "place": "neighbourhood"}}, {"type": "node", "id": 1150697755, "lat": 9.03333, "lon": 38.51667, "tags": {"is_in:country": "Ethiopia", "is_in:country_code": "ET", "name": "Mark'Os", "place": "locality", "source": "GeoDatabase"}}, {"type": "node", "id": 1150880850, "lat": 9.15, "lon": 38.4, "tags": {"is_in:country": "Ethiopia", "is_in:country_code": "ET", "name": "Meta", "place": "locality", "source": "GeoDatabase"}}, {"type": "node", "id": 1150880908, "lat": 9.25, "lon": 38.45, "tags": {"is_in:country": "Ethiopia", "is_in:country_code": "ET", "name": "Bilacha", "place": "locality", "source": "GeoDatabase"}}, {"type": "node", "id": 1150881174, "lat": 9.15, "lon": 38.5, "tags": {"is_in:country": "Ethiopia", "is_in:country_code": "ET", "name": "Mintile Shet'", "place": "locality", "source": "GeoDatabase"}}, {"type": "node", "id": 1150881291, "lat": 9.1, "lon": 38.35, "tags": {"is_in:country": "Ethiopia", "is_in:country_code": "ET", "name": "Bora", "place": "locality", "source": "GeoDatabase"}}, {"type": "node", "id": 1150882237, "lat": 9.28333, "lon": 38.65, "tags": {"is_in:country": "Ethiopia", "is_in:country_code": "ET", "name": "Dilo", "place": "locality", "source": "GeoDatabase"}}, {"type": "node", "id": 1150882400, "lat": 9.15, "lon": 38.28333, "tags": {"is_in:country": "Ethiopia", "is_in:country_code": "ET", "name": "Arirtu", "place": "locality", "source": "GeoDatabase"}}, {"type": "node", "id": 1150882639, "lat": 9.25, "lon": 38.3, "tags": {"is_in:country": "Ethiopia", "is_in:country_code": "ET", "name": "Borte", "place": "locality", "source": "GeoDatabase"}}, {"type": "node", "id": 1150882778, "lat": 9.05, "lon": 38.4, "tags": {"is_in:country": "Ethiopia", "is_in:country_code": "ET", "name": "K'Erbo", "place": "locality", "source": "GeoDatabase"}}, {"type": "node", "id": 1150882818, "lat": 9.08333, "lon": 38.41667, "tags": {"is_in:country": "Ethiopia", "is_in:country_code": "ET", "name": "Metaleya Abo Bete Kristiyan", "place": "locality", "source": "GeoDatabase"}}, {"type": "node", "id": 1150882820, "lat": 9.01667, "lon": 38.28333, "tags": {"is_in:country": "Ethiopia", "is_in:country_code": "ET", "name": "Tulu Ferda", "place": "locality", "source": "GeoDatabase"}}, {"type": "node", "id": 1150882866, "lat": 9.2, "lon": 38.36667, "tags": {"is_in:country": "Ethiopia", "is_in:country_code": "ET", "name": "Dalecha", "place": "locality", "source": "GeoDatabase"}}, {"type": "node", "id": 1150883008, "lat": 9.08333, "lon": 38.46667, "tags": {"is_in:country": "Ethiopia", "is_in:country_code": "ET", "name": "Lek'A", "place": "locality", "source": "GeoDatabase"}}, {"type": "node", "id": 1150883013, "lat": 9.15, "lon": 38.53333, "tags": {"is_in:country": "Ethiopia", "is_in:country_code": "ET", "name": "Haro Boki", "place": "locality", "source": "GeoDatabase"}}, {"type": "node", "id": 1150883449, "lat": 9.3, "lon": 38.41667, "tags": {"is_in:country": "Ethiopia", "is_in:country_code": "ET", "name": "Inch'Ini Giyorgis Bete Kristiyan", "place": "locality", "source": "GeoDatabase"}}, {"type": "node", "id": 1150886036, "lat": 9.13333, "lon": 38.43333, "tags": {"is_in:country": "Ethiopia", "is_in:country_code": "ET", "name": "Aruse", "place": "locality", "source": "GeoDatabase"}}, {"type": "node", "id": 1150886383, "lat": 9.15, "lon": 38.31666, "tags": {"is_in:country": "Ethiopia", "is_in:country_code": "ET", "name": "Gorba", "place": "locality", "source": "GeoDatabase"}}, {"type": "node", "id": 1150886407, "lat": 9.05, "lon": 38.45, "tags": {"is_in:country": "Ethiopia", "is_in:country_code": "ET", "name": "Ch'Iri", "place": "locality", "source": "GeoDatabase"}}, {"type": "node", "id": 1150886541, "lat": 9.21667, "lon": 38.3, "tags": {"is_in:country": "Ethiopia", "is_in:country_code": "ET", "name": "Deka Boro", "place": "locality", "source": "GeoDatabase"}}, {"type": "node", "id": 1150886605, "lat": 9.28333, "lon": 38.48333, "tags": {"is_in:country": "Ethiopia", "is_in:country_code": "ET", "name": "K'Orke", "place": "locality", "source": "GeoDatabase"}}, {"type": "node", "id": 1150886853, "lat": 9.2035871, "lon": 38.4330211, "tags": {"is_in:country": "Ethiopia", "is_in:country_code": "ET", "name": "Kito", "place": "locality", "source": "GeoDatabase"}}, {"type": "node", "id": 1150886862, "lat": 9.0543794, "lon": 38.5707238, "tags": {"name": "\u1218\u1293\u1308\u123b / Menagesha", "name:am": "\u1218\u1293\u1308\u123b", "name:en": "Menagesha", "name:fr": "Menagesha", "note": "Translation source: http://translator.abyssinica.com/.", "place": "town", "source": "GeoDatabase"}}, {"type": "node", "id": 1150887510, "lat": 9.3, "lon": 38.56666, "tags": {"is_in:country": "Ethiopia", "is_in:country_code": "ET", "name": "Senyo Gebeya", "place": "locality", "source": "GeoDatabase"}}, {"type": "node", "id": 1150888214, "lat": 9.08333, "lon": 38.5, "tags": {"is_in:country": "Ethiopia", "is_in:country_code": "ET", "name": "Shokile", "place": "locality", "source": "GeoDatabase"}}, {"type": "node", "id": 1150889023, "lat": 8.98333, "lon": 38.33333, "tags": {"is_in:country": "Ethiopia", "is_in:country_code": "ET", "name": "Werofe Shet'", "place": "locality", "source": "GeoDatabase"}}, {"type": "node", "id": 1150889253, "lat": 9.21667, "lon": 38.38333, "tags": {"is_in:country": "Ethiopia", "is_in:country_code": "ET", "name": "Debisa", "place": "locality", "source": "GeoDatabase"}}, {"type": "node", "id": 1150889283, "lat": 9.06667, "lon": 38.51667, "tags": {"is_in:country": "Ethiopia", "is_in:country_code": "ET", "name": "Wirene Shet'", "place": "locality", "source": "GeoDatabase"}}, {"type": "node", "id": 1150890024, "lat": 9.0652471, "lon": 38.4936764, "tags": {"name": "\u1206\u1208\u1273 / Holeta", "name:am": "\u1206\u1208\u1273", "name:en": "Holeta Genet", "name:fr": "Holeta Genet", "name:sv": "Genet (ort i Etiopien)", "name:zu": "Holeta Genet", "place": "town", "source": "GPS, photo.", "wikidata": "Q3139315", "wikimedia_commons": "Category:Holeta", "wikipedia": "en:Holeta Genet"}}, {"type": "node", "id": 1150890108, "lat": 8.98333, "lon": 38.51667, "tags": {"is_in:country": "Ethiopia", "is_in:country_code": "ET", "name": "Geresu", "place": "locality", "source": "GeoDatabase"}}, {"type": "node", "id": 1150890594, "lat": 9.06667, "lon": 38.43333, "tags": {"is_in:country": "Ethiopia", "is_in:country_code": "ET", "name": "Dok'Etu", "place": "locality", "source": "GeoDatabase"}}, {"type": "node", "id": 1150891352, "lat": 9.28333, "lon": 38.61667, "tags": {"is_in:country": "Ethiopia", "is_in:country_code": "ET", "name": "Beni", "place": "locality", "source": "GeoDatabase"}}, {"type": "node", "id": 1150893567, "lat": 9.13333, "lon": 38.38333, "tags": {"is_in:country": "Ethiopia", "is_in:country_code": "ET", "name": "Lemen Ch'Ito", "place": "locality", "source": "GeoDatabase"}}, {"type": "node", "id": 1150895066, "lat": 8.98333, "lon": 38.53333, "tags": {"is_in:country": "Ethiopia", "is_in:country_code": "ET", "name": "Suba Bota", "place": "locality", "source": "GeoDatabase"}}, {"type": "node", "id": 1150896822, "lat": 9.0, "lon": 38.48333, "tags": {"is_in:country": "Ethiopia", "is_in:country_code": "ET", "name": "Bobe", "place": "locality", "source": "GeoDatabase"}}, {"type": "node", "id": 1150896887, "lat": 9.03333, "lon": 38.31666, "tags": {"is_in:country": "Ethiopia", "is_in:country_code": "ET", "name": "Agarsa Lafu", "place": "locality", "source": "GeoDatabase"}}, {"type": "node", "id": 1150897279, "lat": 9.2, "lon": 38.56666, "tags": {"is_in:country": "Ethiopia", "is_in:country_code": "ET", "name": "Kura", "place": "locality", "source": "GeoDatabase"}}, {"type": "node", "id": 1150897728, "lat": 9.05114, "lon": 38.66922, "tags": {"is_in:country": "Ethiopia", "is_in:country_code": "ET", "name": "Guje Shet'", "place": "locality", "source": "GeoDatabase"}}, {"type": "node", "id": 1150898351, "lat": 9.01667, "lon": 38.36667, "tags": {"is_in:country": "Ethiopia", "is_in:country_code": "ET", "name": "Berga", "place": "locality", "source": "GeoDatabase"}}, {"type": "node", "id": 1150898464, "lat": 9.15, "lon": 38.35, "tags": {"is_in:country": "Ethiopia", "is_in:country_code": "ET", "name": "Koshbe", "place": "locality", "source": "GeoDatabase"}}, {"type": "node", "id": 1150898651, "lat": 9.16667, "lon": 38.4, "tags": {"is_in:country": "Ethiopia", "is_in:country_code": "ET", "name": "T'Ofo", "place": "locality", "source": "GeoDatabase"}}, {"type": "node", "id": 1150898688, "lat": 9.28333, "lon": 38.43333, "tags": {"is_in:country": "Ethiopia", "is_in:country_code": "ET", "name": "K'Orke Maryam Bete Kristiyan", "place": "locality", "source": "GeoDatabase"}}, {"type": "node", "id": 1150899138, "lat": 9.0547781, "lon": 38.6460045, "tags": {"fixme": "Name done with Abyssinica Translator. Name correct? Name with apostrophe?", "name": "\u1308\u1348\u122d\u1233 \u1238\u1275", "name:en": "Gefersa Shet'", "name:fr": "Gefersa Shet'", "place": "suburb", "source": "GeoDatabase"}}, {"type": "node", "id": 1150899142, "lat": 9.26667, "lon": 38.35, "tags": {"is_in:country": "Ethiopia", "is_in:country_code": "ET", "name": "At'Ila", "place": "locality", "source": "GeoDatabase"}}, {"type": "node", "id": 1150899176, "lat": 9.1, "lon": 38.36667, "tags": {"is_in:country": "Ethiopia", "is_in:country_code": "ET", "name": "T'Erek'O", "place": "locality", "source": "GeoDatabase"}}, {"type": "node", "id": 1150899201, "lat": 9.2, "lon": 38.68333, "tags": {"is_in:country": "Ethiopia", "is_in:country_code": "ET", "name": "Dado", "place": "locality", "source": "GeoDatabase"}}, {"type": "node", "id": 1150900881, "lat": 9.28333, "lon": 38.66667, "tags": {"is_in:country": "Ethiopia", "is_in:country_code": "ET", "name": "Sewa", "place": "locality", "source": "GeoDatabase"}}, {"type": "node", "id": 1150901359, "lat": 9.18333, "lon": 38.41667, "tags": {"is_in:country": "Ethiopia", "is_in:country_code": "ET", "name": "Fach'O Shet'", "place": "locality", "source": "GeoDatabase"}}, {"type": "node", "id": 1150901373, "lat": 9.16667, "lon": 38.28333, "tags": {"is_in:country": "Ethiopia", "is_in:country_code": "ET", "name": "Arirtu Terara", "place": "locality", "source": "GeoDatabase"}}, {"type": "node", "id": 1150902031, "lat": 9.21667, "lon": 38.31666, "tags": {"is_in:country": "Ethiopia", "is_in:country_code": "ET", "name": "Harbu", "place": "locality", "source": "GeoDatabase"}}, {"type": "node", "id": 1150902123, "lat": 9.03333, "lon": 38.41667, "tags": {"is_in:country": "Ethiopia", "is_in:country_code": "ET", "name": "Korme", "place": "locality", "source": "GeoDatabase"}}, {"type": "node", "id": 1150902157, "lat": 9.1, "lon": 38.41667, "tags": {"is_in:country": "Ethiopia", "is_in:country_code": "ET", "name": "Metala", "place": "locality", "source": "GeoDatabase"}}, {"type": "node", "id": 1150902163, "lat": 9.01667, "lon": 38.3, "tags": {"is_in:country": "Ethiopia", "is_in:country_code": "ET", "name": "Ihud Gebeya", "place": "locality", "source": "GeoDatabase"}}, {"type": "node", "id": 1150902178, "lat": 9.1, "lon": 38.38333, "tags": {"is_in:country": "Ethiopia", "is_in:country_code": "ET", "name": "`Arb Gebeya", "place": "locality", "source": "GeoDatabase"}}, {"type": "node", "id": 1150902279, "lat": 9.1, "lon": 38.48333, "tags": {"is_in:country": "Ethiopia", "is_in:country_code": "ET", "name": "Yubo Shet'", "place": "locality", "source": "GeoDatabase"}}, {"type": "node", "id": 1150902287, "lat": 9.08333, "lon": 38.56666, "tags": {"is_in:country": "Ethiopia", "is_in:country_code": "ET", "name": "Botero", "place": "locality", "source": "GeoDatabase"}}, {"type": "node", "id": 1150902417, "lat": 9.1, "lon": 38.45, "tags": {"is_in:country": "Ethiopia", "is_in:country_code": "ET", "name": "Yubo", "place": "locality", "source": "GeoDatabase"}}, {"type": "node", "id": 1150903357, "lat": 9.11667, "lon": 38.36667, "tags": {"is_in:country": "Ethiopia", "is_in:country_code": "ET", "name": "Genjo", "place": "locality", "source": "GeoDatabase"}}, {"type": "node", "id": 1150906844, "lat": 9.3, "lon": 38.58333, "tags": {"is_in:country": "Ethiopia", "is_in:country_code": "ET", "name": "Tiro", "place": "locality", "source": "GeoDatabase"}}, {"type": "node", "id": 1150906874, "lat": 9.03333, "lon": 38.61667, "tags": {"is_in:country": "Ethiopia", "is_in:country_code": "ET", "name": "Guje", "place": "locality", "source": "GeoDatabase"}}, {"type": "node", "id": 1150906890, "lat": 9.16667, "lon": 38.46667, "tags": {"is_in:country": "Ethiopia", "is_in:country_code": "ET", "name": "Telech'O Gebri'El Bete Kristiyan", "place": "locality", "source": "GeoDatabase"}}, {"type": "node", "id": 1150907430, "lat": 9.11667, "lon": 38.65, "tags": {"is_in:country": "Ethiopia", "is_in:country_code": "ET", "name": "Bedi", "place": "locality", "source": "GeoDatabase"}}, {"type": "node", "id": 1150909656, "lat": 9.08333, "lon": 38.45, "tags": {"is_in:country": "Ethiopia", "is_in:country_code": "ET", "name": "Dobi", "place": "locality", "source": "GeoDatabase"}}, {"type": "node", "id": 1150909679, "lat": 9.26667, "lon": 38.61667, "tags": {"is_in:country": "Ethiopia", "is_in:country_code": "ET", "name": "Welu Shet'", "place": "locality", "source": "GeoDatabase"}}, {"type": "node", "id": 1150910262, "lat": 9.2, "lon": 38.31666, "tags": {"is_in:country": "Ethiopia", "is_in:country_code": "ET", "name": "Tuk'A", "place": "locality", "source": "GeoDatabase"}}, {"type": "node", "id": 1150910771, "lat": 9.23333, "lon": 38.3, "tags": {"is_in:country": "Ethiopia", "is_in:country_code": "ET", "name": "Adi Feyiso", "place": "locality", "source": "GeoDatabase"}}, {"type": "node", "id": 1150911142, "lat": 9.2, "lon": 38.35, "tags": {"is_in:country": "Ethiopia", "is_in:country_code": "ET", "name": "Doketu", "place": "locality", "source": "GeoDatabase"}}, {"type": "node", "id": 1150911365, "lat": 9.16667, "lon": 38.45, "tags": {"is_in:country": "Ethiopia", "is_in:country_code": "ET", "name": "Golole", "place": "locality", "source": "GeoDatabase"}}, {"type": "node", "id": 1150912150, "lat": 9.3, "lon": 38.45, "tags": {"is_in:country": "Ethiopia", "is_in:country_code": "ET", "name": "Aricha", "place": "locality", "source": "GeoDatabase"}}, {"type": "node", "id": 1150916777, "lat": 9.01667, "lon": 38.33333, "tags": {"is_in:country": "Ethiopia", "is_in:country_code": "ET", "name": "Kimoye", "place": "locality", "source": "GeoDatabase"}}, {"type": "node", "id": 1150917176, "lat": 9.1, "lon": 38.3, "tags": {"is_in:country": "Ethiopia", "is_in:country_code": "ET", "name": "Meccia Kareccia", "place": "locality", "source": "GeoDatabase"}}, {"type": "node", "id": 1150917339, "lat": 9.23333, "lon": 38.4, "tags": {"is_in:country": "Ethiopia", "is_in:country_code": "ET", "name": "Buyema", "place": "locality", "source": "GeoDatabase"}}, {"type": "node", "id": 1150917657, "lat": 9.06667, "lon": 38.53333, "tags": {"is_in:country": "Ethiopia", "is_in:country_code": "ET", "name": "Welmera Finish Misiyon", "place": "locality", "source": "GeoDatabase"}}, {"type": "node", "id": 1150918589, "lat": 9.25, "lon": 38.43333, "tags": {"is_in:country": "Ethiopia", "is_in:country_code": "ET", "name": "Itaya", "place": "locality", "source": "GeoDatabase"}}, {"type": "node", "id": 1150918916, "lat": 9.1, "lon": 38.43333, "tags": {"is_in:country": "Ethiopia", "is_in:country_code": "ET", "name": "K'Erbo", "place": "locality", "source": "GeoDatabase"}}, {"type": "node", "id": 1150919970, "lat": 9.16667, "lon": 38.3, "tags": {"is_in:country": "Ethiopia", "is_in:country_code": "ET", "name": "K'Una", "place": "locality", "source": "GeoDatabase"}}, {"type": "node", "id": 1150920134, "lat": 9.01667, "lon": 38.45, "tags": {"is_in:country": "Ethiopia", "is_in:country_code": "ET", "name": "Wajitu", "place": "locality", "source": "GeoDatabase"}}, {"type": "node", "id": 1150920466, "lat": 9.21667, "lon": 38.28333, "tags": {"is_in:country": "Ethiopia", "is_in:country_code": "ET", "name": "K'Oricha", "place": "locality", "source": "GeoDatabase"}}, {"type": "node", "id": 1150920958, "lat": 9.3, "lon": 38.63333, "tags": {"is_in:country": "Ethiopia", "is_in:country_code": "ET", "name": "K'Emele", "place": "locality", "source": "GeoDatabase"}}, {"type": "node", "id": 1150921488, "lat": 9.13333, "lon": 38.45, "tags": {"is_in:country": "Ethiopia", "is_in:country_code": "ET", "name": "K'Eresa Boru", "place": "locality", "source": "GeoDatabase"}}, {"type": "node", "id": 1150921507, "lat": 8.98333, "lon": 38.58333, "tags": {"is_in:country": "Ethiopia", "is_in:country_code": "ET", "name": "Damota Terara", "place": "locality", "source": "GeoDatabase"}}, {"type": "node", "id": 1150923702, "lat": 9.23333, "lon": 38.58333, "tags": {"is_in:country": "Ethiopia", "is_in:country_code": "ET", "name": "Silo", "place": "locality", "source": "GeoDatabase"}}, {"type": "node", "id": 1150924204, "lat": 9.08333, "lon": 38.4, "tags": {"is_in:country": "Ethiopia", "is_in:country_code": "ET", "name": "Metaleya", "place": "locality", "source": "GeoDatabase"}}, {"type": "node", "id": 1150926161, "lat": 9.3, "lon": 38.35, "tags": {"is_in:country": "Ethiopia", "is_in:country_code": "ET", "name": "Sok'I", "place": "locality", "source": "GeoDatabase"}}, {"type": "node", "id": 1150926378, "lat": 8.98333, "lon": 38.55, "tags": {"is_in:country": "Ethiopia", "is_in:country_code": "ET", "name": "Baburoto", "place": "locality", "source": "GeoDatabase"}}, {"type": "node", "id": 1150927640, "lat": 9.0, "lon": 38.5, "tags": {"is_in:country": "Ethiopia", "is_in:country_code": "ET", "name": "Bobi Shet'", "place": "locality", "source": "GeoDatabase"}}, {"type": "node", "id": 1150928184, "lat": 9.16667, "lon": 38.6, "tags": {"is_in:country": "Ethiopia", "is_in:country_code": "ET", "name": "Ileti", "place": "locality", "source": "GeoDatabase"}}, {"type": "node", "id": 1150928648, "lat": 9.03333, "lon": 38.43333, "tags": {"is_in:country": "Ethiopia", "is_in:country_code": "ET", "name": "Gich'I", "place": "locality", "source": "GeoDatabase"}}, {"type": "node", "id": 1150931002, "lat": 9.05, "lon": 38.35, "tags": {"is_in:country": "Ethiopia", "is_in:country_code": "ET", "name": "Gunjo", "place": "locality", "source": "GeoDatabase"}}, {"type": "node", "id": 1150931341, "lat": 9.28333, "lon": 38.63333, "tags": {"is_in:country": "Ethiopia", "is_in:country_code": "ET", "name": "Ilala Mulo", "place": "locality", "source": "GeoDatabase"}}, {"type": "node", "id": 1150932059, "lat": 9.18333, "lon": 38.35, "tags": {"is_in:country": "Ethiopia", "is_in:country_code": "ET", "name": "Beretu", "place": "locality", "source": "GeoDatabase"}}, {"type": "node", "id": 1150933596, "lat": 9.15, "lon": 38.41667, "tags": {"is_in:country": "Ethiopia", "is_in:country_code": "ET", "name": "Kukurfa", "place": "locality", "source": "GeoDatabase"}}, {"type": "node", "id": 1150934956, "lat": 9.28333, "lon": 38.33333, "tags": {"is_in:country": "Ethiopia", "is_in:country_code": "ET", "name": "Adem", "place": "locality", "source": "GeoDatabase"}}, {"type": "node", "id": 1150935132, "lat": 9.13333, "lon": 38.35, "tags": {"is_in:country": "Ethiopia", "is_in:country_code": "ET", "name": "Denk'Era", "place": "locality", "source": "GeoDatabase"}}, {"type": "node", "id": 1150935239, "lat": 9.3, "lon": 38.55, "tags": {"is_in:country": "Ethiopia", "is_in:country_code": "ET", "name": "Kene", "place": "locality", "source": "GeoDatabase"}}, {"type": "node", "id": 1150937254, "lat": 9.3, "lon": 38.66667, "tags": {"is_in:country": "Ethiopia", "is_in:country_code": "ET", "name": "Fik'O", "place": "locality", "source": "GeoDatabase"}}, {"type": "node", "id": 1150939376, "lat": 9.11667, "lon": 38.33333, "tags": {"is_in:country": "Ethiopia", "is_in:country_code": "ET", "name": "K'Ere Shet'", "place": "locality", "source": "GeoDatabase"}}, {"type": "node", "id": 1150939524, "lat": 9.13333, "lon": 38.41667, "tags": {"is_in:country": "Ethiopia", "is_in:country_code": "ET", "name": "Hine", "place": "locality", "source": "GeoDatabase"}}, {"type": "node", "id": 1150939537, "lat": 9.0, "lon": 38.31666, "tags": {"is_in:country": "Ethiopia", "is_in:country_code": "ET", "name": "Bekenisa", "place": "locality", "source": "GeoDatabase"}}, {"type": "node", "id": 1150940226, "lat": 9.13333, "lon": 38.48333, "tags": {"is_in:country": "Ethiopia", "is_in:country_code": "ET", "name": "Berecha", "place": "locality", "source": "GeoDatabase"}}, {"type": "node", "id": 1150940263, "lat": 9.08333, "lon": 38.58333, "tags": {"is_in:country": "Ethiopia", "is_in:country_code": "ET", "name": "Gara Managasha", "place": "locality", "source": "GeoDatabase"}}, {"type": "node", "id": 1150941203, "lat": 9.18333, "lon": 38.55, "tags": {"is_in:country": "Ethiopia", "is_in:country_code": "ET", "name": "Bosok'E", "place": "locality", "source": "GeoDatabase"}}, {"type": "node", "id": 1150943352, "lat": 9.3, "lon": 38.61667, "tags": {"is_in:country": "Ethiopia", "is_in:country_code": "ET", "name": "Beni", "place": "locality", "source": "GeoDatabase"}}, {"type": "node", "id": 1150943822, "lat": 9.16667, "lon": 38.33333, "tags": {"is_in:country": "Ethiopia", "is_in:country_code": "ET", "name": "Bara", "place": "locality", "source": "GeoDatabase"}}, {"type": "node", "id": 1150945797, "lat": 9.3, "lon": 38.6, "tags": {"is_in:country": "Ethiopia", "is_in:country_code": "ET", "name": "Mut'E", "place": "locality", "source": "GeoDatabase"}}, {"type": "node", "id": 1150945813, "lat": 9.01667, "lon": 38.63333, "tags": {"is_in:country": "Ethiopia", "is_in:country_code": "ET", "name": "Weregenu", "place": "locality", "source": "GeoDatabase"}}, {"type": "node", "id": 1150945942, "lat": 9.18333, "lon": 38.48333, "tags": {"is_in:country": "Ethiopia", "is_in:country_code": "ET", "name": "Korbu", "place": "locality", "source": "GeoDatabase"}}, {"type": "node", "id": 1150946178, "lat": 9.13333, "lon": 38.33333, "tags": {"is_in:country": "Ethiopia", "is_in:country_code": "ET", "name": "Gorba", "place": "locality", "source": "GeoDatabase"}}, {"type": "node", "id": 1150946395, "lat": 9.16667, "lon": 38.66667, "tags": {"is_in:country": "Ethiopia", "is_in:country_code": "ET", "name": "Gerbi", "place": "locality", "source": "GeoDatabase"}}, {"type": "node", "id": 1150949710, "lat": 9.23333, "lon": 38.68333, "tags": {"is_in:country": "Ethiopia", "is_in:country_code": "ET", "name": "Gulele", "place": "locality", "source": "GeoDatabase"}}, {"type": "node", "id": 1150950381, "lat": 9.08333, "lon": 38.31666, "tags": {"is_in:country": "Ethiopia", "is_in:country_code": "ET", "name": "Liti", "place": "locality", "source": "GeoDatabase"}}, {"type": "node", "id": 1150951911, "lat": 9.25, "lon": 38.28333, "tags": {"is_in:country": "Ethiopia", "is_in:country_code": "ET", "name": "Baka Terara", "place": "locality", "source": "GeoDatabase"}}, {"type": "node", "id": 1150952894, "lat": 9.03333, "lon": 38.4, "tags": {"is_in:country": "Ethiopia", "is_in:country_code": "ET", "name": "Alek'A Kidane Weld Timhirt Bet", "place": "locality", "source": "GeoDatabase"}}, {"type": "node", "id": 1150953057, "lat": 9.0, "lon": 38.28333, "tags": {"is_in:country": "Ethiopia", "is_in:country_code": "ET", "name": "K'Ela", "place": "locality", "source": "GeoDatabase"}}, {"type": "node", "id": 1150953158, "lat": 9.18333, "lon": 38.36667, "tags": {"is_in:country": "Ethiopia", "is_in:country_code": "ET", "name": "Gosu", "place": "locality", "source": "GeoDatabase"}}, {"type": "node", "id": 1150953572, "lat": 9.18333, "lon": 38.45, "tags": {"is_in:country": "Ethiopia", "is_in:country_code": "ET", "name": "Dufa", "place": "locality", "source": "GeoDatabase"}}, {"type": "node", "id": 1150953610, "lat": 9.08333, "lon": 38.51667, "tags": {"is_in:country": "Ethiopia", "is_in:country_code": "ET", "name": "Welmera", "place": "locality", "source": "GeoDatabase"}}, {"type": "node", "id": 1150955688, "lat": 9.28333, "lon": 38.4, "tags": {"is_in:country": "Ethiopia", "is_in:country_code": "ET", "name": "Bente", "place": "locality", "source": "GeoDatabase"}}, {"type": "node", "id": 1150959322, "lat": 9.25, "lon": 38.4, "tags": {"is_in:country": "Ethiopia", "is_in:country_code": "ET", "name": "Agemsa", "place": "locality", "source": "GeoDatabase"}}, {"type": "node", "id": 1150959489, "lat": 9.05, "lon": 38.55, "tags": {"is_in:country": "Ethiopia", "is_in:country_code": "ET", "name": "Jermen Kristiyan Timhirt Bet", "place": "locality", "source": "GeoDatabase"}}, {"type": "node", "id": 1150961161, "lat": 9.11667, "lon": 38.43333, "tags": {"is_in:country": "Ethiopia", "is_in:country_code": "ET", "name": "Agota", "place": "locality", "source": "GeoDatabase"}}, {"type": "node", "id": 1150962099, "lat": 9.2, "lon": 38.3, "tags": {"is_in:country": "Ethiopia", "is_in:country_code": "ET", "name": "Tuk'A", "place": "locality", "source": "GeoDatabase"}}, {"type": "node", "id": 1150962233, "lat": 9.03333, "lon": 38.45, "tags": {"is_in:country": "Ethiopia", "is_in:country_code": "ET", "name": "Cusae", "place": "locality", "source": "GeoDatabase"}}, {"type": "node", "id": 1150962687, "lat": 9.23333, "lon": 38.28333, "tags": {"is_in:country": "Ethiopia", "is_in:country_code": "ET", "name": "Deladu", "place": "locality", "source": "GeoDatabase"}}, {"type": "node", "id": 1150962838, "lat": 9.21667, "lon": 38.5, "tags": {"is_in:country": "Ethiopia", "is_in:country_code": "ET", "name": "Monte Foveita", "place": "locality", "source": "GeoDatabase"}}, {"type": "node", "id": 1150963354, "lat": 9.16667, "lon": 38.43333, "tags": {"is_in:country": "Ethiopia", "is_in:country_code": "ET", "name": "Diko", "place": "locality", "source": "GeoDatabase"}}, {"type": "node", "id": 1150964101, "lat": 9.3, "lon": 38.43333, "tags": {"is_in:country": "Ethiopia", "is_in:country_code": "ET", "name": "Bidu", "place": "locality", "source": "GeoDatabase"}}, {"type": "node", "id": 1150966769, "lat": 9.2, "lon": 38.4, "tags": {"is_in:country": "Ethiopia", "is_in:country_code": "ET", "name": "Danisa", "place": "locality", "source": "GeoDatabase"}}, {"type": "node", "id": 1150968006, "lat": 9.28333, "lon": 38.56666, "tags": {"is_in:country": "Ethiopia", "is_in:country_code": "ET", "name": "Ch'Elelek'A", "place": "locality", "source": "GeoDatabase"}}, {"type": "node", "id": 1150969994, "lat": 9.3, "lon": 38.68333, "tags": {"is_in:country": "Ethiopia", "is_in:country_code": "ET", "name": "Seyo Dire", "place": "locality", "source": "GeoDatabase"}}, {"type": "node", "id": 1150972413, "lat": 9.05, "lon": 38.5, "tags": {"is_in:country": "Ethiopia", "is_in:country_code": "ET", "name": "Genet Yet'Or Sefer", "place": "locality", "source": "GeoDatabase"}}, {"type": "node", "id": 1150972506, "lat": 9.06667, "lon": 38.31666, "tags": {"is_in:country": "Ethiopia", "is_in:country_code": "ET", "name": "Rushe", "place": "locality", "source": "GeoDatabase"}}, {"type": "node", "id": 1150973039, "lat": 9.05, "lon": 38.43333, "tags": {"is_in:country": "Ethiopia", "is_in:country_code": "ET", "name": "Lugoma", "place": "locality", "source": "GeoDatabase"}}, {"type": "node", "id": 1150973092, "lat": 9.18333, "lon": 38.63333, "tags": {"is_in:country": "Ethiopia", "is_in:country_code": "ET", "name": "Golole Sengota", "place": "locality", "source": "GeoDatabase"}}, {"type": "node", "id": 1150973669, "lat": 9.23333, "lon": 38.63333, "tags": {"is_in:country": "Ethiopia", "is_in:country_code": "ET", "name": "Wak'Ole", "place": "locality", "source": "GeoDatabase"}}, {"type": "node", "id": 1150976355, "lat": 9.18333, "lon": 38.4, "tags": {"is_in:country": "Ethiopia", "is_in:country_code": "ET", "name": "T'Afo", "place": "locality", "source": "GeoDatabase"}}, {"type": "node", "id": 1150977238, "lat": 9.23333, "lon": 38.31666, "tags": {"is_in:country": "Ethiopia", "is_in:country_code": "ET", "name": "Gebero", "place": "locality", "source": "GeoDatabase"}}, {"type": "node", "id": 1151002294, "lat": 9.01667, "lon": 38.31666, "tags": {"is_in:country": "Ethiopia", "is_in:country_code": "ET", "name": "Huluk'O", "place": "locality", "source": "GeoDatabase"}}, {"type": "node", "id": 1151003086, "lat": 9.13333, "lon": 38.6, "tags": {"is_in:country": "Ethiopia", "is_in:country_code": "ET", "name": "Hamus Gebeya", "place": "locality", "source": "GeoDatabase"}}, {"type": "node", "id": 1151004452, "lat": 9.03333, "lon": 38.33333, "tags": {"is_in:country": "Ethiopia", "is_in:country_code": "ET", "name": "Uareb", "place": "locality", "source": "GeoDatabase"}}, {"type": "node", "id": 1151004660, "lat": 9.13333, "lon": 38.28333, "tags": {"is_in:country": "Ethiopia", "is_in:country_code": "ET", "name": "K'Ak'E", "place": "locality", "source": "GeoDatabase"}}, {"type": "node", "id": 1151004793, "lat": 9.18333, "lon": 38.33333, "tags": {"is_in:country": "Ethiopia", "is_in:country_code": "ET", "name": "Guder", "place": "locality", "source": "GeoDatabase"}}, {"type": "node", "id": 1592291824, "lat": 9.046637, "lon": 38.412391, "tags": {"name": "Addis Alem", "place": "town", "wikidata": "Q353038", "wikipedia": "en:Addis Alem (town)"}}, {"type": "node", "id": 1963007974, "lat": 9.2009751, "lon": 38.387637, "tags": {"place": "village"}}, {"type": "node", "id": 1963008140, "lat": 9.1964936, "lon": 38.4087814, "tags": {"place": "village"}}, {"type": "node", "id": 1963009488, "lat": 9.2688079, "lon": 38.3802979, "tags": {"place": "village"}}, {"type": "node", "id": 1985135226, "lat": 9.1555594, "lon": 38.3213644, "tags": {"place": "village"}}, {"type": "node", "id": 1985135714, "lat": 9.1630747, "lon": 38.3935212, "tags": {"place": "village"}}, {"type": "node", "id": 1985135721, "lat": 9.1034107, "lon": 38.3883338, "tags": {"place": "village"}}, {"type": "node", "id": 1985135739, "lat": 9.1643984, "lon": 38.4615903, "tags": {"place": "village"}}, {"type": "node", "id": 2079882977, "lat": 9.2957918, "lon": 38.6024818, "tags": {"place": "village"}}, {"type": "node", "id": 2079942797, "lat": 9.2966193, "lon": 38.5649505, "tags": {"name": "Mulo", "place": "town"}}, {"type": "node", "id": 2079991706, "lat": 9.0892892, "lon": 38.5264665, "tags": {"place": "village"}}, {"type": "node", "id": 2080513063, "lat": 9.057565, "lon": 38.5684164}, {"type": "node", "id": 2080513076, "lat": 9.0599912, "lon": 38.5717209}, {"type": "node", "id": 2080513089, "lat": 9.0526308, "lon": 38.5630627}, {"type": "node", "id": 2080513092, "lat": 9.0611705, "lon": 38.5735126}, {"type": "node", "id": 2080513093, "lat": 9.0601004, "lon": 38.5740061}, {"type": "node", "id": 2080513117, "lat": 9.0611355, "lon": 38.5720964}, {"type": "node", "id": 2080513130, "lat": 9.0565479, "lon": 38.5661419}, {"type": "node", "id": 2080513193, "lat": 9.0575682, "lon": 38.5736521}, {"type": "node", "id": 2080513198, "lat": 9.0570246, "lon": 38.5677512}, {"type": "node", "id": 2080513200, "lat": 9.051939, "lon": 38.5609706}, {"type": "node", "id": 2080513201, "lat": 9.0523765, "lon": 38.5627945}, {"type": "node", "id": 2080513260, "lat": 9.0598641, "lon": 38.5707017}, {"type": "node", "id": 2080513284, "lat": 9.0566782, "lon": 38.5666247}, {"type": "node", "id": 2080513290, "lat": 9.053719, "lon": 38.5630734}, {"type": "node", "id": 2080513300, "lat": 9.0552796, "lon": 38.5656376}, {"type": "node", "id": 2080513311, "lat": 9.054379, "lon": 38.5722144}, {"type": "node", "id": 2080513317, "lat": 9.0598885, "lon": 38.5712059}, {"type": "node", "id": 2080513322, "lat": 9.0551525, "lon": 38.5722681}, {"type": "node", "id": 2080513401, "lat": 9.0508932, "lon": 38.5611852}, {"type": "node", "id": 2080513407, "lat": 9.0543261, "lon": 38.5645433}, {"type": "node", "id": 2080513409, "lat": 9.0588608, "lon": 38.5685773}, {"type": "node", "id": 2080513413, "lat": 9.0559365, "lon": 38.5730405}, {"type": "node", "id": 2080513424, "lat": 9.0597582, "lon": 38.5701438}, {"type": "node", "id": 2080513435, "lat": 9.0532559, "lon": 38.5629769}, {"type": "node", "id": 2080513451, "lat": 9.0573139, "lon": 38.5682233}, {"type": "node", "id": 2080513454, "lat": 9.0537963, "lon": 38.5637816}, {"type": "node", "id": 2080513465, "lat": 9.0593799, "lon": 38.5687275}, {"type": "node", "id": 2080513471, "lat": 9.0595674, "lon": 38.5691674}, {"type": "node", "id": 2080513575, "lat": 9.0585535, "lon": 38.5741778}, {"type": "node", "id": 2080513579, "lat": 9.0597719, "lon": 38.5739847}, {"type": "node", "id": 2080513598, "lat": 9.0549618, "lon": 38.5652299}, {"type": "node", "id": 2080513719, "lat": 9.0503603, "lon": 38.5616036}, {"type": "node", "id": 2080513737, "lat": 9.0530123, "lon": 38.5722251}, {"type": "node", "id": 2080513744, "lat": 9.0535844, "lon": 38.5722788}, {"type": "node", "id": 2080513832, "lat": 9.0560817, "lon": 38.5657342}, {"type": "node", "id": 2080513833, "lat": 9.0509854, "lon": 38.5633095}, {"type": "node", "id": 2112543992, "lat": 9.0418342, "lon": 38.3867882}, {"type": "node", "id": 2112543998, "lat": 9.0379774, "lon": 38.3994696}, {"type": "node", "id": 2112544007, "lat": 9.0379986, "lon": 38.4000275}, {"type": "node", "id": 2112544013, "lat": 9.0509918, "lon": 38.3880552}, {"type": "node", "id": 2112544015, "lat": 9.0533831, "lon": 38.4023664}, {"type": "node", "id": 2112544022, "lat": 9.0396123, "lon": 38.3940848}, {"type": "node", "id": 2112544023, "lat": 9.0415619, "lon": 38.3878836}, {"type": "node", "id": 2112544035, "lat": 9.0534287, "lon": 38.401595}, {"type": "node", "id": 2112544042, "lat": 9.040905, "lon": 38.3881411}, {"type": "node", "id": 2112544044, "lat": 9.0439321, "lon": 38.3824537}, {"type": "node", "id": 2112544060, "lat": 9.0386979, "lon": 38.3985255}, {"type": "node", "id": 2112544079, "lat": 9.0485761, "lon": 38.3913812}, {"type": "node", "id": 2112544086, "lat": 9.0490391, "lon": 38.3942983}, {"type": "node", "id": 2112544089, "lat": 9.0449493, "lon": 38.3836768}, {"type": "node", "id": 2112544093, "lat": 9.0502925, "lon": 38.3859095}, {"type": "node", "id": 2112544094, "lat": 9.0395879, "lon": 38.3977745}, {"type": "node", "id": 2112544098, "lat": 9.039927, "lon": 38.3897064}, {"type": "node", "id": 2112544101, "lat": 9.0486577, "lon": 38.3933542}, {"type": "node", "id": 2112544120, "lat": 9.0442076, "lon": 38.4105418}, {"type": "node", "id": 2112544127, "lat": 9.0404568, "lon": 38.4024737}, {"type": "node", "id": 2112544145, "lat": 9.0511581, "lon": 38.3836553}, {"type": "node", "id": 2112544203, "lat": 9.039376, "lon": 38.4015296}, {"type": "node", "id": 2112544220, "lat": 9.0485761, "lon": 38.4113797}, {"type": "node", "id": 2112544228, "lat": 9.0513489, "lon": 38.3963154}, {"type": "node", "id": 2112544229, "lat": 9.0507163, "lon": 38.3902439}, {"type": "node", "id": 2112544250, "lat": 9.0506919, "lon": 38.3815954}, {"type": "node", "id": 2112544275, "lat": 9.0444831, "lon": 38.3829687}, {"type": "node", "id": 2112544278, "lat": 9.0469624, "lon": 38.4224293}, {"type": "node", "id": 2112544280, "lat": 9.0442288, "lon": 38.4114645}, {"type": "node", "id": 2112544290, "lat": 9.0425335, "lon": 38.4158418}, {"type": "node", "id": 2112544300, "lat": 9.050586, "lon": 38.4224937}, {"type": "node", "id": 2112544310, "lat": 9.0412832, "lon": 38.4035251}, {"type": "node", "id": 2112544332, "lat": 9.0507799, "lon": 38.3868536}, {"type": "node", "id": 2112544395, "lat": 9.0417282, "lon": 38.3859513}, {"type": "node", "id": 2112544443, "lat": 9.0487032, "lon": 38.4091481}, {"type": "node", "id": 2112544450, "lat": 9.0511189, "lon": 38.3824762}, {"type": "node", "id": 2112544466, "lat": 9.0528958, "lon": 38.3967016}, {"type": "node", "id": 2112544470, "lat": 9.0437838, "lon": 38.417773}, {"type": "node", "id": 2112544492, "lat": 9.0502501, "lon": 38.3958873}, {"type": "node", "id": 2112544501, "lat": 9.0477465, "lon": 38.3799646}, {"type": "node", "id": 2112544509, "lat": 9.0502046, "lon": 38.3914015}, {"type": "node", "id": 2112544526, "lat": 9.0444195, "lon": 38.4074304}, {"type": "node", "id": 2112544542, "lat": 9.0433208, "lon": 38.4209284}, {"type": "node", "id": 2112544543, "lat": 9.0509706, "lon": 38.3887848}, {"type": "node", "id": 2112544550, "lat": 9.0406263, "lon": 38.3941696}, {"type": "node", "id": 2112544567, "lat": 9.0405447, "lon": 38.3953723}, {"type": "node", "id": 2112544609, "lat": 9.0526235, "lon": 38.4029683}, {"type": "node", "id": 2112544616, "lat": 9.0516275, "lon": 38.4057578}, {"type": "node", "id": 2112544633, "lat": 9.042258, "lon": 38.4127734}, {"type": "node", "id": 2112544638, "lat": 9.0428514, "lon": 38.3812306}, {"type": "node", "id": 2112544644, "lat": 9.0496992, "lon": 38.4036335}, {"type": "node", "id": 2112544652, "lat": 9.0441652, "lon": 38.3809731}, {"type": "node", "id": 2112544655, "lat": 9.0441896, "lon": 38.4064874}, {"type": "node", "id": 2112544656, "lat": 9.0516879, "lon": 38.4063361}, {"type": "node", "id": 2112544692, "lat": 9.0497808, "lon": 38.4027741}, {"type": "node", "id": 2112544724, "lat": 9.0402661, "lon": 38.3965728}, {"type": "node", "id": 2112544736, "lat": 9.048682, "lon": 38.4081611}, {"type": "node", "id": 2112544739, "lat": 9.0396515, "lon": 38.3910153}, {"type": "node", "id": 2112544759, "lat": 9.0489999, "lon": 38.4073457}, {"type": "node", "id": 2112544764, "lat": 9.0488304, "lon": 38.4149202}, {"type": "node", "id": 2112544766, "lat": 9.0499291, "lon": 38.3807156}, {"type": "node", "id": 2425149396, "lat": 9.0499192, "lon": 38.3954531}, {"type": "node", "id": 2425149398, "lat": 9.0486453, "lon": 38.3930551}, {"type": "node", "id": 2425149399, "lat": 9.0497073, "lon": 38.4066761}, {"type": "node", "id": 2425149760, "lat": 9.0499736, "lon": 38.4039358}, {"type": "node", "id": 2425149762, "lat": 9.0486601, "lon": 38.4125499}, {"type": "node", "id": 3853969545, "lat": 9.0129005, "lon": 38.3378971}, {"type": "node", "id": 3853969546, "lat": 9.015731, "lon": 38.337858}, {"type": "node", "id": 3853969547, "lat": 9.015731, "lon": 38.3383791}, {"type": "node", "id": 3853969548, "lat": 9.0167474, "lon": 38.3382619}, {"type": "node", "id": 3853969549, "lat": 9.0183556, "lon": 38.3376887}, {"type": "node", "id": 3853969550, "lat": 9.0184586, "lon": 38.3379102}, {"type": "node", "id": 3853969551, "lat": 9.0178153, "lon": 38.338327}, {"type": "node", "id": 3853969552, "lat": 9.0176094, "lon": 38.3402159}, {"type": "node", "id": 3853969553, "lat": 9.0180597, "lon": 38.3401899}, {"type": "node", "id": 3853969554, "lat": 9.018227, "lon": 38.3416749}, {"type": "node", "id": 3853969555, "lat": 9.0187802, "lon": 38.3432251}, {"type": "node", "id": 3853969556, "lat": 9.0185615, "lon": 38.3433424}, {"type": "node", "id": 3853969557, "lat": 9.0188188, "lon": 38.3440849}, {"type": "node", "id": 3853969558, "lat": 9.0182656, "lon": 38.3444887}, {"type": "node", "id": 3853969559, "lat": 9.0176995, "lon": 38.3442021}, {"type": "node", "id": 3853969560, "lat": 9.0174936, "lon": 38.3438634}, {"type": "node", "id": 3853969561, "lat": 9.0173521, "lon": 38.3439286}, {"type": "node", "id": 3853969562, "lat": 9.0168632, "lon": 38.3427692}, {"type": "node", "id": 3853969563, "lat": 9.0167474, "lon": 38.3416489}, {"type": "node", "id": 3853969564, "lat": 9.014869, "lon": 38.3415316}, {"type": "node", "id": 3853969565, "lat": 9.0146888, "lon": 38.3420657}, {"type": "node", "id": 3853969566, "lat": 9.0138397, "lon": 38.3418964}, {"type": "node", "id": 3853969567, "lat": 9.0139559, "lon": 38.340972}, {"type": "node", "id": 3853969568, "lat": 9.0132686, "lon": 38.3407901}, {"type": "node", "id": 3853969569, "lat": 9.0123469, "lon": 38.3427277}, {"type": "node", "id": 3853969570, "lat": 9.0117689, "lon": 38.3425299}, {"type": "node", "id": 3853969571, "lat": 9.0117923, "lon": 38.3408533}, {"type": "node", "id": 3853969572, "lat": 9.0118548, "lon": 38.340102}, {"type": "node", "id": 3853969573, "lat": 9.0113236, "lon": 38.339667}, {"type": "node", "id": 3853969574, "lat": 9.0114018, "lon": 38.3393032}, {"type": "node", "id": 3853969575, "lat": 9.0127452, "lon": 38.3394535}, {"type": "node", "id": 3853969576, "lat": 9.0120441, "lon": 38.2925704}, {"type": "node", "id": 3853969577, "lat": 9.0061948, "lon": 38.2920554}, {"type": "node", "id": 3853969578, "lat": 9.0059193, "lon": 38.2951239}, {"type": "node", "id": 3853969579, "lat": 9.0084837, "lon": 38.2950166}, {"type": "node", "id": 3853969580, "lat": 9.0088439, "lon": 38.2984498}, {"type": "node", "id": 3853969581, "lat": 9.0067882, "lon": 38.3020762}, {"type": "node", "id": 3853969582, "lat": 9.0079962, "lon": 38.3033207}, {"type": "node", "id": 3853969583, "lat": 9.0088227, "lon": 38.3017972}, {"type": "node", "id": 3853969584, "lat": 9.011533, "lon": 38.3016662}, {"type": "node", "id": 3853969585, "lat": 9.0122921, "lon": 38.3055352}, {"type": "node", "id": 3853969586, "lat": 9.0128067, "lon": 38.3067206}, {"type": "node", "id": 3853969587, "lat": 9.0127424, "lon": 38.3087398}, {"type": "node", "id": 3853969588, "lat": 9.0119447, "lon": 38.3090785}, {"type": "node", "id": 3853969589, "lat": 9.011533, "lon": 38.3103291}, {"type": "node", "id": 3853969590, "lat": 9.0160489, "lon": 38.3116057}, {"type": "node", "id": 3853969591, "lat": 9.0163835, "lon": 38.3110065}, {"type": "node", "id": 3853969592, "lat": 9.0154442, "lon": 38.3102639}, {"type": "node", "id": 3853969593, "lat": 9.0154571, "lon": 38.3096777}, {"type": "node", "id": 3853969594, "lat": 9.014415, "lon": 38.3094042}, {"type": "node", "id": 3853969595, "lat": 9.0141705, "lon": 38.3070593}, {"type": "node", "id": 3853969596, "lat": 9.0145693, "lon": 38.3069291}, {"type": "node", "id": 3853969597, "lat": 9.0146079, "lon": 38.3048578}, {"type": "node", "id": 3853969598, "lat": 9.0138875, "lon": 38.3047536}, {"type": "node", "id": 3853969599, "lat": 9.0138103, "lon": 38.3032424}, {"type": "node", "id": 3853969600, "lat": 9.0141834, "lon": 38.3031382}, {"type": "node", "id": 3853969601, "lat": 9.0142091, "lon": 38.3026432}, {"type": "node", "id": 3853969602, "lat": 9.0141319, "lon": 38.2995168}, {"type": "node", "id": 3853969603, "lat": 9.0151612, "lon": 38.2995428}, {"type": "node", "id": 3853969604, "lat": 9.0152898, "lon": 38.2991781}, {"type": "node", "id": 3853969605, "lat": 9.0137459, "lon": 38.2987612}, {"type": "node", "id": 3853969606, "lat": 9.0137717, "lon": 38.2974325}, {"type": "node", "id": 3853969607, "lat": 9.015753, "lon": 38.2976669}, {"type": "node", "id": 3853969608, "lat": 9.015753, "lon": 38.2974325}, {"type": "node", "id": 3853969609, "lat": 9.0143378, "lon": 38.2969505}, {"type": "node", "id": 3853969610, "lat": 9.0150068, "lon": 38.295778}, {"type": "node", "id": 3853969611, "lat": 9.0130898, "lon": 38.295778}, {"type": "node", "id": 5380995125, "lat": 9.0359732, "lon": 38.6607628, "tags": {"name": "Burayu", "place": "town"}}, {"type": "node", "id": 6307585346, "lat": 9.0657694, "lon": 38.6916948, "tags": {"name": "\u1295\u134d\u122e \u1230\u1348\u122d", "name:en": "Nefro neighborhood", "name:fr": "Nefro", "place": "neighbourhood"}}, {"type": "way", "id": 197853929, "nodes": [304195660, 2080513737, 2080513744, 2080513311, 2080513322, 2080513413, 2080513193, 2080513575, 2080513579, 2080513093, 2080513092, 2080513117, 2080513076, 2080513317, 2080513260, 2080513424, 2080513471, 2080513465, 2080513409, 2080513063, 2080513451, 2080513198, 2080513284, 2080513130, 2080513832, 2080513300, 2080513598, 2080513407, 2080513454, 2080513290, 2080513435, 2080513089, 2080513201, 2080513200, 2080513401, 2080513719, 2080513833, 304195666, 304195660], "tags": {"landuse": "residential", "name": "\u1218\u1293\u1308\u123b/Menangasha", "name:en": "Menangasha", "name:fr": "Menagesha", "place": "town", "source": "Landsat,GPS"}}, {"type": "way", "id": 201297446, "nodes": [2112544509, 2112544079, 2425149398, 2112544101, 2112544086, 2425149396, 2112544492, 2112544228, 2112544466, 2112544035, 2112544015, 2112544609, 2112544692, 2112544644, 2425149760, 2112544616, 2112544656, 2425149399, 2112544759, 2112544736, 2112544443, 2112544220, 2425149762, 2112544764, 2112544300, 2112544278, 2112544542, 2112544470, 2112544290, 2112544633, 2112544280, 2112544120, 2112544526, 2112544655, 2112544310, 2112544127, 2112544203, 2112544007, 2112543998, 2112544060, 2112544094, 2112544724, 2112544567, 2112544550, 2112544022, 2112544739, 2112544098, 2112544042, 2112544023, 2112543992, 2112544395, 2112544089, 2112544275, 2112544044, 2112544638, 2112544652, 2112544501, 2112544766, 2112544250, 2112544450, 2112544145, 2112544093, 2112544332, 2112544013, 2112544543, 2112544229, 2112544509], "tags": {"alt_name": "Ejerie", "landuse": "residential", "name": "Addis Alem", "place": "town", "wikidata": "Q353038", "wikipedia": "en:Addis Alem, Shewa"}}, {"type": "way", "id": 382202342, "nodes": [3853969545, 3853969546, 3853969547, 3853969548, 3853969549, 3853969550, 3853969551, 3853969552, 3853969553, 3853969554, 3853969555, 3853969556, 3853969557, 3853969558, 3853969559, 3853969560, 3853969561, 3853969562, 3853969563, 3853969564, 3853969565, 3853969566, 3853969567, 3853969568, 3853969569, 3853969570, 3853969571, 3853969572, 3853969573, 3853969574, 3853969575, 3853969545], "tags": {"landuse": "residential", "name": "Meti", "place": "village"}}, {"type": "way", "id": 382202343, "nodes": [3853969576, 3853969577, 3853969578, 3853969579, 3853969580, 3853969581, 3853969582, 3853969583, 3853969584, 3853969585, 3853969586, 3853969587, 3853969588, 3853969589, 3853969590, 3853969591, 3853969592, 3853969593, 3853969594, 3853969595, 3853969596, 3853969597, 3853969598, 3853969599, 3853969600, 3853969601, 3853969602, 3853969603, 3853969604, 3853969605, 3853969606, 3853969607, 3853969608, 3853969609, 3853969610, 3853969611, 3853969576], "tags": {"landuse": "residential", "name": "Wecho", "place": "village"}}]}