{"version": 0.6, "generator": "Overpass API 0.7.62.1 084b4234", "osm3s": {"timestamp_osm_base": "2024-09-30T20:33:43Z", "copyright": "The data included in this document is from www.openstreetmap.org. The data is made available under ODbL."}, "elements": [{"type": "node", "id": 1150891366, "lat": 6.46806, "lon": 46.2675, "tags": {"name": "Bur Corrali", "place": "locality", "source": "GeoDatabase", "wikidata": "Q24031454"}}, {"type": "node", "id": 1150903224, "lat": 6.42778, "lon": 46.04639, "tags": {"is_in:country_code": "ET", "is_in:county": "Ethiopia", "name": "Balli", "place": "locality", "source": "GeoDatabase"}}, {"type": "node", "id": 1404230281, "lat": 6.1478112, "lon": 45.9644999, "tags": {"alt_name": "Aricadays", "name": "Ariadays", "pcode": "NB-3807-W22-001", "place": "village", "source": "FSAU"}}, {"type": "node", "id": 1404231217, "lat": 6.16743, "lon": 46.26641, "tags": {"name": "Safsaaf", "pcode": "NB-3807-V28-001", "place": "village", "source": "UNDP - 2006, UNDP - 1997"}}, {"type": "node", "id": 1404233474, "lat": 6.1579376, "lon": 46.0071474, "tags": {"alt_name": "L.Seexay;Libaaxseexay", "name": "Libahsehay", "pcode": "NB-3807-W23-001", "place": "village", "source": "FSAU"}}, {"type": "node", "id": 10034977909, "lat": 6.461524, "lon": 46.1555959, "tags": {"name": "Bali Nur", "old_name": "Balli Nur", "place": "locality", "waterway": "water_point"}}, {"type": "node", "id": 10034980522, "lat": 6.3622297, "lon": 45.9560613, "tags": {"alt_name": "Burgeesoole;Burgesoole", "name": "Burgesole", "place": "town"}}, {"type": "node", "id": 10034980525, "lat": 6.3880585, "lon": 46.241553, "tags": {"alt_name": "Dilinbaa", "name": "Dilimbaa", "place": "village"}}, {"type": "node", "id": 10034980541, "lat": 6.4849559, "lon": 46.2485287, "tags": {"name": "Godane", "place": "village"}}, {"type": "node", "id": 10034980542, "lat": 6.42541, "lon": 46.2443839, "tags": {"name": "Dafle", "place": "village"}}, {"type": "node", "id": 10126031545, "lat": 6.274567, "lon": 46.238937, "tags": {"name": "Kaxandhaale", "place": "neighbourhood"}}, {"type": "node", "id": 10126031548, "lat": 6.2518269, "lon": 46.239036, "tags": {"name": "Danwadaag", "place": "neighbourhood"}}, {"type": "node", "id": 10126031553, "lat": 6.274457, "lon": 46.226746, "tags": {"name": "Salaama", "place": "locality"}}, {"type": "node", "id": 10126031556, "lat": 6.239779, "lon": 46.238205, "tags": {"name": "Jaqafaabir", "place": "neighbourhood"}}, {"type": "node", "id": 10126031557, "lat": 6.265987, "lon": 46.209201, "tags": {"name": "Farjano", "place": "neighbourhood"}}, {"type": "node", "id": 10126031559, "lat": 6.217089, "lon": 46.228729, "tags": {"name": "Nasiye", "place": "locality"}}, {"type": "node", "id": 10126031560, "lat": 6.253064, "lon": 46.198277, "tags": {"name": "Wadajir", "place": "neighbourhood"}}, {"type": "node", "id": 10126031563, "lat": 6.250134, "lon": 46.239899, "tags": {"name": "Ajuuraan", "place": "neighbourhood"}}, {"type": "node", "id": 10126031565, "lat": 6.249995, "lon": 46.261607, "tags": {"name": "Barre Dere", "place": "locality"}}, {"type": "node", "id": 10126031566, "lat": 6.252397, "lon": 46.208716, "tags": {"name": "Baligiish", "place": "neighbourhood", "waterway": "dam"}}, {"type": "node", "id": 10126031567, "lat": 6.265681, "lon": 46.253636, "tags": {"alt_name": "Libaaxyaale", "name": "Libahyale", "place": "village"}}, {"type": "node", "id": 10126537761, "lat": 6.1712239, "lon": 46.201676, "tags": {"name": "Laanle", "name:en": "Lanle", "place": "village"}}, {"type": "node", "id": 10126537762, "lat": 6.240041, "lon": 46.2087969, "tags": {"name": "Dayacan", "place": "neighbourhood"}}, {"type": "node", "id": 10126537764, "lat": 6.246468, "lon": 46.243357, "tags": {"name": "Laandheer", "place": "neighbourhood"}}, {"type": "node", "id": 10126537765, "lat": 6.256858, "lon": 46.1984459, "tags": {"name": "Mahad Alle", "place": "neighbourhood"}}, {"type": "node", "id": 10126537766, "lat": 6.233426, "lon": 46.210723, "tags": {"name": "Kulmiye", "place": "neighbourhood"}}, {"type": "node", "id": 10126537767, "lat": 6.1832329, "lon": 46.2025479, "tags": {"name": "Bali Busle", "place": "locality"}}, {"type": "node", "id": 10126537768, "lat": 6.251915, "lon": 46.203988, "tags": {"name": "Tawakal", "place": "neighbourhood"}}, {"type": "node", "id": 10126537772, "lat": 6.200994, "lon": 46.211652, "tags": {"name": "Mareere", "place": "village"}}, {"type": "node", "id": 10126537774, "lat": 6.1949809, "lon": 46.1970374, "tags": {"name": "Bali Kibir", "place": "village"}}, {"type": "node", "id": 10132141745, "lat": 6.499785, "lon": 45.943987, "tags": {"alt_name": "Badrol Dades;Badrool Daadis", "name": "Badrol Dadis", "place": "village", "waterway": "water_point"}}, {"type": "node", "id": 10132160929, "lat": 6.1568553, "lon": 46.1134191, "tags": {"name": "Laasoole", "name:en": "Lasole", "place": "isolated_dwelling"}}, {"type": "node", "id": 10132160930, "lat": 6.184261, "lon": 46.048031, "tags": {"alt_name": "Qoryoweyn", "name": "Qoryowayn", "name:en": "Qoriouin", "place": "locality"}}, {"type": "node", "id": 10132160932, "lat": 6.1815463, "lon": 46.1070343, "tags": {"name": "Shilomadow", "place": "village"}}, {"type": "node", "id": 10142960942, "lat": 6.2461515, "lon": 46.2251544, "tags": {"alt_name": "Cabudwaaq", "name": "Caabudwaaq \u0639\u0627\u0628\u062f\u0624\u0627\u063a", "name:en": "Abudwak", "name:it": "Abuduaq", "old_name": "Abud Wak", "place": "city", "population": "164286", "wikidata": "Q335731", "wikipedia": "en:Abudwak"}}, {"type": "node", "id": 10167403243, "lat": 6.192386, "lon": 46.235425, "tags": {"alt_name": "Gesauine", "name": "Geesawayne", "place": "village"}}, {"type": "node", "id": 10167403244, "lat": 6.259144, "lon": 46.2151319, "tags": {"name": "Xurfada", "place": "neighbourhood"}}, {"type": "node", "id": 10167403245, "lat": 6.164712, "lon": 46.211302, "tags": {"name": "Rafle", "place": "village"}}, {"type": "node", "id": 10167403247, "lat": 6.3672, "lon": 46.2891, "tags": {"name": "Angalo", "place": "village"}}, {"type": "node", "id": 10167411013, "lat": 6.188681, "lon": 46.276984, "tags": {"name": "Baaltaag", "name:en": "Baltag", "place": "village"}}, {"type": "node", "id": 10226597809, "lat": 6.5099044, "lon": 46.1435914, "tags": {"alt_name": "Eelaay;Celaay", "name": "Eelay", "place": "village", "waterway": "water_point"}}, {"type": "node", "id": 10243392764, "lat": 6.1538917, "lon": 46.072476, "tags": {"name": "Xabalan", "name:en": "Habalan", "place": "locality"}}, {"type": "node", "id": 10296264766, "lat": 6.1193453, "lon": 46.1249824, "tags": {"alt_name": "Sayle", "name": "Seyle", "place": "village"}}, {"type": "node", "id": 10310186707, "lat": 6.2313145, "lon": 46.0856257, "tags": {"alt_name": "Galmaygaag", "name": "Galmeygaag", "place": "village"}}, {"type": "node", "id": 10310207109, "lat": 6.1092959, "lon": 46.201944, "tags": {"name": "Miirgalawac", "name:en": "Mirgalawa", "place": "village"}}, {"type": "node", "id": 10310207115, "lat": 6.3854098, "lon": 46.1975816, "tags": {"name": "Saldhiga", "place": "isolated_dwelling"}}, {"type": "node", "id": 10310207117, "lat": 6.4048017, "lon": 46.2844835, "tags": {"alt_name": "Guuled Naasey", "name": "Guled Nasey", "place": "village"}}, {"type": "node", "id": 10310207119, "lat": 6.3065213, "lon": 46.3030218, "tags": {"alt_name": "Wanaagsan", "name": "Wanagsan", "place": "village"}}, {"type": "node", "id": 10310207120, "lat": 6.3569042, "lon": 46.2769165, "tags": {"alt_name": "Dhake", "name": "Dhaake", "place": "village"}}, {"type": "node", "id": 10310207121, "lat": 6.3685474, "lon": 46.1289424, "tags": {"alt_name": "Ali Yaalo;Cali Yaalo", "name": "Ali Yalo", "place": "village", "waterway": "water_point"}}, {"type": "node", "id": 10310207124, "lat": 6.3026355, "lon": 46.1630045, "tags": {"name": "Goobsan", "place": "village"}}, {"type": "node", "id": 10576489920, "lat": 6.195935, "lon": 46.281547, "tags": {"name": "Diiltire", "place": "village"}}, {"type": "node", "id": 10576489921, "lat": 6.2708003, "lon": 46.0566548, "tags": {"name": "Balicad", "name:en": "Baliad", "place": "village"}}, {"type": "node", "id": 10576489922, "lat": 6.340935, "lon": 46.2299685, "tags": {"name": "Qolaley", "place": "village"}}, {"type": "node", "id": 10576489923, "lat": 6.2712289, "lon": 46.0945508, "tags": {"name": "Dhegahaye", "place": "isolated_dwelling"}}, {"type": "node", "id": 10576489924, "lat": 6.238437, "lon": 45.9886053, "tags": {"alt_name": "Darasalam", "name": "Darasalaam", "place": "village"}}, {"type": "node", "id": 10576489925, "lat": 6.149401, "lon": 46.253982, "tags": {"name": "Miirhaybe", "name:en": "Mirhaibe", "place": "village"}}, {"type": "node", "id": 10576489927, "lat": 6.2758087, "lon": 46.0473197, "tags": {"name": "Xoriyo", "name:en": "Horiyo", "place": "village"}}, {"type": "node", "id": 10576489928, "lat": 6.198487, "lon": 46.259151, "tags": {"alt_name": "Birre", "name": "Bire", "place": "isolated_dwelling"}}, {"type": "node", "id": 10576489929, "lat": 6.2941056, "lon": 46.2303005, "tags": {"alt_name": "Tuulo Xaaji", "name": "Tulo Haji", "place": "isolated_dwelling"}}, {"type": "node", "id": 10576489930, "lat": 6.100954, "lon": 46.161038, "tags": {"name": "Taalo Tiiriyad", "name:en": "Talo Tiriad", "place": "village"}}, {"type": "node", "id": 10604906132, "lat": 6.4432754, "lon": 45.9828644, "tags": {"alt_name": "Degeh Habar Es;Dhigix Habar Ciise", "name": "Digih Habarese", "place": "village", "waterway": "water_point"}}, {"type": "node", "id": 10760699764, "lat": 6.2486236, "lon": 46.2217895}, {"type": "node", "id": 10760699774, "lat": 6.2444393, "lon": 46.2183864}, {"type": "node", "id": 10760699783, "lat": 6.2485576, "lon": 46.2196046}, {"type": "node", "id": 10760699797, "lat": 6.2447911, "lon": 46.2179222}, {"type": "node", "id": 10760699800, "lat": 6.2462975, "lon": 46.2180148}, {"type": "node", "id": 10760741266, "lat": 6.2464353, "lon": 46.2220253}, {"type": "node", "id": 10760741267, "lat": 6.2454525, "lon": 46.2188305}, {"type": "node", "id": 10760741296, "lat": 6.2481194, "lon": 46.2226}, {"type": "node", "id": 10760741326, "lat": 6.2497108, "lon": 46.2198228}, {"type": "node", "id": 10760741340, "lat": 6.2486912, "lon": 46.2207967}, {"type": "node", "id": 10760741356, "lat": 6.2470899, "lon": 46.2222749}, {"type": "node", "id": 10760741371, "lat": 6.2487352, "lon": 46.2224445}, {"type": "node", "id": 10760741392, "lat": 6.2458181, "lon": 46.2200501}, {"type": "node", "id": 10887606525, "lat": 6.2253607, "lon": 46.2373021, "tags": {"name": "Alamin", "place": "locality"}}, {"type": "node", "id": 10969526457, "lat": 6.3157963, "lon": 46.1756836, "tags": {"name": "Fakhato", "place": "village"}}, {"type": "node", "id": 10969526458, "lat": 6.3099808, "lon": 46.155634, "tags": {"name": "Bilcil Howrarsame", "place": "village"}}, {"type": "way", "id": 1157137119, "nodes": [10760741392, 10760741266, 10760741356, 10760741296, 10760741371, 10760699764, 10760741340, 10760741326, 10760699783, 10760699800, 10760699797, 10760699774, 10760741267, 10760741392], "tags": {"name": "Barxada", "place": "square"}}]}