{"version": 0.6, "generator": "Overpass API 0.7.62.1 084b4234", "osm3s": {"timestamp_osm_base": "2024-09-30T21:17:28Z", "copyright": "The data included in this document is from www.openstreetmap.org. The data is made available under ODbL."}, "elements": [{"type": "node", "id": 36305922, "lat": 0.07222, "lon": 42.75056, "tags": {"name": "Jamaame \u062c\u0645\u0627\u0645\u0629", "name:ar": "\u062c\u0645\u0627\u0645\u0629", "name:de": "Jamaame", "name:en": "Jamame", "name:es": "Jamaame", "name:fr": "Jamaame", "name:ru": "\u0414\u0436\u0430\u043c\u0430\u043c\u0435", "name:uk": "\u0414\u0436\u0430\u043c\u0430\u043c\u0435", "place": "city", "wikidata": "Q1017154", "wikipedia": "ar:\u062c\u0645\u0627\u0645\u0629"}}, {"type": "node", "id": 1401885332, "lat": 0.278683, "lon": 42.911878, "tags": {"gns:modify_date": "2011-05-27", "gns:type": "SAND", "gns:ufi": "-3219824", "name": "Dhigdhigsha", "place": "locality", "source": "GNS"}}, {"type": "node", "id": 1404221353, "lat": 0.2500721, "lon": 42.7706246, "tags": {"name": "Shungul Mafuula", "pcode": "NA-3813-U17-008", "place": "village", "source": "UNDP - 1997"}}, {"type": "node", "id": 1404221385, "lat": 0.22612, "lon": 42.756008, "tags": {"name": "Isaao", "pcode": "NA-3813-U17-004", "place": "village", "source": "UNDP - 1997"}}, {"type": "node", "id": 1404221713, "lat": 0.29731, "lon": 42.859699, "tags": {"name": "Catmaarrey", "pcode": "NA-3813-S19-001", "place": "locality", "source": "UNDP - 1997"}}, {"type": "node", "id": 1404222069, "lat": 0.3493694, "lon": 42.7545626, "tags": {"name": "Fungamuuyo", "pcode": "NA-3813-R17-001", "place": "village", "source": "UNDP - 1997"}}, {"type": "node", "id": 1404222084, "lat": 0.3765622, "lon": 42.8411337, "tags": {"name": "Hubaar", "pcode": "NA-3813-Q19-001", "place": "locality", "source": "UNDP - 1997"}}, {"type": "node", "id": 1404222097, "lat": 0.20884, "lon": 42.776489, "tags": {"name": "Washaaq", "pcode": "NA-3813-U18-001", "place": "village", "source": "UNDP - 1997"}}, {"type": "node", "id": 1404222521, "lat": 0.10608, "lon": 42.87822, "tags": {"name": "Banaaney", "pcode": "NA-3813-X20-002", "place": "village", "source": "UNDP - 1997"}}, {"type": "node", "id": 1404222535, "lat": 0.194833, "lon": 42.774937, "tags": {"name": "Beled Amiin", "pcode": "NA-3813-V17-003", "place": "village", "source": "UNDP - 1997"}}, {"type": "node", "id": 1404223175, "lat": 0.4375108, "lon": 42.8760131, "tags": {"name": "Marmuus", "pcode": "NA-3813-P20-002", "place": "hamlet", "source": "UNDP - 1997"}}, {"type": "node", "id": 1404223187, "lat": 0.24935, "lon": 42.77512, "tags": {"name": "Kamsuuma", "pcode": "NA-3813-U18-006", "place": "locality", "source": "UNDP - 1997"}}, {"type": "node", "id": 1404223761, "lat": 0.2044805, "lon": 42.7526311, "tags": {"name": "Yaaq", "pcode": "NA-3813-V17-005", "place": "locality", "source": "UNDP - 1997"}}, {"type": "node", "id": 1404223842, "lat": 0.09175, "lon": 42.809341, "tags": {"name": "Gaal", "pcode": "NA-3813-X18-001", "place": "village", "source": "UNDP - 1997"}}, {"type": "node", "id": 1404223855, "lat": 0.220138, "lon": 42.7633161, "tags": {"name": "Miigwa", "pcode": "NA-3813-U17-002", "place": "village", "source": "UNDP - 1997"}}, {"type": "node", "id": 1404224130, "lat": 0.20755, "lon": 42.752972, "tags": {"name": "Maamboy", "pcode": "NA-3813-V17-006", "place": "village", "source": "UNDP - 1997"}}, {"type": "node", "id": 1404224209, "lat": 0.3073, "lon": 42.806709, "tags": {"name": "Sheekh Cabdi Muudey", "pcode": "NA-3813-S18-001", "place": "locality", "source": "UNDP - 1997"}}, {"type": "node", "id": 1404224458, "lat": 0.3195209, "lon": 42.7560924, "tags": {"alt_name": "Nasiibunde", "name": "Nasiib Buundo", "pcode": "NA-3813-S17-006", "place": "village", "source": "UNDP - 1997, FSAU"}}, {"type": "node", "id": 1404224828, "lat": 0.07045, "lon": 42.819908, "tags": {"name": "Kabxanley", "pcode": "NA-3813-Y19-002", "place": "village", "source": "UNDP - 1997"}}, {"type": "node", "id": 1404224846, "lat": 0.2718, "lon": 42.767601, "tags": {"name": "Meama", "pcode": "NA-3813-T17-006", "place": "locality", "source": "UNDP - 1997"}}, {"type": "node", "id": 1404225008, "lat": 0.1636404, "lon": 42.755852, "tags": {"name": "Moofa", "pcode": "NA-3813-W17-007", "place": "village", "source": "UNDP - 1997"}}, {"type": "node", "id": 1404225102, "lat": 0.2797902, "lon": 42.7595963, "tags": {"name": "Manyiika", "pcode": "NA-3813-T17-007", "place": "village", "source": "UNDP - 1997"}}, {"type": "node", "id": 1404225525, "lat": 0.21151, "lon": 42.761951, "tags": {"name": "Mombaasa", "pcode": "NA-3813-U17-001", "place": "village", "source": "UNDP - 1997"}}, {"type": "node", "id": 1404225572, "lat": 0.09338, "lon": 42.875889, "tags": {"name": "Waado", "pcode": "NA-3813-X20-001", "place": "village", "source": "UNDP - 1997"}}, {"type": "node", "id": 1404225585, "lat": 0.2242283, "lon": 42.7799276, "tags": {"name": "Sabatuuni", "pcode": "NA-3813-U18-002", "place": "village", "source": "UNDP - 1997"}}, {"type": "node", "id": 1404225705, "lat": 0.23579, "lon": 42.772079, "tags": {"name": "Dhimbii", "pcode": "NA-3813-U17-006", "place": "hamlet", "source": "UNDP - 1997"}}, {"type": "node", "id": 1404226355, "lat": 0.3666033, "lon": 42.8101846, "tags": {"name": "J. Homboy", "pcode": "NA-3813-R18-001", "place": "locality", "source": "FSAU"}}, {"type": "node", "id": 1404227173, "lat": 0.3982426, "lon": 42.8706218, "tags": {"name": "Homboy", "pcode": "NA-3813-Q20-001", "place": "village", "source": "UNDP - 1997"}}, {"type": "node", "id": 1404227608, "lat": 0.4477, "lon": 43.069, "tags": {"name": "Arbo Abdi", "pcode": "NA-3813-P24-001", "place": "locality", "source": "UNDP - 1997"}}, {"type": "node", "id": 1404227962, "lat": 0.06518, "lon": 42.843048, "tags": {"name": "Xalimolibaax", "pcode": "NA-3813-Y19-001", "place": "village", "source": "UNDP - 1997"}}, {"type": "node", "id": 1404228506, "lat": 0.1952216, "lon": 42.7520244, "tags": {"alt_name": "Mashaqa", "name": "Mashaaga", "pcode": "NA-3813-V17-004", "place": "village", "source": "UNDP - 2006, UNDP - 1997, FSAU"}}, {"type": "node", "id": 1404228945, "lat": 0.2032, "lon": 42.799728, "tags": {"name": "Buulle", "pcode": "NA-3813-V18-002", "place": "hamlet", "source": "UNDP - 1997"}}, {"type": "node", "id": 1404229444, "lat": 0.3058989, "lon": 42.7621643, "tags": {"name": "Gomeeni", "pcode": "NA-3813-S17-002", "place": "village", "source": "UNDP - 1997"}}, {"type": "node", "id": 1404230072, "lat": 0.3634022, "lon": 42.7750942, "tags": {"alt_name": "Bandarsalama", "name": "Bandar Salaam", "pcode": "NA-3813-R17-003", "place": "village", "source": "UNDP - 1997, FSAU"}}, {"type": "node", "id": 1404230248, "lat": 0.4191, "lon": 42.752201, "tags": {"name": "Sciongolo Dunia", "pcode": "NA-3813-P17-001", "place": "locality", "source": "UNDP - 1997"}}, {"type": "node", "id": 1404230524, "lat": 0.24211, "lon": 42.774891, "tags": {"name": "Meser", "pcode": "NA-3813-U18-004", "place": "hamlet", "source": "UNDP - 1997"}}, {"type": "node", "id": 1404230662, "lat": 0.07325, "lon": 42.885578, "tags": {"name": "Xididaale", "pcode": "NA-3813-Y20-002", "place": "village", "source": "UNDP - 1997"}}, {"type": "node", "id": 1404230759, "lat": 0.3750175, "lon": 42.7503561, "tags": {"name": "Kalikooka", "pcode": "NA-3813-Q17-001", "place": "hamlet", "source": "UNDP - 1997"}}, {"type": "node", "id": 1404230855, "lat": 0.1710531, "lon": 42.7576378, "tags": {"name": "Masaagiro", "pcode": "NA-3813-V17-001", "place": "village", "source": "UNDP - 1997"}}, {"type": "node", "id": 1404230912, "lat": 0.32792, "lon": 42.76149, "tags": {"name": "Nasiib", "pcode": "NA-3813-S17-008", "place": "locality", "source": "UNDP - 1997"}}, {"type": "node", "id": 1404230993, "lat": 0.2528829, "lon": 42.8387692, "tags": {"name": "Burgaan", "pcode": "NA-3813-T19-001", "place": "village", "source": "UNDP - 1997"}}, {"type": "node", "id": 1404231006, "lat": 0.261203, "lon": 42.7701744, "tags": {"name": "Jimaboota", "pcode": "NA-3813-T17-004", "place": "hamlet", "source": "UNDP - 1997"}}, {"type": "node", "id": 1404231277, "lat": 0.2230471, "lon": 42.7667178, "tags": {"name": "Saagga", "pcode": "NA-3813-U17-003", "place": "village", "source": "UNDP - 1997"}}, {"type": "node", "id": 1404231950, "lat": 0.3707489, "lon": 42.8399883, "tags": {"name": "Aminow", "pcode": "NA-3813-R19-001", "place": "hamlet", "source": "UNDP - 1997"}}, {"type": "node", "id": 1404232120, "lat": 0.2913, "lon": 43.155899, "tags": {"name": "El Ghescud", "pcode": "NA-3813-T26-001", "place": "hamlet", "source": "UNDP - 1997"}}, {"type": "node", "id": 1404232222, "lat": 0.2542074, "lon": 42.7627126, "tags": {"name": "Makalaago", "pcode": "NA-3813-T17-002", "place": "village", "source": "UNDP - 1997"}}, {"type": "node", "id": 1404232362, "lat": 0.1594877, "lon": 42.7598856, "tags": {"name": "Maama", "pcode": "NA-3813-W17-006", "place": "village", "source": "UNDP - 1997"}}, {"type": "node", "id": 1404233015, "lat": 0.18608, "lon": 42.791889, "tags": {"name": "Tuunni", "pcode": "NA-3813-V18-001", "place": "hamlet", "source": "UNDP - 1997"}}, {"type": "node", "id": 1404233086, "lat": 0.05601, "lon": 42.865261, "tags": {"name": "Oraxley", "pcode": "NA-3813-Y20-001", "place": "village", "source": "UNDP - 1997"}}, {"type": "node", "id": 1404233099, "lat": 0.23024, "lon": 42.765678, "tags": {"name": "Muusa Makuba", "pcode": "NA-3813-U17-005", "place": "village", "source": "UNDP - 1997"}}, {"type": "node", "id": 1404233358, "lat": 0.42371, "lon": 42.880371, "tags": {"name": "Dayax", "pcode": "NA-3813-P20-001", "place": "locality", "source": "UNDP - 1997"}}, {"type": "node", "id": 1404233370, "lat": 0.2496906, "lon": 42.7797411, "tags": {"name": "Mcheruale", "pcode": "NA-3813-U18-005", "place": "town", "source": "UNDP - 1997"}}, {"type": "node", "id": 1404233689, "lat": 0.12279, "lon": 42.889019, "tags": {"name": "Oondheere", "pcode": "NA-3813-X20-003", "place": "village", "source": "UNDP - 1997"}}, {"type": "node", "id": 1404233702, "lat": 0.23899, "lon": 42.77467, "tags": {"name": "Dhayo", "pcode": "NA-3813-U18-003", "place": "village", "source": "UNDP - 1997"}}, {"type": "node", "id": 4512303216, "lat": 0.0847083, "lon": 42.9350367}, {"type": "node", "id": 4512303217, "lat": 0.0842473, "lon": 42.9352178}, {"type": "node", "id": 4512303218, "lat": 0.0836217, "lon": 42.934905}, {"type": "node", "id": 4512303219, "lat": 0.0836711, "lon": 42.9345264}, {"type": "node", "id": 4512303220, "lat": 0.0841321, "lon": 42.9342136}, {"type": "node", "id": 4512303221, "lat": 0.0845107, "lon": 42.9342136}, {"type": "node", "id": 4512303222, "lat": 0.0847906, "lon": 42.9343782}, {"type": "node", "id": 4512303223, "lat": 0.0849058, "lon": 42.9346581}, {"type": "node", "id": 4512303224, "lat": 0.0848565, "lon": 42.9350038}, {"type": "node", "id": 8177608295, "lat": 0.4681694, "lon": 42.8998832, "tags": {"place": "village"}}, {"type": "node", "id": 8177608307, "lat": 0.3338957, "lon": 42.7745776, "tags": {"place": "isolated_dwelling"}}, {"type": "node", "id": 8177608308, "lat": 0.3300436, "lon": 42.7713405, "tags": {"place": "isolated_dwelling"}}, {"type": "node", "id": 8177608309, "lat": 0.3297816, "lon": 42.770771, "tags": {"place": "isolated_dwelling"}}, {"type": "node", "id": 8177608310, "lat": 0.3289251, "lon": 42.768935, "tags": {"place": "isolated_dwelling"}}, {"type": "node", "id": 8177608311, "lat": 0.3287064, "lon": 42.7684634, "tags": {"place": "isolated_dwelling"}}, {"type": "node", "id": 8177608312, "lat": 0.3265412, "lon": 42.7651726, "tags": {"place": "isolated_dwelling"}}, {"type": "node", "id": 8177618721, "lat": 0.3552928, "lon": 42.7544183, "tags": {"place": "hamlet"}}, {"type": "node", "id": 8179469045, "lat": 0.2733628, "lon": 42.754252, "tags": {"place": "isolated_dwelling"}}, {"type": "node", "id": 8179469071, "lat": 0.2764292, "lon": 42.7512145, "tags": {"place": "hamlet"}}, {"type": "node", "id": 8179469087, "lat": 0.2993931, "lon": 42.7672082, "tags": {"place": "isolated_dwelling"}}, {"type": "node", "id": 8179469159, "lat": 0.2661343, "lon": 42.7921068, "tags": {"place": "isolated_dwelling"}}, {"type": "node", "id": 8179469327, "lat": 0.3538717, "lon": 42.7607103, "tags": {"place": "isolated_dwelling"}}, {"type": "node", "id": 8180156144, "lat": 0.278364, "lon": 42.7505329, "tags": {"place": "isolated_dwelling"}}, {"type": "node", "id": 8180615257, "lat": 0.3942635, "lon": 42.7739308, "tags": {"place": "isolated_dwelling"}}, {"type": "node", "id": 8180619844, "lat": 0.3394859, "lon": 42.7699054, "tags": {"place": "isolated_dwelling"}}, {"type": "node", "id": 8180619845, "lat": 0.3381601, "lon": 42.7711628, "tags": {"place": "isolated_dwelling"}}, {"type": "node", "id": 8180619879, "lat": 0.3354129, "lon": 42.7736504, "tags": {"place": "isolated_dwelling"}}, {"type": "node", "id": 8184455671, "lat": 0.4511125, "lon": 42.9239484, "tags": {"place": "hamlet"}}, {"type": "node", "id": 8184718283, "lat": 0.3096954, "lon": 42.7540602, "tags": {"place": "hamlet"}}, {"type": "node", "id": 8184943993, "lat": 0.299548, "lon": 42.7615132, "tags": {"place": "hamlet"}}, {"type": "node", "id": 8184960845, "lat": 0.3041883, "lon": 42.7662196, "tags": {"place": "isolated_dwelling"}}, {"type": "node", "id": 8184960912, "lat": 0.2905909, "lon": 42.7614813, "tags": {"place": "isolated_dwelling"}}, {"type": "node", "id": 8184960956, "lat": 0.2860372, "lon": 42.7588137, "tags": {"place": "isolated_dwelling"}}, {"type": "node", "id": 8187804780, "lat": 0.3270617, "lon": 42.7696776, "tags": {"place": "isolated_dwelling"}}, {"type": "node", "id": 8187979008, "lat": 0.3359973, "lon": 42.8393099, "tags": {"place": "village"}}, {"type": "node", "id": 8190578421, "lat": 0.2930853, "lon": 42.7649895, "tags": {"place": "isolated_dwelling"}}, {"type": "node", "id": 8190820137, "lat": 0.385122, "lon": 42.8014638, "tags": {"place": "hamlet"}}, {"type": "node", "id": 8191635285, "lat": 0.4615518, "lon": 42.9726162, "tags": {"place": "hamlet"}}, {"type": "node", "id": 8194119165, "lat": 0.4570607, "lon": 42.8427235, "tags": {"place": "hamlet"}}, {"type": "node", "id": 8194130493, "lat": 0.4550718, "lon": 42.8388287, "tags": {"place": "hamlet"}}, {"type": "node", "id": 8202368859, "lat": 0.3117475, "lon": 42.7504812, "tags": {"place": "isolated_dwelling"}}, {"type": "node", "id": 8203792103, "lat": 0.4057302, "lon": 42.7777458, "tags": {"place": "isolated_dwelling"}}, {"type": "node", "id": 8203792104, "lat": 0.4042656, "lon": 42.7778181, "tags": {"place": "isolated_dwelling"}}, {"type": "node", "id": 8203792105, "lat": 0.4012679, "lon": 42.7791741, "tags": {"place": "isolated_dwelling"}}, {"type": "node", "id": 8203792106, "lat": 0.3999299, "lon": 42.7780857, "tags": {"place": "isolated_dwelling"}}, {"type": "node", "id": 8203792107, "lat": 0.4019369, "lon": 42.7809026, "tags": {"place": "isolated_dwelling"}}, {"type": "node", "id": 8203792108, "lat": 0.4037164, "lon": 42.7797919, "tags": {"place": "hamlet"}}, {"type": "node", "id": 8203793050, "lat": 0.3417229, "lon": 42.7835688, "tags": {"place": "isolated_dwelling"}}, {"type": "node", "id": 8205606419, "lat": 0.3616414, "lon": 42.8249589, "tags": {"place": "isolated_dwelling"}}, {"type": "node", "id": 8205606455, "lat": 0.3175533, "lon": 42.8278327, "tags": {"place": "isolated_dwelling"}}, {"type": "node", "id": 8205660522, "lat": 0.3990216, "lon": 42.7950194, "tags": {"place": "hamlet"}}, {"type": "node", "id": 8205660531, "lat": 0.4035251, "lon": 42.7923437, "tags": {"place": "hamlet"}}, {"type": "node", "id": 8205660546, "lat": 0.4175022, "lon": 42.788952, "tags": {"place": "hamlet"}}, {"type": "node", "id": 8220021409, "lat": 0.4123217, "lon": 42.7848306, "tags": {"place": "hamlet"}}, {"type": "node", "id": 8227482715, "lat": 0.2928718, "lon": 42.8585646, "tags": {"place": "isolated_dwelling"}}, {"type": "node", "id": 8227679594, "lat": 0.322314, "lon": 42.8340974, "tags": {"place": "isolated_dwelling"}}, {"type": "node", "id": 8227679595, "lat": 0.3223167, "lon": 42.8353366, "tags": {"place": "isolated_dwelling"}}, {"type": "node", "id": 8227682901, "lat": 0.4136896, "lon": 42.8005993, "tags": {"place": "isolated_dwelling"}}, {"type": "node", "id": 8227682902, "lat": 0.4066838, "lon": 42.8073853, "tags": {"place": "isolated_dwelling"}}, {"type": "node", "id": 8227682903, "lat": 0.3955905, "lon": 42.8138709, "tags": {"place": "isolated_dwelling"}}, {"type": "node", "id": 8227682904, "lat": 0.3865329, "lon": 42.8053415, "tags": {"place": "isolated_dwelling"}}, {"type": "node", "id": 8227682905, "lat": 0.3881261, "lon": 42.8043678, "tags": {"place": "isolated_dwelling"}}, {"type": "node", "id": 8227682906, "lat": 0.3871659, "lon": 42.8076777, "tags": {"place": "isolated_dwelling"}}, {"type": "node", "id": 8227836470, "lat": 0.3064999, "lon": 42.8403953, "tags": {"place": "isolated_dwelling"}}, {"type": "node", "id": 8227836471, "lat": 0.308187, "lon": 42.840009, "tags": {"place": "isolated_dwelling"}}, {"type": "node", "id": 8227969979, "lat": 0.2913993, "lon": 42.8463042, "tags": {"place": "isolated_dwelling"}}, {"type": "node", "id": 8228026730, "lat": 0.3321388, "lon": 42.7827734, "tags": {"place": "isolated_dwelling"}}, {"type": "node", "id": 8228026731, "lat": 0.3321039, "lon": 42.7815664, "tags": {"place": "isolated_dwelling"}}, {"type": "node", "id": 8232592006, "lat": 0.2580115, "lon": 42.7598378, "tags": {"place": "isolated_dwelling"}}, {"type": "node", "id": 8232592007, "lat": 0.2593526, "lon": 42.7589339, "tags": {"place": "isolated_dwelling"}}, {"type": "node", "id": 8232592008, "lat": 0.2706017, "lon": 42.7535373, "tags": {"place": "isolated_dwelling"}}, {"type": "node", "id": 8234313553, "lat": 0.4218138, "lon": 42.8474253, "tags": {"place": "isolated_dwelling"}}, {"type": "node", "id": 12012247097, "lat": 0.4120951, "lon": 43.0085483, "tags": {"place": "hamlet"}}, {"type": "way", "id": 454694877, "nodes": [4512303216, 4512303217, 4512303218, 4512303219, 4512303220, 4512303221, 4512303222, 4512303223, 4512303224, 4512303216], "tags": {"place": "islet"}}]}