{"version": 0.6, "generator": "Overpass API 0.7.62.1 084b4234", "osm3s": {"timestamp_osm_base": "2024-09-30T23:14:58Z", "copyright": "The data included in this document is from www.openstreetmap.org. The data is made available under ODbL."}, "elements": [{"type": "node", "id": 1150885581, "lat": 4.26667, "lon": 41.46667, "tags": {"is_in:country": "Ethiopia", "is_in:country_code": "ET", "name": "Giarsa", "place": "locality", "source": "GeoDatabase"}}, {"type": "node", "id": 1150885797, "lat": 4.305, "lon": 41.51083, "tags": {"is_in:country": "Ethiopia", "is_in:country_code": "ET", "name": "Duntoi", "place": "locality", "source": "GeoDatabase"}}, {"type": "node", "id": 1150892533, "lat": 4.4, "lon": 41.3, "tags": {"is_in:country": "Ethiopia", "is_in:country_code": "ET", "name": "Ualenzu", "place": "locality", "source": "GeoDatabase"}}, {"type": "node", "id": 1150900979, "lat": 4.33333, "lon": 41.41667, "tags": {"is_in:country": "Ethiopia", "is_in:country_code": "ET", "name": "Usciaga Raidap", "place": "locality", "source": "GeoDatabase"}}, {"type": "node", "id": 1150924308, "lat": 4.5175, "lon": 41.53639, "tags": {"is_in:country": "Ethiopia", "is_in:country_code": "ET", "name": "Bokol Mayo", "place": "locality", "source": "GeoDatabase"}}, {"type": "node", "id": 1150937374, "lat": 4.38333, "lon": 41.48333, "tags": {"is_in:country": "Ethiopia", "is_in:country_code": "ET", "name": "Gunto", "place": "locality", "source": "GeoDatabase"}}, {"type": "node", "id": 1150938835, "lat": 4.39222, "lon": 41.57833, "tags": {"is_in:country": "Ethiopia", "is_in:country_code": "ET", "name": "Curon", "place": "locality", "source": "GeoDatabase"}}, {"type": "node", "id": 7026299530, "lat": 4.3768755, "lon": 41.6726794, "tags": {"name": "Washakbar", "place": "village"}}, {"type": "node", "id": 7026299531, "lat": 4.2408999, "lon": 41.6164021, "tags": {"name": "Biyooly", "place": "village"}}, {"type": "node", "id": 7029056234, "lat": 4.2886254, "lon": 41.5168965, "tags": {"name": "Jarse", "place": "village"}}, {"type": "node", "id": 7169448631, "lat": 4.264543, "lon": 41.6176383, "tags": {"name": "Berjaney", "place": "village"}}, {"type": "node", "id": 7169448632, "lat": 4.2248775, "lon": 41.5845222, "tags": {"name": "Fajaa", "place": "village"}}]}