{"version": 0.6, "generator": "Overpass API 0.7.62.1 084b4234", "osm3s": {"timestamp_osm_base": "2024-09-30T23:34:41Z", "copyright": "The data included in this document is from www.openstreetmap.org. The data is made available under ODbL."}, "elements": [{"type": "node", "id": 1150880678, "lat": 8.45639, "lon": 43.7625, "tags": {"is_in:country_code": "ET", "is_in:county": "Ethiopia", "name": "Iglisali", "place": "locality", "source": "GeoDatabase"}}, {"type": "node", "id": 1150881532, "lat": 8.6, "lon": 43.88333, "tags": {"is_in:country_code": "ET", "is_in:county": "Ethiopia", "name": "Daua Aleh", "place": "locality", "source": "GeoDatabase"}}, {"type": "node", "id": 1150881876, "lat": 8.40917, "lon": 43.80194, "tags": {"is_in:country_code": "ET", "is_in:county": "Ethiopia", "name": "Dea", "place": "locality", "source": "GeoDatabase"}}, {"type": "node", "id": 1150883017, "lat": 8.37194, "lon": 43.61778, "tags": {"is_in:country": "Ethiopia", "is_in:country_code": "ET", "name": "Ul' Kudzhir", "place": "locality", "source": "GeoDatabase"}}, {"type": "node", "id": 1150885422, "lat": 8.49444, "lon": 43.70806, "tags": {"is_in:country": "Ethiopia", "is_in:country_code": "ET", "name": "Derio", "place": "locality", "source": "GeoDatabase"}}, {"type": "node", "id": 1150885428, "lat": 8.48333, "lon": 43.9, "tags": {"is_in:country_code": "ET", "is_in:county": "Ethiopia", "name": "Ghelocar", "place": "locality", "source": "GeoDatabase"}}, {"type": "node", "id": 1150885663, "lat": 8.53333, "lon": 43.71667, "tags": {"is_in:country_code": "ET", "is_in:county": "Ethiopia", "name": "Igleleh", "place": "locality", "source": "GeoDatabase"}}, {"type": "node", "id": 1150898060, "lat": 8.45611, "lon": 43.63167, "tags": {"is_in:country": "Ethiopia", "is_in:country_code": "ET", "name": "Aul Kuddal", "place": "locality", "source": "GeoDatabase"}}, {"type": "node", "id": 1150899490, "lat": 8.65, "lon": 43.83333, "tags": {"is_in:country_code": "ET", "is_in:county": "Ethiopia", "name": "Gol Madohe", "place": "locality", "source": "GeoDatabase"}}, {"type": "node", "id": 1150907934, "lat": 8.54778, "lon": 43.61139, "tags": {"is_in:country": "Ethiopia", "is_in:country_code": "ET", "name": "Dibber Uin", "place": "locality", "source": "GeoDatabase"}}, {"type": "node", "id": 1150911391, "lat": 8.31778, "lon": 43.65083, "tags": {"is_in:country": "Ethiopia", "is_in:country_code": "ET", "name": "Geri Goa", "place": "locality", "source": "GeoDatabase"}}, {"type": "node", "id": 1150916479, "lat": 8.39472, "lon": 43.91861, "tags": {"is_in:country_code": "ET", "is_in:county": "Ethiopia", "name": "Dushiya Milmil", "place": "locality", "source": "GeoDatabase"}}, {"type": "node", "id": 1150924731, "lat": 8.4207176, "lon": 43.8584392, "tags": {"alt_name": "Duscia Milmil", "county": "Ethiopia", "name": "Yoale", "place": "village", "source": "GeoDatabase"}}, {"type": "node", "id": 1150929378, "lat": 8.52917, "lon": 43.64417, "tags": {"is_in:country": "Ethiopia", "is_in:country_code": "ET", "name": "Lankoba", "place": "locality", "source": "GeoDatabase"}}, {"type": "node", "id": 1150936296, "lat": 8.29111, "lon": 43.84611, "tags": {"is_in:country_code": "ET", "is_in:county": "Ethiopia", "name": "Arrauin", "place": "locality", "source": "GeoDatabase", "wikidata": "Q23963283"}}, {"type": "node", "id": 1150938380, "lat": 8.30222, "lon": 43.74555, "tags": {"is_in:country_code": "ET", "is_in:county": "Ethiopia", "name": "Falfal", "place": "locality", "source": "GeoDatabase", "wikidata": "Q24032466"}}, {"type": "node", "id": 1150941734, "lat": 8.54722, "lon": 43.54306, "tags": {"is_in:country": "Ethiopia", "is_in:country_code": "ET", "name": "Arret Lumugu", "place": "locality", "source": "GeoDatabase"}}, {"type": "node", "id": 1150947139, "lat": 8.57944, "lon": 43.84167, "tags": {"is_in:country_code": "ET", "is_in:county": "Ethiopia", "name": "Gel Lokor", "place": "locality", "source": "GeoDatabase"}}, {"type": "node", "id": 1150948683, "lat": 8.35, "lon": 43.82222, "tags": {"is_in:country_code": "ET", "is_in:county": "Ethiopia", "name": "Shibill", "place": "locality", "source": "GeoDatabase", "wikidata": "Q24032467"}}, {"type": "node", "id": 1150958708, "lat": 8.42278, "lon": 43.93361, "tags": {"is_in:country_code": "ET", "is_in:county": "Ethiopia", "name": "Gurei", "place": "locality", "source": "GeoDatabase"}}, {"type": "node", "id": 1150963384, "lat": 8.34306, "lon": 43.53861, "tags": {"is_in:country": "Ethiopia", "is_in:country_code": "ET", "name": "Yu Khun", "place": "locality", "source": "GeoDatabase"}}, {"type": "node", "id": 1151003728, "lat": 8.56222, "lon": 43.55889, "tags": {"is_in:country": "Ethiopia", "is_in:country_code": "ET", "name": "Sablei", "place": "locality", "source": "GeoDatabase"}}, {"type": "node", "id": 3171122892, "lat": 8.4560004, "lon": 43.5532839, "tags": {"name": "Higlaleey", "place": "hamlet"}}, {"type": "node", "id": 3171122894, "lat": 8.4091586, "lon": 43.548811, "tags": {"place": "hamlet"}}, {"type": "node", "id": 3198842865, "lat": 8.4031036, "lon": 43.5430926, "tags": {"place": "hamlet"}}, {"type": "node", "id": 3198842907, "lat": 8.5215736, "lon": 43.5456567, "tags": {"name": "Boodhleey", "place": "hamlet"}}, {"type": "node", "id": 3198842908, "lat": 8.5437169, "lon": 43.535915, "tags": {"place": "hamlet"}}, {"type": "node", "id": 6575402193, "lat": 8.3703085, "lon": 43.5506405, "tags": {"name": "Geedi Aar", "place": "hamlet"}}, {"type": "node", "id": 6575402194, "lat": 8.5283751, "lon": 43.544522, "tags": {"name": "Deka Baxaro", "place": "locality"}}, {"type": "node", "id": 11876903947, "lat": 8.5707546, "lon": 43.848572}, {"type": "node", "id": 11876903948, "lat": 8.5707525, "lon": 43.8488478}, {"type": "node", "id": 11876903949, "lat": 8.5705098, "lon": 43.8489151}, {"type": "node", "id": 11876903950, "lat": 8.5704239, "lon": 43.8486328}, {"type": "node", "id": 11876903951, "lat": 8.570512, "lon": 43.8484461}, {"type": "node", "id": 11876903952, "lat": 8.5706709, "lon": 43.8484808}, {"type": "node", "id": 11876903953, "lat": 8.5707224, "lon": 43.8485373}, {"type": "way", "id": 1279391811, "nodes": [11876903947, 11876903948, 11876903949, 11876903950, 11876903951, 11876903952, 11876903953, 11876903947], "tags": {"building": "house", "place": "isolated_dwelling"}}]}