{"version": 0.6, "generator": "Overpass API 0.7.62.1 084b4234", "osm3s": {"timestamp_osm_base": "2024-09-30T17:07:06Z", "copyright": "The data included in this document is from www.openstreetmap.org. The data is made available under ODbL."}, "elements": [{"type": "node", "id": 44917613, "lat": -0.3833017, "lon": 37.5500034, "tags": {"name": "Rukurire", "place": "village"}}, {"type": "node", "id": 44927263, "lat": -0.4833, "lon": 37.6, "tags": {"is_in": "Embu,Kenya", "name": "Muchumo", "place": "village", "wikidata": "Q6931111"}}, {"type": "node", "id": 44996219, "lat": -0.3666, "lon": 37.5666, "tags": {"name": "Kiangungi", "place": "village"}}, {"type": "node", "id": 44997172, "lat": -0.4333, "lon": 37.6, "tags": {"alt_name": "Kathungure", "is_in": "Embu,Kenya", "name": "Kathanjure", "place": "village"}}, {"type": "node", "id": 44997177, "lat": -0.4, "lon": 37.6, "tags": {"name": "Kathari", "place": "village"}}, {"type": "node", "id": 44997199, "lat": -0.4833, "lon": 37.5833, "tags": {"is_in": "Embu,Kenya", "name": "Kathugu", "place": "village", "wikidata": "Q6377156"}}, {"type": "node", "id": 45000077, "lat": -0.45, "lon": 37.6, "tags": {"is_in": "Embu,Kenya", "name": "Gichera", "place": "village", "wikidata": "Q5559453"}}, {"type": "node", "id": 45000086, "lat": -0.4333, "lon": 37.5833, "tags": {"is_in": "Embu,Kenya", "name": "Gichiche", "place": "village", "wikidata": "Q5559456"}}, {"type": "node", "id": 45002147, "lat": -0.3666, "lon": 37.4833, "tags": {"name": "Githunguri", "place": "village"}}, {"type": "node", "id": 45003878, "lat": -0.4166, "lon": 37.5833, "tags": {"is_in": "Embu,Kenya", "name": "Gakwegore", "place": "village", "wikidata": "Q5517720"}}, {"type": "node", "id": 560742256, "lat": -0.3905838, "lon": 37.5996614, "tags": {"name": "Kathageri", "place": "town"}}, {"type": "node", "id": 611049896, "lat": -0.3518177, "lon": 37.478421, "tags": {"name": "Irangi", "place": "village"}}, {"type": "node", "id": 1416055105, "lat": -0.4509411, "lon": 37.5559212, "tags": {"name": "Runyenjes", "place": "town"}}, {"type": "node", "id": 1533135851, "lat": -0.49633, "lon": 37.278584, "tags": {"name": "Kerugoya", "place": "town", "population": "39441", "wikidata": "Q1021572"}}, {"type": "node", "id": 1892229674, "lat": -0.5426554, "lon": 37.474193}, {"type": "node", "id": 1892229678, "lat": -0.5357056, "lon": 37.4696869}, {"type": "node", "id": 1892229681, "lat": -0.5248914, "lon": 37.4668974}, {"type": "node", "id": 1892229685, "lat": -0.524591, "lon": 37.4477593}, {"type": "node", "id": 1892229688, "lat": -0.5157079, "lon": 37.453894}, {"type": "node", "id": 1892229690, "lat": -0.5486633, "lon": 37.4518792}, {"type": "node", "id": 1892229693, "lat": -0.544372, "lon": 37.4493042}, {"type": "node", "id": 1892229696, "lat": -0.5317576, "lon": 37.4469439}, {"type": "node", "id": 1892229698, "lat": -0.5175961, "lon": 37.4515788}, {"type": "node", "id": 1892229715, "lat": -0.5164374, "lon": 37.4595589}, {"type": "node", "id": 1892229717, "lat": -0.5519247, "lon": 37.4743217}, {"type": "node", "id": 1892229720, "lat": -0.5396086, "lon": 37.447888}, {"type": "node", "id": 1892229723, "lat": -0.5523539, "lon": 37.4578852}, {"type": "node", "id": 1892229726, "lat": -0.5193985, "lon": 37.4647945}, {"type": "node", "id": 1892229729, "lat": -0.5564306, "lon": 37.4705881}, {"type": "node", "id": 1892229732, "lat": -0.5560444, "lon": 37.465052}, {"type": "node", "id": 6115913279, "lat": -0.5469352, "lon": 37.4743174}, {"type": "node", "id": 6221048376, "lat": -0.4166216, "lon": 37.4507427}, {"type": "node", "id": 6221048377, "lat": -0.4164661, "lon": 37.4511316}, {"type": "node", "id": 6221048378, "lat": -0.4172492, "lon": 37.4514642}, {"type": "node", "id": 6221048379, "lat": -0.4173377, "lon": 37.4511691}, {"type": "node", "id": 6950776917, "lat": -0.4609076, "lon": 37.3183188, "tags": {"name": "Gatugura", "place": "village"}}, {"type": "node", "id": 6950776918, "lat": -0.4746967, "lon": 37.3195454, "tags": {"name": "Mukarara", "place": "village"}}, {"type": "node", "id": 6950776919, "lat": -0.5066447, "lon": 37.3202959, "tags": {"name": "Kabare", "place": "village"}}, {"type": "node", "id": 6950801307, "lat": -0.4296774, "lon": 37.3086447, "tags": {"name": "Kimunye", "place": "village"}}, {"type": "way", "id": 178863862, "nodes": [1892229688, 1892229698, 1892229685, 1892229696, 1892229720, 1892229693, 1892229690, 1892229723, 1892229732, 1892229729, 1892229717, 6115913279, 1892229674, 1892229678, 1892229681, 1892229726, 1892229715, 1892229688], "tags": {"is_in": "Eastern Province,Kenya", "landuse": "residential", "name": "Embu", "name:ru": "\u042d\u043c\u0431\u0443", "place": "city"}}, {"type": "way", "id": 664627933, "nodes": [6221048376, 6221048377, 6221048378, 6221048379, 6221048376], "tags": {"place": "village"}}]}