{"version": 0.6, "generator": "Overpass API 0.7.62.1 084b4234", "osm3s": {"timestamp_osm_base": "2024-09-30T21:21:36Z", "copyright": "The data included in this document is from www.openstreetmap.org. The data is made available under ODbL."}, "elements": [{"type": "node", "id": 1404229327, "lat": 0.6284255, "lon": 43.174549, "tags": {"alt_name": "Haramka", "name": "Xaramka", "pcode": "NA-3813-J26-001", "place": "village", "source": "UNDP - 1997"}}, {"type": "node", "id": 1404234147, "lat": 0.6940414, "lon": 43.1612728, "tags": {"name": "Jiirta", "pcode": "NA-3813-H26-001", "place": "hamlet", "source": "UNDP - 1997"}}, {"type": "node", "id": 11243485432, "lat": 0.7024747, "lon": 43.1715893, "tags": {"place": "isolated_dwelling"}}, {"type": "node", "id": 11243485433, "lat": 0.7026492, "lon": 43.1732431, "tags": {"place": "isolated_dwelling"}}, {"type": "node", "id": 11243816096, "lat": 0.6173628, "lon": 43.1702399, "tags": {"place": "isolated_dwelling"}}, {"type": "node", "id": 11243818045, "lat": 0.5043775, "lon": 43.1530201, "tags": {"place": "isolated_dwelling"}}, {"type": "node", "id": 11250735321, "lat": 0.6364483, "lon": 43.1736731, "tags": {"place": "hamlet"}}, {"type": "node", "id": 11250735498, "lat": 0.6854994, "lon": 43.1372493, "tags": {"place": "isolated_dwelling"}}, {"type": "node", "id": 11252614156, "lat": 0.6311898, "lon": 43.1711265, "tags": {"place": "hamlet"}}, {"type": "node", "id": 12012247073, "lat": 0.4765158, "lon": 43.1030345, "tags": {"place": "village"}}, {"type": "node", "id": 12012435283, "lat": 0.6304834, "lon": 43.3735567, "tags": {"place": "hamlet"}}]}