{"version": 0.6, "generator": "Overpass API 0.7.62.1 084b4234", "osm3s": {"timestamp_osm_base": "2024-10-01T00:27:28Z", "copyright": "The data included in this document is from www.openstreetmap.org. The data is made available under ODbL."}, "elements": [{"type": "node", "id": 1150885170, "lat": 6.58333, "lon": 37.4, "tags": {"is_in:country": "Ethiopia", "is_in:country_code": "ET", "name": "Lade", "place": "locality", "source": "GeoDatabase"}}, {"type": "node", "id": 1150885459, "lat": 6.81667, "lon": 37.43333, "tags": {"is_in:country": "Ethiopia", "is_in:country_code": "ET", "name": "Dawe Bota", "place": "locality", "source": "GeoDatabase"}}, {"type": "node", "id": 1150888679, "lat": 6.61667, "lon": 37.36667, "tags": {"is_in:country": "Ethiopia", "is_in:country_code": "ET", "name": "Bole", "place": "locality", "source": "GeoDatabase"}}, {"type": "node", "id": 1150889188, "lat": 6.7454075, "lon": 37.3518368, "tags": {"is_in:country": "Ethiopia", "is_in:country_code": "ET", "name": "Bosa", "place": "locality", "source": "GeoDatabase"}}, {"type": "node", "id": 1150890838, "lat": 6.51667, "lon": 37.4, "tags": {"is_in:country": "Ethiopia", "is_in:country_code": "ET", "name": "Bohe", "place": "locality", "source": "GeoDatabase"}}, {"type": "node", "id": 1150890983, "lat": 6.55, "lon": 37.35, "tags": {"is_in:country": "Ethiopia", "is_in:country_code": "ET", "name": "Gine", "place": "locality", "source": "GeoDatabase"}}, {"type": "node", "id": 1150897992, "lat": 6.65, "lon": 37.36667, "tags": {"is_in:country": "Ethiopia", "is_in:country_code": "ET", "name": "Cuccia", "place": "locality", "source": "GeoDatabase"}}, {"type": "node", "id": 1150899205, "lat": 6.66667, "lon": 37.23333, "tags": {"is_in:country": "Ethiopia", "is_in:country_code": "ET", "name": "Denie", "place": "locality", "source": "GeoDatabase"}}, {"type": "node", "id": 1150907419, "lat": 6.58333, "lon": 37.41667, "tags": {"is_in:country": "Ethiopia", "is_in:country_code": "ET", "name": "Uoide", "place": "locality", "source": "GeoDatabase"}}, {"type": "node", "id": 1150908123, "lat": 6.81667, "lon": 37.51667, "tags": {"is_in:country": "Ethiopia", "is_in:country_code": "ET", "name": "Kodo Bota", "place": "locality", "source": "GeoDatabase"}}, {"type": "node", "id": 1150915517, "lat": 6.71667, "lon": 37.43333, "tags": {"is_in:country": "Ethiopia", "is_in:country_code": "ET", "name": "Manisa", "place": "locality", "source": "GeoDatabase", "wikidata": "Q23961630"}}, {"type": "node", "id": 1150917000, "lat": 6.71667, "lon": 37.38333, "tags": {"is_in:country": "Ethiopia", "is_in:country_code": "ET", "name": "Ofa", "place": "locality", "source": "GeoDatabase"}}, {"type": "node", "id": 1150920474, "lat": 6.6, "lon": 37.38333, "tags": {"is_in:country": "Ethiopia", "is_in:country_code": "ET", "name": "Doghe", "place": "locality", "source": "GeoDatabase"}}, {"type": "node", "id": 1150925885, "lat": 6.71667, "lon": 37.31666, "tags": {"is_in:country": "Ethiopia", "is_in:country_code": "ET", "name": "Buro", "place": "locality", "source": "GeoDatabase"}}, {"type": "node", "id": 1150929227, "lat": 6.75, "lon": 37.28333, "tags": {"is_in:country": "Ethiopia", "is_in:country_code": "ET", "name": "Suntana", "place": "locality", "source": "GeoDatabase"}}, {"type": "node", "id": 1150934947, "lat": 6.83333, "lon": 37.25, "tags": {"is_in:country": "Ethiopia", "is_in:country_code": "ET", "name": "Koysha Terara", "place": "locality", "source": "GeoDatabase"}}, {"type": "node", "id": 1150935234, "lat": 6.66667, "lon": 37.4, "tags": {"is_in:country": "Ethiopia", "is_in:country_code": "ET", "name": "Medalcho (2)", "place": "locality", "source": "GeoDatabase"}}, {"type": "node", "id": 1150941407, "lat": 6.68333, "lon": 37.28333, "tags": {"is_in:country": "Ethiopia", "is_in:country_code": "ET", "name": "Uaca", "place": "locality", "source": "GeoDatabase"}}, {"type": "node", "id": 1150941914, "lat": 6.6, "lon": 37.23333, "tags": {"is_in:country": "Ethiopia", "is_in:country_code": "ET", "name": "Bundesi", "place": "locality", "source": "GeoDatabase"}}, {"type": "node", "id": 1150946441, "lat": 6.58333, "lon": 37.48333, "tags": {"is_in:country": "Ethiopia", "is_in:country_code": "ET", "name": "Agume", "place": "locality", "source": "GeoDatabase"}}, {"type": "node", "id": 1150946859, "lat": 6.51667, "lon": 37.41667, "tags": {"is_in:country": "Ethiopia", "is_in:country_code": "ET", "name": "Yele", "place": "locality", "source": "GeoDatabase"}}, {"type": "node", "id": 1150958461, "lat": 6.56667, "lon": 37.43333, "tags": {"is_in:country": "Ethiopia", "is_in:country_code": "ET", "name": "Welimera", "place": "locality", "source": "GeoDatabase"}}, {"type": "node", "id": 1150959074, "lat": 6.76667, "lon": 37.43333, "tags": {"is_in:country": "Ethiopia", "is_in:country_code": "ET", "name": "Dabo Bota", "place": "locality", "source": "GeoDatabase"}}, {"type": "node", "id": 1150970340, "lat": 6.71667, "lon": 37.36667, "tags": {"is_in:country": "Ethiopia", "is_in:country_code": "ET", "name": "Mendida", "place": "locality", "source": "GeoDatabase"}}, {"type": "node", "id": 1150973446, "lat": 6.51667, "lon": 37.35, "tags": {"is_in:country": "Ethiopia", "is_in:country_code": "ET", "name": "Kewch'Eno", "place": "locality", "source": "GeoDatabase"}}, {"type": "node", "id": 1150978842, "lat": 6.63333, "lon": 37.46667, "tags": {"is_in:country": "Ethiopia", "is_in:country_code": "ET", "name": "Weyo", "place": "locality", "source": "GeoDatabase"}}, {"type": "node", "id": 1151003647, "lat": 6.65, "lon": 37.35, "tags": {"is_in:country": "Ethiopia", "is_in:country_code": "ET", "name": "Medalcho (1)", "place": "locality", "source": "GeoDatabase"}}, {"type": "node", "id": 3921947114, "lat": 6.8095486, "lon": 37.3727864}, {"type": "node", "id": 3921947115, "lat": 6.8100919, "lon": 37.3741275}, {"type": "node", "id": 3921947116, "lat": 6.8110933, "lon": 37.3749107}, {"type": "node", "id": 3921947117, "lat": 6.811349, "lon": 37.3755008}, {"type": "node", "id": 3921947118, "lat": 6.8110613, "lon": 37.3766273}, {"type": "node", "id": 3921947119, "lat": 6.8108483, "lon": 37.377035}, {"type": "node", "id": 3921947120, "lat": 6.809783, "lon": 37.3774641}, {"type": "node", "id": 3921947121, "lat": 6.8093462, "lon": 37.377153}, {"type": "node", "id": 3921947122, "lat": 6.8077269, "lon": 37.3760372}, {"type": "node", "id": 3921947123, "lat": 6.8072475, "lon": 37.3756402}, {"type": "node", "id": 3921947124, "lat": 6.8064911, "lon": 37.3750716}, {"type": "node", "id": 3921947125, "lat": 6.8077376, "lon": 37.3738592}, {"type": "node", "id": 9423739778, "lat": 6.5933436, "lon": 37.405074, "tags": {"place": "village"}}, {"type": "node", "id": 11688069260, "lat": 6.8093402, "lon": 37.3745257, "tags": {"name": "Gocho", "place": "town"}}, {"type": "node", "id": 11688069261, "lat": 6.8032465, "lon": 37.3511369, "tags": {"name": "Zaro", "place": "town"}}, {"type": "node", "id": 11688069262, "lat": 6.7533865, "lon": 37.3423178, "tags": {"name": "Halale", "place": "town", "wikidata": "Q108739400", "wikipedia": "en:Halale"}}, {"type": "node", "id": 11688069263, "lat": 6.7858174, "lon": 37.4737675, "tags": {"name": "Lasho", "place": "town", "wikidata": "Q109775447", "wikipedia": "en:Lasho"}}, {"type": "node", "id": 11688069264, "lat": 6.7672371, "lon": 37.4033219, "tags": {"name": "Wamura", "place": "town", "wikidata": "Q122287423", "wikipedia": "en:Wamura"}}, {"type": "node", "id": 11772258859, "lat": 6.7486044, "lon": 37.3564568, "tags": {"name": "Siime", "place": "village"}}, {"type": "way", "id": 389031018, "nodes": [3921947114, 3921947115, 3921947116, 3921947117, 3921947118, 3921947119, 3921947120, 3921947121, 3921947122, 3921947123, 3921947124, 3921947125, 3921947114], "tags": {"name": "Gocho", "place": "town"}}]}