{"version": 0.6, "generator": "Overpass API 0.7.62.1 084b4234", "osm3s": {"timestamp_osm_base": "2024-09-30T23:46:51Z", "copyright": "The data included in this document is from www.openstreetmap.org. The data is made available under ODbL."}, "elements": [{"type": "node", "id": 1150885709, "lat": 4.48333, "lon": 39.15, "tags": {"is_in:country": "Ethiopia", "is_in:country_code": "ET", "name": "Dumbulla Bund", "place": "locality", "source": "GeoDatabase"}}, {"type": "node", "id": 1150889340, "lat": 4.31667, "lon": 39.33333, "tags": {"is_in:country": "Ethiopia", "is_in:country_code": "ET", "name": "Daggauata", "place": "locality", "source": "GeoDatabase"}}, {"type": "node", "id": 1150908135, "lat": 4.26667, "lon": 39.11667, "tags": {"is_in:country": "Ethiopia", "is_in:country_code": "ET", "name": "Gilbabo", "place": "locality", "source": "GeoDatabase"}}, {"type": "node", "id": 1150909102, "lat": 4.53333, "lon": 39.18333, "tags": {"is_in:country": "Ethiopia", "is_in:country_code": "ET", "name": "Gurbi Terara", "place": "locality", "source": "GeoDatabase"}}, {"type": "node", "id": 1150926567, "lat": 4.26667, "lon": 39.18333, "tags": {"is_in:country": "Ethiopia", "is_in:country_code": "ET", "name": "Coggia", "place": "locality", "source": "GeoDatabase"}}, {"type": "node", "id": 1150936531, "lat": 4.48333, "lon": 39.41667, "tags": {"is_in:country": "Ethiopia", "is_in:country_code": "ET", "name": "Jebel Okoto", "place": "locality", "source": "GeoDatabase"}}, {"type": "node", "id": 1150947504, "lat": 4.33333, "lon": 39.13333, "tags": {"is_in:country": "Ethiopia", "is_in:country_code": "ET", "name": "Borguddo", "place": "locality", "source": "GeoDatabase"}}, {"type": "node", "id": 1150970936, "lat": 4.16667, "lon": 39.25, "tags": {"is_in:country": "Ethiopia", "is_in:country_code": "ET", "name": "Ciurriheilo", "place": "locality", "source": "GeoDatabase"}}, {"type": "node", "id": 2083627103, "lat": 4.5128971, "lon": 39.5080801, "tags": {"place": "village"}}, {"type": "node", "id": 2083627312, "lat": 4.5351542, "lon": 39.3717268, "tags": {"place": "village"}}]}