{"version": 0.6, "generator": "Overpass API 0.7.62.1 084b4234", "osm3s": {"timestamp_osm_base": "2024-09-30T21:28:45Z", "copyright": "The data included in this document is from www.openstreetmap.org. The data is made available under ODbL."}, "elements": [{"type": "node", "id": 1150881528, "lat": 12.035, "lon": 41.00167, "tags": {"is_in:country_code": "ET", "is_in:county": "Ethiopia", "name": "Orma Shet'", "place": "locality", "source": "GeoDatabase"}}, {"type": "node", "id": 1150883388, "lat": 12.05, "lon": 40.81666, "tags": {"is_in:country_code": "ET", "is_in:county": "Ethiopia", "name": "Lemoo", "place": "locality", "source": "GeoDatabase"}}, {"type": "node", "id": 1150883431, "lat": 12.25, "lon": 41.1, "tags": {"is_in:country_code": "ET", "is_in:county": "Ethiopia", "name": "Radaih", "place": "locality", "source": "GeoDatabase"}}, {"type": "node", "id": 1150888246, "lat": 12.05, "lon": 40.8, "tags": {"is_in:country_code": "ET", "is_in:county": "Ethiopia", "name": "Made Biru", "place": "locality", "source": "GeoDatabase"}}, {"type": "node", "id": 1150890201, "lat": 12.2, "lon": 41.16667, "tags": {"is_in:country_code": "ET", "is_in:county": "Ethiopia", "name": "Sigarita", "place": "locality", "source": "GeoDatabase"}}, {"type": "node", "id": 1150891113, "lat": 12.24694, "lon": 40.97917, "tags": {"is_in:country_code": "ET", "is_in:county": "Ethiopia", "name": "Burka Derek' Hayk'", "place": "locality", "source": "GeoDatabase"}}, {"type": "node", "id": 1150899873, "lat": 11.96667, "lon": 40.95, "tags": {"is_in:country_code": "ET", "is_in:county": "Ethiopia", "name": "Loma Isate Gemora Yefelek'Ebet Gudgwad", "place": "locality", "source": "GeoDatabase"}}, {"type": "node", "id": 1150907240, "lat": 12.00889, "lon": 41.02305, "tags": {"is_in:country_code": "ET", "is_in:county": "Ethiopia", "name": "Seha Meda", "place": "locality", "source": "GeoDatabase"}}, {"type": "node", "id": 1150909463, "lat": 11.96472, "lon": 41.01444, "tags": {"is_in:country_code": "ET", "is_in:county": "Ethiopia", "name": "Bilo Lava Area", "place": "locality", "source": "GeoDatabase"}}, {"type": "node", "id": 1150912688, "lat": 11.98333, "lon": 40.85, "tags": {"is_in:country_code": "ET", "is_in:county": "Ethiopia", "name": "Monte Orma", "place": "locality", "source": "GeoDatabase"}}, {"type": "node", "id": 1150922988, "lat": 12.27, "lon": 40.98194, "tags": {"is_in:country_code": "ET", "is_in:county": "Ethiopia", "name": "Li'I Shet'", "place": "locality", "source": "GeoDatabase"}}, {"type": "node", "id": 1150943052, "lat": 12.3, "lon": 41.08333, "tags": {"is_in:country_code": "ET", "is_in:county": "Ethiopia", "name": "Monte Assa", "place": "locality", "source": "GeoDatabase"}}, {"type": "node", "id": 1150947031, "lat": 12.26667, "lon": 41.13333, "tags": {"is_in:country_code": "ET", "is_in:county": "Ethiopia", "name": "Guia", "place": "locality", "source": "GeoDatabase"}}, {"type": "node", "id": 1150955366, "lat": 12.11667, "lon": 40.8, "tags": {"is_in:country_code": "ET", "is_in:county": "Ethiopia", "name": "Colle Di Chille", "place": "locality", "source": "GeoDatabase"}}, {"type": "node", "id": 1150956426, "lat": 11.95, "lon": 40.88333, "tags": {"is_in:country_code": "ET", "is_in:county": "Ethiopia", "name": "Loma", "place": "locality", "source": "GeoDatabase"}}, {"type": "node", "id": 1150958011, "lat": 12.01583, "lon": 40.95028, "tags": {"is_in:country_code": "ET", "is_in:county": "Ethiopia", "name": "Seha Derek' Hayk'", "place": "locality", "source": "GeoDatabase"}}, {"type": "node", "id": 1150958243, "lat": 11.98667, "lon": 40.94305, "tags": {"is_in:country_code": "ET", "is_in:county": "Ethiopia", "name": "Gewlo", "place": "locality", "source": "GeoDatabase"}}, {"type": "node", "id": 1150960806, "lat": 12.00667, "lon": 40.81666, "tags": {"is_in:country_code": "ET", "is_in:county": "Ethiopia", "name": "Otale Isate Gemora", "place": "locality", "source": "GeoDatabase"}}, {"type": "node", "id": 1150969618, "lat": 11.96722, "lon": 40.94722, "tags": {"is_in:country_code": "ET", "is_in:county": "Ethiopia", "name": "Loma Yech'Ew Hayk'", "place": "locality", "source": "GeoDatabase"}}, {"type": "node", "id": 1150972545, "lat": 12.2, "lon": 41.15, "tags": {"is_in:country_code": "ET", "is_in:county": "Ethiopia", "name": "Asso", "place": "locality", "source": "GeoDatabase"}}, {"type": "node", "id": 1150980209, "lat": 12.21667, "lon": 40.98333, "tags": {"is_in:country_code": "ET", "is_in:county": "Ethiopia", "name": "Monte Gaddaelo", "place": "locality", "source": "GeoDatabase"}}, {"type": "node", "id": 1151004398, "lat": 12.3, "lon": 41.1, "tags": {"is_in:country_code": "ET", "is_in:county": "Ethiopia", "name": "Ascoli", "place": "locality", "source": "GeoDatabase"}}, {"type": "node", "id": 1151005019, "lat": 12.10194, "lon": 40.80805, "tags": {"is_in:country_code": "ET", "is_in:county": "Ethiopia", "name": "Andale Kure", "place": "locality", "source": "GeoDatabase"}}]}