{"version": 0.6, "generator": "Overpass API 0.7.62.1 084b4234", "osm3s": {"timestamp_osm_base": "2024-09-30T20:45:58Z", "copyright": "The data included in this document is from www.openstreetmap.org. The data is made available under ODbL."}, "elements": [{"type": "node", "id": 1401889320, "lat": 2.64608, "lon": 43.83562, "tags": {"alt_name": "Buur Geydinie", "ele": "265", "gns:modify_date": "2011-06-30", "gns:name:generic": "Buur", "gns:name:variants": "Bur Gheiden;Buur Geydinie", "gns:type": "HLL", "gns:ufi": "11235255", "name": "Buur Geydinle", "place": "locality", "source": "GNS"}}, {"type": "node", "id": 1404221510, "lat": 2.34468, "lon": 43.58104, "tags": {"name": "Goley Yarey", "pcode": "NA-3806-R02-003", "place": "village", "source": "UNDP - 2006"}}, {"type": "node", "id": 1404221870, "lat": 2.44082, "lon": 43.54473, "tags": {"name": "Kuunyo-Burow", "pcode": "NA-3806-P01-003", "place": "hamlet", "source": "UNDP - 2006"}}, {"type": "node", "id": 1404222057, "lat": 2.37807, "lon": 43.7892, "tags": {"name": "Mad Shantaay", "pcode": "NA-3806-Q07-001", "place": "hamlet", "source": "UNDP - 2006"}}, {"type": "node", "id": 1404222227, "lat": 2.42576, "lon": 43.56241, "tags": {"name": "Adaanow", "pcode": "NA-3806-P02-001", "place": "village", "source": "UNDP - 2006"}}, {"type": "node", "id": 1404222349, "lat": 2.4240899, "lon": 43.7682546, "tags": {"name": "Buraaga", "pcode": "NA-3806-P06-001", "place": "village", "source": "UNDP - 2006"}}, {"type": "node", "id": 1404222950, "lat": 2.4014414, "lon": 43.781345, "tags": {"name": "Daroy", "pcode": "NA-3806-Q07-002", "place": "village", "source": "UNDP - 2006"}}, {"type": "node", "id": 1404223062, "lat": 2.43241, "lon": 43.55571, "tags": {"name": "Diribquuy", "pcode": "NA-3806-P02-002", "place": "village", "source": "UNDP - 2006"}}, {"type": "node", "id": 1404223107, "lat": 2.35052, "lon": 43.5732, "tags": {"name": "Bulul Wiin", "pcode": "NA-3806-R02-004", "place": "village", "source": "UNDP - 2006"}}, {"type": "node", "id": 1404223122, "lat": 2.3176, "lon": 43.56929, "tags": {"alt_name": "Dodole", "name": "Doodaale", "pcode": "NA-3806-S02-001", "place": "village", "source": "UNDP - 2006, UNDP - 1997"}}, {"type": "node", "id": 1404223460, "lat": 2.66794, "lon": 43.6509, "tags": {"alt_name": "Irwarka", "name": "Buulo Jadiid", "pcode": "NA-3806-H04-001", "place": "village", "source": "UNDP - 2006, UNDP - 1997"}}, {"type": "node", "id": 1404223810, "lat": 2.68627, "lon": 43.64973, "tags": {"name": "Buulo Agoon", "pcode": "NA-3806-H04-002", "place": "village", "source": "UNDP - 2006"}}, {"type": "node", "id": 1404223907, "lat": 2.37171, "lon": 43.56598, "tags": {"name": "Dheen Aw-Ebdi-Aliyow", "pcode": "NA-3806-R02-007", "place": "village", "source": "UNDP - 2006"}}, {"type": "node", "id": 1404224077, "lat": 2.6887182, "lon": 43.6513151, "tags": {"name": "Dafaad", "pcode": "NA-3806-H04-003", "place": "village", "source": "UNDP - 2006"}}, {"type": "node", "id": 1404224832, "lat": 2.34465, "lon": 43.765259, "tags": {"name": "Afaalo", "pcode": "NA-3806-R06-001", "place": "village", "source": "UNDP - 1997"}}, {"type": "node", "id": 1404224961, "lat": 2.3294, "lon": 43.767502, "tags": {"name": "Weelbisigle", "pcode": "NA-3806-S06-001", "place": "village", "source": "UNDP - 1997"}}, {"type": "node", "id": 1404224984, "lat": 2.4261444, "lon": 43.7627899, "tags": {"name": "Miskoron", "pcode": "NA-3806-P06-002", "place": "village", "source": "UNDP - 2006"}}, {"type": "node", "id": 1404225635, "lat": 2.34215, "lon": 43.5837, "tags": {"alt_name": "Gollay", "name": "Goley Wiine", "pcode": "NA-3806-R02-002", "place": "village", "source": "UNDP - 2006, UNDP - 1997"}}, {"type": "node", "id": 1404225646, "lat": 2.36515, "lon": 43.57269, "tags": {"name": "Dheen Aw-Roobow", "pcode": "NA-3806-R02-006", "place": "village", "source": "UNDP - 2006"}}, {"type": "node", "id": 1404226646, "lat": 2.35288, "lon": 43.55474, "tags": {"name": "Misaari", "pcode": "NA-3806-R02-001", "place": "village", "source": "UNDP - 2006"}}, {"type": "node", "id": 1404228401, "lat": 2.4470812, "lon": 43.761785, "tags": {"name": "Cali Saboy", "pcode": "NA-3806-P06-003", "place": "village", "source": "UNDP - 2006"}}, {"type": "node", "id": 1404229135, "lat": 2.68753, "lon": 43.63017, "tags": {"name": "Fuurka", "pcode": "NA-3806-H03-001", "place": "village", "source": "UNDP - 2006"}}, {"type": "node", "id": 1404230386, "lat": 2.3509582, "lon": 43.8256247, "tags": {"alt_name": "Laabay", "name": "Labeey \u0644\u0628\u064a\u064a", "name:ar": "\u0644\u0628\u064a\u064a", "name:en": "Labeey", "pcode": "NA-3806-R08-001", "place": "village", "source": "UNDP - 2006, UNDP - 1997"}}, {"type": "node", "id": 1404230975, "lat": 2.46193, "lon": 43.77525, "tags": {"alt_name": "Ceel Bisiq Cadde", "name": "Bisig Adde", "pcode": "NA-3806-N07-001", "place": "village", "source": "UNDP - 2006, UNDP - 1997, FSAU"}}, {"type": "node", "id": 1404231475, "lat": 2.35572, "lon": 43.56104, "tags": {"name": "Makaadi", "pcode": "NA-3806-R02-005", "place": "village", "source": "UNDP - 2006"}}, {"type": "node", "id": 1404233127, "lat": 2.41553, "lon": 43.742661, "tags": {"name": "War Aaw Kheero", "pcode": "NA-3806-Q06-001", "place": "village", "source": "UNDP - 1997"}}, {"type": "node", "id": 1404233374, "lat": 2.6740204, "lon": 43.9190175, "tags": {"name": "Bukaar Eber", "pcode": "NA-3806-H10-003", "place": "hamlet", "source": "UNDP - 2006"}}, {"type": "node", "id": 2208333091, "lat": 2.6366011, "lon": 43.6293816, "tags": {"alt_name": "Baay", "name": "\u0628\u0627\u064a Bay", "name:ar": "\u0628\u0627\u064a", "name:en": "Bay", "name:fr": "Bay", "name:hu": "Bay", "name:ko": "\ubc14\uc774", "place": "region", "wikidata": "Q812064", "wikipedia": "ar:\u0628\u0627\u064a (\u0627\u0644\u0635\u0648\u0645\u0627\u0644)"}}, {"type": "node", "id": 6286397446, "lat": 2.55, "lon": 43.883333, "tags": {"name": "Uel Biad", "place": "locality", "source": "UNSOA III: E043N02_08, SPOT5 image based data capture using different Ancillary Sources coming from UNSOA field mission", "source:date": "2007-02-17"}}, {"type": "node", "id": 6286397447, "lat": 2.55, "lon": 43.916667, "tags": {"name": "Elai", "place": "locality", "source": "UNSOA III: E043N02_08, SPOT5 image based data capture using different Ancillary Sources coming from UNSOA field mission", "source:date": "2007-02-17"}}, {"type": "node", "id": 6286397448, "lat": 2.61681, "lon": 43.75687, "tags": {"name": "Bur Samhamdu", "place": "locality", "source": "UNSOA III: E043N02_08, SPOT5 image based data capture using different Ancillary Sources coming from UNSOA field mission", "source:date": "2007-02-17"}}, {"type": "node", "id": 6286397450, "lat": 2.6466435, "lon": 43.8315076, "tags": {"name": "Bulh Geydinle", "place": "locality", "source": "UNSOA III: E043N02_08, SPOT5 image based data capture using different Ancillary Sources coming from UNSOA field mission", "source:date": "2007-02-17"}}, {"type": "node", "id": 6310421152, "lat": 2.6559587, "lon": 43.9194694, "tags": {"place": "isolated_dwelling"}}, {"type": "node", "id": 7701440561, "lat": 2.5205516, "lon": 43.8138601, "tags": {"place": "hamlet"}}, {"type": "node", "id": 7701666711, "lat": 2.651779, "lon": 43.9168489, "tags": {"place": "hamlet"}}, {"type": "node", "id": 7701666712, "lat": 2.6545735, "lon": 43.9180693, "tags": {"place": "hamlet"}}, {"type": "node", "id": 7701666713, "lat": 2.6542091, "lon": 43.9138743, "tags": {"name": "Hagaray", "pcode": "NA-3806-J10-005", "place": "village"}}, {"type": "node", "id": 7701666714, "lat": 2.6650068, "lon": 43.9132896, "tags": {"name": "Shibelle", "pcode": "NA-3806-J10-006", "place": "village", "source": "UNDP - 2006"}}, {"type": "node", "id": 7701666715, "lat": 2.6708128, "lon": 43.9140058, "tags": {"place": "hamlet"}}, {"type": "node", "id": 7701666716, "lat": 2.6829125, "lon": 43.9248419, "tags": {"place": "hamlet", "source": "UNSOA III: E043N02_08, SPOT5 image based data capture using different Ancillary Sources coming from UNSOA field mission", "source:date": "2007-02-17"}}, {"type": "node", "id": 7716599560, "lat": 2.6521929, "lon": 43.9137711, "tags": {"place": "hamlet"}}]}