{"version": 0.6, "generator": "Overpass API 0.7.62.1 084b4234", "osm3s": {"timestamp_osm_base": "2024-09-30T22:18:58Z", "copyright": "The data included in this document is from www.openstreetmap.org. The data is made available under ODbL."}, "elements": [{"type": "node", "id": 458784179, "lat": 7.2562027, "lon": 40.4681257, "tags": {"name": "Delosebro", "place": "town", "source": "landsat"}}, {"type": "node", "id": 458784180, "lat": 7.2255767, "lon": 40.4148601, "tags": {"name": "Abodona", "place": "village", "source": "Digital Globe"}}, {"type": "node", "id": 1150626042, "lat": 7.3679396, "lon": 40.498317, "tags": {"name": "Jara", "place": "town", "source": "300TDI"}}, {"type": "node", "id": 1150880937, "lat": 7.18333, "lon": 40.65, "tags": {"is_in:country": "Ethiopia", "is_in:country_code": "ET", "name": "Sabro", "place": "locality", "source": "GeoDatabase"}}, {"type": "node", "id": 1150882671, "lat": 7.45, "lon": 40.6, "tags": {"is_in:country": "Ethiopia", "is_in:country_code": "ET", "name": "Guri", "place": "locality", "source": "GeoDatabase"}}, {"type": "node", "id": 1150883817, "lat": 7.21667, "lon": 40.55, "tags": {"is_in:country": "Ethiopia", "is_in:country_code": "ET", "name": "Cabana", "place": "locality", "source": "GeoDatabase"}}, {"type": "node", "id": 1150887588, "lat": 7.25, "lon": 40.46667, "tags": {"is_in:country": "Ethiopia", "is_in:country_code": "ET", "name": "Uara Combo", "place": "locality", "source": "GeoDatabase"}}, {"type": "node", "id": 1150892201, "lat": 7.4, "lon": 40.31666, "tags": {"is_in:country": "Ethiopia", "is_in:country_code": "ET", "name": "Birbisa", "place": "locality", "source": "GeoDatabase"}}, {"type": "node", "id": 1150893016, "lat": 7.56667, "lon": 40.33333, "tags": {"is_in:country": "Ethiopia", "is_in:country_code": "ET", "name": "Barsho Shet'", "place": "locality", "source": "GeoDatabase"}}, {"type": "node", "id": 1150898720, "lat": 7.33333, "lon": 40.53333, "tags": {"is_in:country": "Ethiopia", "is_in:country_code": "ET", "name": "K'Et'Iba", "place": "locality", "source": "GeoDatabase"}}, {"type": "node", "id": 1150902050, "lat": 7.48333, "lon": 40.5, "tags": {"is_in:country": "Ethiopia", "is_in:country_code": "ET", "name": "Mount Abinas", "place": "locality", "source": "GeoDatabase"}}, {"type": "node", "id": 1150904452, "lat": 7.56667, "lon": 40.35, "tags": {"is_in:country": "Ethiopia", "is_in:country_code": "ET", "name": "Hadido", "place": "locality", "source": "GeoDatabase"}}, {"type": "node", "id": 1150912957, "lat": 7.3, "lon": 40.45, "tags": {"is_in:country": "Ethiopia", "is_in:country_code": "ET", "name": "Sebro Bota", "place": "locality", "source": "GeoDatabase"}}, {"type": "node", "id": 1150922258, "lat": 7.35, "lon": 40.46667, "tags": {"is_in:country": "Ethiopia", "is_in:country_code": "ET", "name": "Arablig", "place": "locality", "source": "GeoDatabase"}}, {"type": "node", "id": 1150923766, "lat": 7.25, "lon": 40.36667, "tags": {"is_in:country": "Ethiopia", "is_in:country_code": "ET", "name": "Abodona", "place": "locality", "source": "GeoDatabase"}}, {"type": "node", "id": 1150926736, "lat": 7.16667, "lon": 40.35, "tags": {"is_in:country": "Ethiopia", "is_in:country_code": "ET", "name": "Bare Bota", "place": "locality", "source": "GeoDatabase"}}, {"type": "node", "id": 1150933802, "lat": 7.33333, "lon": 40.66667, "tags": {"is_in:country": "Ethiopia", "is_in:country_code": "ET", "name": "Sek'Aso", "place": "locality", "source": "GeoDatabase"}}, {"type": "node", "id": 1150935197, "lat": 7.38333, "lon": 40.46667, "tags": {"is_in:country": "Ethiopia", "is_in:country_code": "ET", "name": "Gololcha Bota", "place": "locality", "source": "GeoDatabase"}}, {"type": "node", "id": 1150938836, "lat": 7.51667, "lon": 40.48333, "tags": {"is_in:country": "Ethiopia", "is_in:country_code": "ET", "name": "Abol K'Asim Terara", "place": "locality", "source": "GeoDatabase"}}, {"type": "node", "id": 1150956587, "lat": 7.21667, "lon": 40.5, "tags": {"is_in:country": "Ethiopia", "is_in:country_code": "ET", "name": "Daalota", "place": "locality", "source": "GeoDatabase"}}, {"type": "node", "id": 1150966152, "lat": 7.38333, "lon": 40.43333, "tags": {"is_in:country": "Ethiopia", "is_in:country_code": "ET", "name": "Tamamo", "place": "locality", "source": "GeoDatabase"}}, {"type": "node", "id": 1150976545, "lat": 7.35, "lon": 40.35, "tags": {"is_in:country": "Ethiopia", "is_in:country_code": "ET", "name": "Accuba", "place": "locality", "source": "GeoDatabase"}}, {"type": "node", "id": 1150978710, "lat": 7.45, "lon": 40.38333, "tags": {"is_in:country": "Ethiopia", "is_in:country_code": "ET", "name": "Sof `Umer", "place": "locality", "source": "GeoDatabase"}}, {"type": "node", "id": 1984749006, "lat": 7.2696239, "lon": 40.5782669, "tags": {"place": "village"}}, {"type": "node", "id": 3142017585, "lat": 7.4426563, "lon": 40.6736711, "tags": {"place": "village"}}, {"type": "node", "id": 3142704011, "lat": 7.2789597, "lon": 40.6738275, "tags": {"place": "village"}}, {"type": "node", "id": 3142704100, "lat": 7.2536088, "lon": 40.6022238, "tags": {"place": "village"}}, {"type": "node", "id": 3142704555, "lat": 7.2733809, "lon": 40.6437884, "tags": {"place": "village"}}, {"type": "node", "id": 3303074380, "lat": 7.2499313, "lon": 40.6802571, "tags": {"place": "hamlet"}}]}