{"version": 0.6, "generator": "Overpass API 0.7.62.1 084b4234", "osm3s": {"timestamp_osm_base": "2024-09-30T19:38:01Z", "copyright": "The data included in this document is from www.openstreetmap.org. The data is made available under ODbL."}, "elements": [{"type": "node", "id": 1404221820, "lat": 10.3130337, "lon": 43.8080983, "tags": {"name": "Dibad Valley", "pcode": "NC-3806-S07-002", "place": "village", "source": "UNDP - 2006"}}, {"type": "node", "id": 1404222298, "lat": 10.20882, "lon": 43.75095, "tags": {"name": "Beeyo Cadaad", "pcode": "NC-3806-U06-001", "place": "village", "source": "UNDP - 2006"}}, {"type": "node", "id": 1404222782, "lat": 10.421993, "lon": 44.053362, "tags": {"name": "Cabdi Geeddi", "pcode": "NC-3806-P13-001", "place": "hamlet", "source": "GTZ - 2002"}}, {"type": "node", "id": 1404223970, "lat": 10.3189, "lon": 43.74925, "tags": {"alt_name": "Balli Valley", "name": "Balayga", "pcode": "NC-3806-S06-001", "place": "hamlet", "source": "UNDP - 2006, GTZ - 2002, UNDP - 1997"}}, {"type": "node", "id": 1404224300, "lat": 10.31115, "lon": 43.7633, "tags": {"name": "Dhagax Wayne", "pcode": "NC-3806-S06-002", "place": "hamlet", "source": "UNDP - 2006"}}, {"type": "node", "id": 1404224314, "lat": 10.0463543, "lon": 43.7859618, "tags": {"alt_name": "Ali Xaydh, Awdal", "name": "Cali-Haidh", "pcode": "NC-3806-Y07-001", "place": "village", "source": "KEMRI - 2007, UNDP - 2006, UNDP - 1997"}}, {"type": "node", "id": 1404225188, "lat": 10.27477, "lon": 43.69777, "tags": {"name": "Hodan Godheere", "pcode": "NC-3806-T05-002", "place": "hamlet", "source": "UNDP - 2006"}}, {"type": "node", "id": 1404225717, "lat": 10.281, "lon": 43.719601, "tags": {"name": "Qabri Baxar", "pcode": "NC-3806-T05-001", "place": "hamlet", "source": "UNDP - 1997"}}, {"type": "node", "id": 1404226657, "lat": 10.4376075, "lon": 43.7054559, "tags": {"alt_name": "Osoli", "name": "Qsali", "pcode": "NC-3806-P05-001", "place": "village", "source": "UNDP - 2006, GTZ - 2002"}}, {"type": "node", "id": 1404226980, "lat": 10.3123533, "lon": 43.8052279, "tags": {"name": "Gargaara", "pcode": "NC-3806-S07-001", "place": "village", "source": "UNDP - 2006, GTZ - 2002, UNDP - 1997"}}, {"type": "node", "id": 1404227266, "lat": 10.32478, "lon": 43.71325, "tags": {"name": "Dhabi Cad", "pcode": "NC-3806-S05-001", "place": "village", "source": "UNDP - 2006"}}, {"type": "node", "id": 1404230362, "lat": 10.2016, "lon": 43.8204, "tags": {"name": "Waran Weis", "pcode": "NC-3806-V08-002", "place": "village", "source": "UNDP - 1997"}}, {"type": "node", "id": 1404230543, "lat": 10.18513, "lon": 43.836653, "tags": {"name": "Beeyo Cadaadeed", "pcode": "NC-3806-V08-001", "place": "village", "source": "GTZ - 2002"}}, {"type": "node", "id": 1404230683, "lat": 10.0874041, "lon": 43.7558766, "tags": {"name": "Kidiyood", "pcode": "NC-3806-X06-001", "place": "hamlet", "source": "KEMRI - 2007, UNDP - 2006"}}, {"type": "node", "id": 1404230867, "lat": 10.29128, "lon": 43.72015, "tags": {"name": "Xaaji Tawakal", "pcode": "NC-3806-T05-003", "place": "hamlet", "source": "UNDP - 2006"}}, {"type": "node", "id": 1404230976, "lat": 10.15817, "lon": 43.83447, "tags": {"name": "Teeb", "pcode": "NC-3806-W08-002", "place": "village", "source": "UNDP - 2006"}}, {"type": "node", "id": 1404231638, "lat": 10.2831395, "lon": 43.7359268, "tags": {"name": "Tuurka", "pcode": "NC-3806-T06-001", "place": "village", "source": "UNDP - 2006, GTZ - 2002"}}, {"type": "node", "id": 1404231793, "lat": 10.30837, "lon": 43.78357, "tags": {"name": "Gargaara Bari", "pcode": "NC-3806-S07-003", "place": "hamlet", "source": "FSAU"}}, {"type": "node", "id": 1404231976, "lat": 10.11369, "lon": 43.70062, "tags": {"name": "Qudhacood", "pcode": "NC-3806-X05-001", "place": "hamlet", "source": "KEMRI - 2007, UNDP - 2006"}}, {"type": "node", "id": 1404233607, "lat": 10.3520358, "lon": 43.9266787, "tags": {"name": "Hulka", "pcode": "NC-3806-R10-001", "place": "village", "source": "UNDP - 2006, GTZ - 2002", "wikidata": "Q15876514"}}, {"type": "node", "id": 1404233777, "lat": 10.15781, "lon": 43.83497, "tags": {"name": "Damasha", "pcode": "NC-3806-W08-001", "place": "village", "source": "UNDP - 2006"}}, {"type": "node", "id": 6893088035, "lat": 10.0488456, "lon": 43.7686321, "tags": {"place": "isolated_dwelling"}}, {"type": "node", "id": 6893088043, "lat": 10.0311148, "lon": 43.7501458, "tags": {"place": "isolated_dwelling"}}, {"type": "node", "id": 6893088044, "lat": 10.0464373, "lon": 43.7623781, "tags": {"place": "isolated_dwelling"}}, {"type": "node", "id": 7268558860, "lat": 10.0520604, "lon": 43.8167006, "tags": {"place": "isolated_dwelling"}}, {"type": "node", "id": 7268559195, "lat": 10.0483273, "lon": 43.8046199, "tags": {"place": "hamlet"}}, {"type": "node", "id": 7268559234, "lat": 10.0525618, "lon": 43.8494522, "tags": {"place": "hamlet"}}, {"type": "node", "id": 7268559465, "lat": 10.0640654, "lon": 43.9132352, "tags": {"place": "isolated_dwelling"}}, {"type": "node", "id": 7268559466, "lat": 10.0712546, "lon": 43.921803, "tags": {"place": "isolated_dwelling"}}, {"type": "node", "id": 7268559467, "lat": 10.0716789, "lon": 43.9187184, "tags": {"place": "isolated_dwelling"}}, {"type": "node", "id": 7268559468, "lat": 10.0739626, "lon": 43.9212331, "tags": {"place": "isolated_dwelling"}}, {"type": "node", "id": 7269719990, "lat": 10.0369137, "lon": 43.9703458, "tags": {"place": "isolated_dwelling"}}, {"type": "node", "id": 7269719999, "lat": 10.0352839, "lon": 43.972199, "tags": {"place": "hamlet"}}, {"type": "node", "id": 7269720025, "lat": 10.0348197, "lon": 43.9742537, "tags": {"place": "isolated_dwelling"}}, {"type": "node", "id": 7269720032, "lat": 10.052936, "lon": 43.9641067, "tags": {"place": "isolated_dwelling"}}, {"type": "node", "id": 7269720033, "lat": 10.0433701, "lon": 43.961395, "tags": {"place": "isolated_dwelling"}}, {"type": "node", "id": 7269720034, "lat": 10.0508734, "lon": 43.9556779, "tags": {"place": "isolated_dwelling"}}, {"type": "node", "id": 7269720035, "lat": 10.0503993, "lon": 43.9526725, "tags": {"place": "hamlet"}}, {"type": "node", "id": 11992062033, "lat": 10.0943843, "lon": 43.7866893, "tags": {"place": "isolated_dwelling"}}]}