{"version": 0.6, "generator": "Overpass API 0.7.62.1 084b4234", "osm3s": {"timestamp_osm_base": "2024-09-30T23:59:05Z", "copyright": "The data included in this document is from www.openstreetmap.org. The data is made available under ODbL."}, "elements": [{"type": "node", "id": 1150883159, "lat": 5.85, "lon": 42.1, "tags": {"is_in:country": "Ethiopia", "is_in:country_code": "ET", "name": "El Carre", "place": "locality", "source": "GeoDatabase"}}, {"type": "node", "id": 1150897405, "lat": 5.86667, "lon": 42.36667, "tags": {"is_in:country": "Ethiopia", "is_in:country_code": "ET", "name": "El Uak", "place": "locality", "source": "GeoDatabase"}}, {"type": "node", "id": 1150898319, "lat": 6.00194, "lon": 42.17694, "tags": {"is_in:country": "Ethiopia", "is_in:country_code": "ET", "name": "Bubayio", "place": "locality", "source": "GeoDatabase"}}, {"type": "node", "id": 1150902329, "lat": 5.9, "lon": 42.2, "tags": {"is_in:country": "Ethiopia", "is_in:country_code": "ET", "name": "Korfou", "place": "locality", "source": "GeoDatabase"}}, {"type": "node", "id": 1150930648, "lat": 6.09722, "lon": 42.21305, "tags": {"is_in:country": "Ethiopia", "is_in:country_code": "ET", "name": "El Bar", "place": "locality", "source": "GeoDatabase"}}, {"type": "node", "id": 1150940864, "lat": 5.75, "lon": 42.26667, "tags": {"is_in:country": "Ethiopia", "is_in:country_code": "ET", "name": "El Taulei", "place": "locality", "source": "GeoDatabase"}}, {"type": "node", "id": 1151004287, "lat": 6.09833, "lon": 42.0725, "tags": {"is_in:country": "Ethiopia", "is_in:country_code": "ET", "name": "El Roka", "place": "locality", "source": "GeoDatabase"}}, {"type": "node", "id": 9671096217, "lat": 5.8427044, "lon": 42.0987161, "tags": {"alt_name": "Elkarre", "name": "Elkere", "place": "village"}}]}