{"version": 0.6, "generator": "Overpass API 0.7.62.1 084b4234", "osm3s": {"timestamp_osm_base": "2024-10-01T00:24:22Z", "copyright": "The data included in this document is from www.openstreetmap.org. The data is made available under ODbL."}, "elements": [{"type": "node", "id": 1150882052, "lat": 6.51667, "lon": 38.85, "tags": {"is_in:country": "Ethiopia", "is_in:country_code": "ET", "name": "Bonsa Bota", "place": "locality", "source": "GeoDatabase"}}, {"type": "node", "id": 1150885691, "lat": 6.6, "lon": 38.81666, "tags": {"is_in:country": "Ethiopia", "is_in:country_code": "ET", "name": "Chevenna", "place": "locality", "source": "GeoDatabase"}}, {"type": "node", "id": 1150892866, "lat": 6.5, "lon": 38.75, "tags": {"is_in:country": "Ethiopia", "is_in:country_code": "ET", "name": "Gelana Shet'", "place": "locality", "source": "GeoDatabase"}}, {"type": "node", "id": 1150893683, "lat": 6.66667, "lon": 39.0, "tags": {"is_in:country": "Ethiopia", "is_in:country_code": "ET", "name": "Monti Harana", "place": "locality", "source": "GeoDatabase"}}, {"type": "node", "id": 1150900229, "lat": 6.7, "lon": 38.83333, "tags": {"is_in:country": "Ethiopia", "is_in:country_code": "ET", "name": "Meganamo Shet'", "place": "locality", "source": "GeoDatabase"}}, {"type": "node", "id": 1150909005, "lat": 6.61667, "lon": 38.81666, "tags": {"is_in:country": "Ethiopia", "is_in:country_code": "ET", "name": "Dalo Galalo", "place": "locality", "source": "GeoDatabase"}}, {"type": "node", "id": 1150915511, "lat": 6.73333, "lon": 38.81666, "tags": {"is_in:country": "Ethiopia", "is_in:country_code": "ET", "name": "Kokosa Bota", "place": "locality", "source": "GeoDatabase"}}, {"type": "node", "id": 1150920620, "lat": 6.739353, "lon": 38.791187, "tags": {"alt_name": "Cocossa", "country": "ET", "name": "Kokosa", "place": "town", "source": "GeoDatabase"}}, {"type": "node", "id": 1150922172, "lat": 6.48333, "lon": 39.1, "tags": {"is_in:country": "Ethiopia", "is_in:country_code": "ET", "name": "Nensebo", "place": "locality", "source": "GeoDatabase"}}, {"type": "node", "id": 1150936084, "lat": 6.78333, "lon": 38.9, "tags": {"is_in:country": "Ethiopia", "is_in:country_code": "ET", "name": "Tarura", "place": "locality", "source": "GeoDatabase"}}, {"type": "node", "id": 1150949120, "lat": 6.5247719, "lon": 38.8275745, "tags": {"is_in:country": "Ethiopia", "is_in:country_code": "ET", "place": "locality", "source": "GeoDatabase"}}, {"type": "node", "id": 1150980263, "lat": 6.48333, "lon": 38.78333, "tags": {"is_in:country": "Ethiopia", "is_in:country_code": "ET", "name": "Bonsa Terara", "place": "locality", "source": "GeoDatabase"}}, {"type": "node", "id": 3204575367, "lat": 6.7800646, "lon": 38.8588878, "tags": {"place": "hamlet"}}, {"type": "node", "id": 3204575368, "lat": 6.7874471, "lon": 38.8135702, "tags": {"place": "hamlet"}}, {"type": "node", "id": 3204599940, "lat": 6.6617797, "lon": 38.8736248, "tags": {"name": "Bura", "place": "village"}}, {"type": "node", "id": 3204600637, "lat": 6.5475398, "lon": 38.7738228, "tags": {"place": "hamlet"}}, {"type": "node", "id": 3204600725, "lat": 6.5870424, "lon": 38.9104422, "tags": {"place": "hamlet"}}, {"type": "node", "id": 3204643331, "lat": 6.5713369, "lon": 38.855162, "tags": {"place": "hamlet"}}, {"type": "node", "id": 3204643332, "lat": 6.6267679, "lon": 38.9153079, "tags": {"name": "Keramo", "place": "village"}}, {"type": "node", "id": 3939770562, "lat": 6.5334303, "lon": 39.0918994, "tags": {"name": "Chire", "place": "village"}}, {"type": "node", "id": 3939772351, "lat": 6.7265099, "lon": 39.0580501, "tags": {"place": "village"}}, {"type": "node", "id": 3939772816, "lat": 6.7955767, "lon": 39.0627015, "tags": {"place": "hamlet"}}, {"type": "node", "id": 9980037643, "lat": 6.5106608, "lon": 38.741886, "tags": {"name": "Worancha Dela", "place": "village"}}, {"type": "node", "id": 10594717526, "lat": 6.5876282, "lon": 39.1063499, "tags": {"name": "Werka", "place": "town"}}]}