{"version": 0.6, "generator": "Overpass API 0.7.62.1 084b4234", "osm3s": {"timestamp_osm_base": "2024-09-30T16:38:29Z", "copyright": "The data included in this document is from www.openstreetmap.org. The data is made available under ODbL."}, "elements": [{"type": "node", "id": 44914869, "lat": 0.3721766, "lon": 36.2904583, "tags": {"is_in": "Laikipia,Kenya", "name": "Tandare", "place": "village"}}, {"type": "node", "id": 44914995, "lat": 0.15, "lon": 36.3666, "tags": {"created_by": "JOSM", "is_in": "Laikipia,Kenya", "name": "Subuku", "place": "village"}}, {"type": "node", "id": 44923942, "lat": 0.2833, "lon": 36.3, "tags": {"name": "Olngarua", "place": "village"}}, {"type": "node", "id": 44929400, "lat": 0.16668, "lon": 36.316601, "tags": {"is_in": "Laikipia,Kenya", "name": "Marmanet", "place": "village", "wikidata": "Q6772075"}}, {"type": "node", "id": 44998718, "lat": 0.2, "lon": 36.3166, "tags": {"name": "Kabati", "place": "village"}}, {"type": "node", "id": 44999374, "lat": 0.4833, "lon": 36.1833, "tags": {"name": "Kamarabuyon", "place": "village", "wikidata": "Q6355937"}}, {"type": "node", "id": 45001972, "lat": 0.1666, "lon": 36.3166, "tags": {"is_in": "Laikipia,Kenya", "name": "Gituandaga", "place": "village", "wikidata": "Q5565168"}}, {"type": "node", "id": 1628931093, "lat": 0.2358907, "lon": 36.4374884, "tags": {"name": "Gatudia", "place": "village"}}, {"type": "node", "id": 2260563539, "lat": 0.306261, "lon": 36.196471, "tags": {"name": "Mochongoi", "place": "village", "wikidata": "Q6887643"}}, {"type": "node", "id": 2260563544, "lat": 0.4067083, "lon": 36.37852, "tags": {"name": "Sipili", "place": "village"}}, {"type": "node", "id": 3207977360, "lat": 0.4139246, "lon": 36.3208699, "tags": {"name": "Kinamba", "place": "village"}}, {"type": "node", "id": 3208820734, "lat": 0.2566868, "lon": 36.1707838, "tags": {"name": "Waseges", "place": "hamlet"}}, {"type": "node", "id": 5327136828, "lat": 0.3088493, "lon": 36.2293459, "tags": {"name": "Kabel Village", "place": "village"}}, {"type": "node", "id": 5327136831, "lat": 0.3294428, "lon": 36.181101, "tags": {"name": "Keon", "place": "hamlet"}}, {"type": "node", "id": 5327136832, "lat": 0.427937, "lon": 36.2146604, "tags": {"name": "Kasiela", "place": "hamlet"}}, {"type": "node", "id": 5327214416, "lat": 0.481112, "lon": 36.1793124, "tags": {"name": "Kapindasum", "place": "village"}}, {"type": "node", "id": 7927342600, "lat": 0.1749549, "lon": 36.3817959, "tags": {"name": "Ol Jabet", "place": "village"}}, {"type": "node", "id": 9566094617, "lat": 0.1762847, "lon": 36.1843091, "tags": {"name": "Chemarmar", "place": "village"}}, {"type": "node", "id": 9566094817, "lat": 0.1632443, "lon": 36.2151047, "tags": {"name": "Mwiteithia", "place": "village"}}, {"type": "node", "id": 9566094917, "lat": 0.1565995, "lon": 36.1924838, "tags": {"name": "Chelitit", "place": "village"}}, {"type": "node", "id": 9566094918, "lat": 0.1504807, "lon": 36.2276169, "tags": {"name": "Kiriko", "place": "village"}}, {"type": "node", "id": 9784119799, "lat": 0.1661814, "lon": 36.2385274, "tags": {"name": "Marura A", "place": "village"}}, {"type": "node", "id": 9784119812, "lat": 0.1800254, "lon": 36.2319271, "tags": {"name": "Marura B", "place": "village"}}, {"type": "node", "id": 9784119815, "lat": 0.1645852, "lon": 36.2597788, "tags": {"name": "Marana", "place": "village"}}, {"type": "node", "id": 9784119816, "lat": 0.2195159, "lon": 36.203448, "tags": {"name": "Kavilila", "place": "village"}}, {"type": "node", "id": 9784135817, "lat": 0.1758799, "lon": 36.2568702, "tags": {"name": "Thuthua", "place": "village"}}, {"type": "node", "id": 9784135822, "lat": 0.1506957, "lon": 36.2712884, "tags": {"name": "Gathitima", "place": "village"}}, {"type": "node", "id": 9784135824, "lat": 0.2004958, "lon": 36.2234713, "tags": {"name": "Mbogoini", "place": "village"}}, {"type": "node", "id": 9784135834, "lat": 0.1505774, "lon": 36.245635, "tags": {"name": "Baraka", "place": "village"}}]}