{"version": 0.6, "generator": "Overpass API 0.7.62.1 084b4234", "osm3s": {"timestamp_osm_base": "2024-09-30T23:28:30Z", "copyright": "The data included in this document is from www.openstreetmap.org. The data is made available under ODbL."}, "elements": [{"type": "node", "id": 1404221854, "lat": 9.82661, "lon": 43.95739, "tags": {"name": "Malugta Hose", "pcode": "NC-3810-E11-002", "place": "village", "source": "KEMRI - 2007"}}, {"type": "node", "id": 1404221990, "lat": 10.02025, "lon": 43.68967, "tags": {"name": "Barkhado", "pcode": "NC-3806-Z05-002", "place": "village", "source": "UNDP - 2006"}}, {"type": "node", "id": 1404222219, "lat": 9.8584197, "lon": 43.9366023, "tags": {"alt_name": "Garbadhere", "name": "Garbo-Dheere", "pcode": "NC-3810-D10-001", "place": "village", "source": "KEMRI - 2007, UNDP - 2006"}}, {"type": "node", "id": 1404223774, "lat": 9.82983, "lon": 43.90917, "tags": {"name": "Waraqa-Gibil Ku Dirir", "pcode": "NC-3810-E10-002", "place": "village", "source": "UNDP - 2006"}}, {"type": "node", "id": 1404223979, "lat": 9.8573398, "lon": 43.6741702, "tags": {"name": "Bus", "pcode": "NC-3810-D04-001", "place": "village", "source": "KEMRI - 2007, GTZ - 2002, UNDP - 1997"}}, {"type": "node", "id": 1404224159, "lat": 9.9248985, "lon": 43.9189108, "tags": {"name": "Agabar \u0623\u063a\u0627\u0628\u0627\u0631", "name:ar": "\u0623\u063a\u0627\u0628\u0627\u0631", "name:en": "Agabar", "name:fr": "Agabar", "pcode": "NC-3810-B10-001", "place": "town", "source": "KEMRI - 2007, UNDP - 2006, UNDP - 1997", "wikidata": "Q30643790"}}, {"type": "node", "id": 1404224314, "lat": 10.0463543, "lon": 43.7859618, "tags": {"alt_name": "Ali Xaydh, Awdal", "name": "Cali-Haidh", "pcode": "NC-3806-Y07-001", "place": "village", "source": "KEMRI - 2007, UNDP - 2006, UNDP - 1997"}}, {"type": "node", "id": 1404224514, "lat": 9.959618, "lon": 43.807795, "tags": {"name": "Canjeel", "pcode": "NC-3810-A07-002", "place": "village", "source": "GTZ - 2002, UNDP - 1997"}}, {"type": "node", "id": 1404224582, "lat": 10.03911, "lon": 43.62311, "tags": {"alt_name": "Xamarta-Hogeed", "name": "Xamarta Hogeed", "pcode": "NC-3806-Z03-001", "place": "village", "source": "KEMRI - 2007, UNDP - 2006, UNDP - 1997"}}, {"type": "node", "id": 1404224586, "lat": 9.8214, "lon": 43.947102, "tags": {"name": "Lied Godir", "pcode": "NC-3810-E10-001", "place": "hamlet", "source": "UNDP - 1997"}}, {"type": "node", "id": 1404224635, "lat": 9.876087, "lon": 43.971173, "tags": {"name": "Kala Baydh \u0643\u0627\u0644\u0627\u0628\u0627\u064a\u0636", "name:ar": "\u0643\u0627\u0644\u0627\u0628\u0627\u064a\u0636", "name:en": "Kala Baydh", "name:fr": "Kala Baydh", "pcode": "NC-3810-C11-002", "place": "village", "source": "GTZ - 2002, UNDP - 1997"}}, {"type": "node", "id": 1404224928, "lat": 9.81624, "lon": 43.958591, "tags": {"name": "Gibil-Ku-Dirir", "pcode": "NC-3810-E11-004", "place": "hamlet", "source": "UNDP - 1997"}}, {"type": "node", "id": 1404226027, "lat": 9.96026, "lon": 43.8073, "tags": {"alt_name": "Caada", "name": "Aada", "pcode": "NC-3810-A07-001", "place": "village", "source": "KEMRI - 2007, UNDP - 2006, UNDP - 1997"}}, {"type": "node", "id": 1404226744, "lat": 9.91472, "lon": 43.912498, "tags": {"name": "Garbadheere", "pcode": "NC-3810-C10-001", "place": "hamlet", "source": "UNDP - 1997"}}, {"type": "node", "id": 1404227742, "lat": 9.9083933, "lon": 43.9249218, "tags": {"name": "Candha Laac", "pcode": "NC-3810-C10-002", "place": "hamlet", "source": "UNDP - 2006"}}, {"type": "node", "id": 1404228817, "lat": 9.883831, "lon": 43.960424, "tags": {"name": "Buul", "pcode": "NC-3810-C11-001", "place": "village", "source": "GTZ - 2002"}}, {"type": "node", "id": 1404229746, "lat": 9.83717, "lon": 43.6343, "tags": {"alt_name": "Hadhiley", "name": "Hadhley", "pcode": "NC-3810-D03-001", "place": "village", "source": "KEMRI - 2007, UNDP - 2006, UNDP - 1997"}}, {"type": "node", "id": 1404230123, "lat": 9.86607, "lon": 43.77715, "tags": {"name": "Dibiris (Dhalaada)", "pcode": "NC-3810-D07-004", "place": "village", "source": "UNDP - 2006"}}, {"type": "node", "id": 1404230157, "lat": 9.80573, "lon": 43.9645, "tags": {"name": "Maluugta", "pcode": "NC-3810-E11-005", "place": "village", "source": "UNDP - 2006"}}, {"type": "node", "id": 1404230543, "lat": 10.18513, "lon": 43.836653, "tags": {"name": "Beeyo Cadaadeed", "pcode": "NC-3806-V08-001", "place": "village", "source": "GTZ - 2002"}}, {"type": "node", "id": 1404230683, "lat": 10.0874041, "lon": 43.7558766, "tags": {"name": "Kidiyood", "pcode": "NC-3806-X06-001", "place": "hamlet", "source": "KEMRI - 2007, UNDP - 2006"}}, {"type": "node", "id": 1404230784, "lat": 9.93851, "lon": 43.79458, "tags": {"name": "Heeryo (Hablo-Dabaal)", "pcode": "NC-3810-B07-002", "place": "village", "source": "UNDP - 2006"}}, {"type": "node", "id": 1404230857, "lat": 9.84877, "lon": 43.778358, "tags": {"name": "Kadiga Dhanaan", "pcode": "NC-3810-D07-003", "place": "village", "source": "UNDP - 1997"}}, {"type": "node", "id": 1404230972, "lat": 9.94186, "lon": 43.66359, "tags": {"name": "Edagan", "pcode": "NC-3810-B04-001", "place": "village", "source": "KEMRI - 2007, UNDP - 2006"}}, {"type": "node", "id": 1404230976, "lat": 10.15817, "lon": 43.83447, "tags": {"name": "Teeb", "pcode": "NC-3806-W08-002", "place": "village", "source": "UNDP - 2006"}}, {"type": "node", "id": 1404231599, "lat": 9.89141, "lon": 43.717151, "tags": {"name": "Edigaan", "pcode": "NC-3810-C05-001", "place": "village", "source": "GTZ - 2002"}}, {"type": "node", "id": 1404231976, "lat": 10.11369, "lon": 43.70062, "tags": {"name": "Qudhacood", "pcode": "NC-3806-X05-001", "place": "hamlet", "source": "KEMRI - 2007, UNDP - 2006"}}, {"type": "node", "id": 1404232705, "lat": 9.8213508, "lon": 43.9705656, "tags": {"name": "Malugta Dhexe", "pcode": "NC-3810-E11-001", "place": "village", "source": "KEMRI - 2007, GTZ - 2002"}}, {"type": "node", "id": 1404233098, "lat": 9.9346, "lon": 43.63069, "tags": {"alt_name": "Isha Gugban", "name": "Isha-Gudban", "pcode": "NC-3810-B03-001", "place": "village", "source": "KEMRI - 2007, UNDP - 1997"}}, {"type": "node", "id": 1404233274, "lat": 10.0028, "lon": 43.827099, "tags": {"name": "Dagah Waraba", "pcode": "NC-3806-Z08-001", "place": "village", "source": "UNDP - 1997"}}, {"type": "node", "id": 1404233387, "lat": 10.02013, "lon": 43.68993, "tags": {"alt_name": "Hadhwanag", "name": "Hadh Wanaag", "pcode": "NC-3806-Z05-001", "place": "village", "source": "KEMRI - 2007, UNDP - 2006, UNDP - 1997"}}, {"type": "node", "id": 1404233548, "lat": 9.917479, "lon": 43.777444, "tags": {"alt_name": "Ada", "name": "Caadda", "pcode": "NC-3810-B07-001", "place": "village", "source": "GTZ - 2002, UNDP - 1997"}}, {"type": "node", "id": 1404233777, "lat": 10.15781, "lon": 43.83497, "tags": {"name": "Damasha", "pcode": "NC-3806-W08-001", "place": "village", "source": "UNDP - 2006"}}, {"type": "node", "id": 6893088035, "lat": 10.0488456, "lon": 43.7686321, "tags": {"place": "isolated_dwelling"}}, {"type": "node", "id": 6893088043, "lat": 10.0311148, "lon": 43.7501458, "tags": {"place": "isolated_dwelling"}}, {"type": "node", "id": 6893088044, "lat": 10.0464373, "lon": 43.7623781, "tags": {"place": "isolated_dwelling"}}, {"type": "node", "id": 7268558786, "lat": 10.0116787, "lon": 43.7979512, "tags": {"place": "isolated_dwelling"}}, {"type": "node", "id": 7268558860, "lat": 10.0520604, "lon": 43.8167006, "tags": {"place": "isolated_dwelling"}}, {"type": "node", "id": 7268559152, "lat": 10.0085028, "lon": 43.8164645, "tags": {"place": "isolated_dwelling"}}, {"type": "node", "id": 7268559195, "lat": 10.0483273, "lon": 43.8046199, "tags": {"place": "hamlet"}}, {"type": "node", "id": 7268559234, "lat": 10.0525618, "lon": 43.8494522, "tags": {"place": "hamlet"}}, {"type": "node", "id": 7268559465, "lat": 10.0640654, "lon": 43.9132352, "tags": {"place": "isolated_dwelling"}}, {"type": "node", "id": 7268559466, "lat": 10.0712546, "lon": 43.921803, "tags": {"place": "isolated_dwelling"}}, {"type": "node", "id": 7268559467, "lat": 10.0716789, "lon": 43.9187184, "tags": {"place": "isolated_dwelling"}}, {"type": "node", "id": 7268559468, "lat": 10.0739626, "lon": 43.9212331, "tags": {"place": "isolated_dwelling"}}, {"type": "node", "id": 7269719990, "lat": 10.0369137, "lon": 43.9703458, "tags": {"place": "isolated_dwelling"}}, {"type": "node", "id": 7269719999, "lat": 10.0352839, "lon": 43.972199, "tags": {"place": "hamlet"}}, {"type": "node", "id": 7269720025, "lat": 10.0348197, "lon": 43.9742537, "tags": {"place": "isolated_dwelling"}}, {"type": "node", "id": 7269720032, "lat": 10.052936, "lon": 43.9641067, "tags": {"place": "isolated_dwelling"}}, {"type": "node", "id": 7269720033, "lat": 10.0433701, "lon": 43.961395, "tags": {"place": "isolated_dwelling"}}, {"type": "node", "id": 7269720034, "lat": 10.0508734, "lon": 43.9556779, "tags": {"place": "isolated_dwelling"}}, {"type": "node", "id": 7269720035, "lat": 10.0503993, "lon": 43.9526725, "tags": {"place": "hamlet"}}, {"type": "node", "id": 7272107832, "lat": 10.1783009, "lon": 43.6176061, "tags": {"place": "isolated_dwelling"}}, {"type": "node", "id": 11591941889, "lat": 9.9785428, "lon": 43.6511372, "tags": {"fixme": "name missing", "place": "isolated_dwelling"}}, {"type": "node", "id": 11591941921, "lat": 9.9584712, "lon": 43.6649398, "tags": {"fixme": "name missing", "place": "isolated_dwelling"}}, {"type": "node", "id": 11992062033, "lat": 10.0943843, "lon": 43.7866893, "tags": {"place": "isolated_dwelling"}}]}