{"version": 0.6, "generator": "Overpass API 0.7.62.1 084b4234", "osm3s": {"timestamp_osm_base": "2024-09-30T22:27:05Z", "copyright": "The data included in this document is from www.openstreetmap.org. The data is made available under ODbL."}, "elements": [{"type": "node", "id": 1150881008, "lat": 6.76667, "lon": 40.96667, "tags": {"is_in:country": "Ethiopia", "is_in:country_code": "ET", "name": "Far Ueb", "place": "locality", "source": "GeoDatabase"}}, {"type": "node", "id": 1150883650, "lat": 6.88333, "lon": 41.06666, "tags": {"is_in:country": "Ethiopia", "is_in:country_code": "ET", "name": "Haloie", "place": "locality", "source": "GeoDatabase"}}, {"type": "node", "id": 1150886443, "lat": 6.63333, "lon": 40.95, "tags": {"is_in:country": "Ethiopia", "is_in:country_code": "ET", "name": "Ara Terra", "place": "locality", "source": "GeoDatabase"}}, {"type": "node", "id": 1150886535, "lat": 6.78333, "lon": 41.16667, "tags": {"is_in:country": "Ethiopia", "is_in:country_code": "ET", "name": "Hara Bisciaraia", "place": "locality", "source": "GeoDatabase"}}, {"type": "node", "id": 1150887192, "lat": 6.86667, "lon": 41.0, "tags": {"is_in:country": "Ethiopia", "is_in:country_code": "ET", "name": "Boddo", "place": "locality", "source": "GeoDatabase"}}, {"type": "node", "id": 1150890940, "lat": 6.7, "lon": 41.08333, "tags": {"is_in:country": "Ethiopia", "is_in:country_code": "ET", "name": "Dinnic", "place": "locality", "source": "GeoDatabase"}}, {"type": "node", "id": 1150898089, "lat": 6.91667, "lon": 41.01667, "tags": {"is_in:country": "Ethiopia", "is_in:country_code": "ET", "name": "Odalida", "place": "locality", "source": "GeoDatabase"}}, {"type": "node", "id": 1150910531, "lat": 6.6431797, "lon": 40.9789867, "tags": {"alt_name": "Kosi", "country": "ET", "name": "Mio/ Kosi", "place": "village", "source": "GeoDatabase"}}, {"type": "node", "id": 1150910761, "lat": 6.85, "lon": 41.16667, "tags": {"is_in:country": "Ethiopia", "is_in:country_code": "ET", "name": "Borgo", "place": "locality", "source": "GeoDatabase"}}, {"type": "node", "id": 1150912263, "lat": 6.9, "lon": 41.0, "tags": {"is_in:country": "Ethiopia", "is_in:country_code": "ET", "name": "Goro Luca", "place": "locality", "source": "GeoDatabase"}}, {"type": "node", "id": 1150920328, "lat": 6.6, "lon": 40.96667, "tags": {"is_in:country": "Ethiopia", "is_in:country_code": "ET", "name": "Uatitti", "place": "locality", "source": "GeoDatabase"}}, {"type": "node", "id": 1150920464, "lat": 6.7, "lon": 41.16667, "tags": {"is_in:country": "Ethiopia", "is_in:country_code": "ET", "name": "Oda", "place": "locality", "source": "GeoDatabase"}}, {"type": "node", "id": 1150923863, "lat": 6.66667, "lon": 41.23333, "tags": {"is_in:country": "Ethiopia", "is_in:country_code": "ET", "name": "T'Edecha `Alem", "place": "locality", "source": "GeoDatabase"}}, {"type": "node", "id": 1150951430, "lat": 6.65, "lon": 41.01667, "tags": {"is_in:country": "Ethiopia", "is_in:country_code": "ET", "name": "Hara More", "place": "locality", "source": "GeoDatabase"}}, {"type": "node", "id": 1150962675, "lat": 6.73333, "lon": 41.13333, "tags": {"is_in:country": "Ethiopia", "is_in:country_code": "ET", "name": "Biriti", "place": "locality", "source": "GeoDatabase"}}, {"type": "node", "id": 1150966427, "lat": 6.58333, "lon": 41.16667, "tags": {"is_in:country": "Ethiopia", "is_in:country_code": "ET", "name": "Malca Gura", "place": "locality", "source": "GeoDatabase"}}, {"type": "node", "id": 1150973426, "lat": 6.68333, "lon": 41.06666, "tags": {"is_in:country": "Ethiopia", "is_in:country_code": "ET", "name": "T'Ebel Shet'", "place": "locality", "source": "GeoDatabase"}}, {"type": "node", "id": 2154235638, "lat": 6.8966075, "lon": 41.1264311, "tags": {"name": "Dedecha Bela", "place": "town"}}]}