{"version": 0.6, "generator": "Overpass API 0.7.62.1 084b4234", "osm3s": {"timestamp_osm_base": "2024-09-30T23:23:26Z", "copyright": "The data included in this document is from www.openstreetmap.org. The data is made available under ODbL."}, "elements": [{"type": "node", "id": 1150887080, "lat": 6.88417, "lon": 45.71639, "tags": {"is_in:country_code": "ET", "is_in:county": "Ethiopia", "name": "Agar Uen", "place": "locality", "source": "GeoDatabase"}}, {"type": "node", "id": 1150889630, "lat": 7.05806, "lon": 45.40417, "tags": {"is_in:country_code": "ET", "is_in:county": "Ethiopia", "name": "Uol'Uol'", "place": "locality", "source": "GeoDatabase"}}, {"type": "node", "id": 1150901847, "lat": 7.07, "lon": 45.69667, "tags": {"is_in:country_code": "ET", "is_in:county": "Ethiopia", "name": "Sibsibali", "place": "locality", "source": "GeoDatabase"}}, {"type": "node", "id": 1150918493, "lat": 7.0633944, "lon": 45.4131141, "tags": {"name": "Welwel", "name:fr": "Welwel", "name:it": "Ual-Ual", "place": "village", "wikidata": "Q2576489", "wikipedia": "en:Walwal"}}, {"type": "node", "id": 1150968688, "lat": 6.93, "lon": 45.80861, "tags": {"name": "Bur Agar Uen", "place": "locality", "source": "GeoDatabase"}}, {"type": "node", "id": 1151001814, "lat": 6.885, "lon": 45.71639, "tags": {"is_in:country_code": "ET", "is_in:county": "Ethiopia", "name": "Bur Agar Uen", "place": "locality", "source": "GeoDatabase"}}, {"type": "node", "id": 3128005413, "lat": 6.8865499, "lon": 45.5674475, "tags": {"place": "village"}}, {"type": "node", "id": 10034977911, "lat": 6.8313232, "lon": 45.8077607, "tags": {"alt_name": "Bali Midgaan", "name": "Bali Wanaag", "place": "village"}}, {"type": "node", "id": 11002777914, "lat": 6.8607991, "lon": 45.3878628, "tags": {"alt_name": "Marehan Farise;Mareexaan Fariisay;Merrehan Farise", "name": "Merehan Farise", "place": "village", "waterway": "dam"}}, {"type": "node", "id": 12018317728, "lat": 6.9185389, "lon": 45.4728259, "tags": {"place": "hamlet"}}]}