{"version": 0.6, "generator": "Overpass API 0.7.62.1 084b4234", "osm3s": {"timestamp_osm_base": "2024-11-17T21:42:15Z", "copyright": "The data included in this document is from www.openstreetmap.org. The data is made available under ODbL."}, "elements": [{"type": "node", "id": 1404221604, "lat": 9.421187, "lon": 48.915591, "tags": {"alt_name": "Wailo", "fixme": "Please, check location!", "name": "Weylo", "pcode": "NC-3909-P21-001", "place": "hamlet", "source": "GTZ - 2002, UNDP - 1997"}}, {"type": "node", "id": 1404221751, "lat": 9.4950356, "lon": 49.0430526, "tags": {"name": "Kheyra Xerta", "pcode": "NC-3909-N23-001", "place": "hamlet", "source": "GTZ - 2002, UNDP - 1997"}}, {"type": "node", "id": 1404223043, "lat": 9.459579, "lon": 49.059119, "tags": {"alt_name": "Kal Noolaatay", "fixme": "Please, check location!", "name": "Kalnool", "pcode": "NC-3909-N24-001", "place": "hamlet", "source": "GTZ - 2002, UNDP - 1997"}}, {"type": "node", "id": 1404223520, "lat": 9.427095, "lon": 49.002487, "tags": {"alt_name": "Aad", "fixme": "Please, check location!", "name": "Cad", "pcode": "NC-3909-P23-001", "place": "hamlet", "source": "GTZ - 2002, UNDP - 1997"}}, {"type": "node", "id": 1404224193, "lat": 9.4542702, "lon": 48.8562112, "tags": {"name": "Carmo", "pcode": "NC-3909-P19-001", "place": "village", "source": "UNDP - 2006"}}, {"type": "node", "id": 1404226091, "lat": 9.69259, "lon": 49.00621, "tags": {"name": "Muudal", "pcode": "NC-3909-H23-001", "place": "village", "source": "UNDP - 2006"}}, {"type": "node", "id": 1404226410, "lat": 9.5193271, "lon": 48.8531268, "tags": {"name": "Higlo Ceelcowsle", "pcode": "NC-3909-M19-001", "place": "village", "source": "UNDP - 2006"}}, {"type": "node", "id": 1404227891, "lat": 9.74799, "lon": 48.81988, "tags": {"alt_name": "Dharar", "name": "Dhahar", "pcode": "NC-3909-G19-001", "place": "village", "source": "UNDP - 2006, GTZ - 2002, UNDP - 1997", "wikidata": "Q3780880"}}, {"type": "node", "id": 1404229916, "lat": 9.667426, "lon": 48.629009, "tags": {"alt_name": "El Laghodeh", "name": "Ceel La Qoday", "pcode": "NC-3909-H14-001", "place": "hamlet", "source": "GTZ - 2002, UNDP - 1997"}}, {"type": "node", "id": 1404233566, "lat": 9.652437, "lon": 49.049579, "tags": {"alt_name": "Deb Boni", "fixme": "Please, check location!", "name": "Deb Buni", "pcode": "NC-3909-J24-001", "place": "hamlet", "source": "GTZ - 2002, UNDP - 1997"}}, {"type": "node", "id": 1404233597, "lat": 9.4999948, "lon": 49.0476067, "tags": {"name": "Xerta Kubo", "pcode": "NC-3909-M24-004", "place": "village", "source": "UNDP - 2006"}}]}