{"version": 0.6, "generator": "Overpass API 0.7.62.1 084b4234", "osm3s": {"timestamp_osm_base": "2024-09-30T20:39:55Z", "copyright": "The data included in this document is from www.openstreetmap.org. The data is made available under ODbL."}, "elements": [{"type": "node", "id": 1404221395, "lat": 3.7044949, "lon": 43.2036094, "tags": {"name": "Garas Shimbirow", "pcode": "NA-3801-H27-001", "place": "hamlet", "source": "UNDP - 2006"}}, {"type": "node", "id": 1404221568, "lat": 3.85814, "lon": 43.05538, "tags": {"alt_name": "El Malable", "name": "Ceel-Malable", "pcode": "NA-3801-D24-001", "place": "village", "source": "UNDP - 2006, FSAU"}}, {"type": "node", "id": 1404221824, "lat": 3.92845, "lon": 43.01765, "tags": {"alt_name": "Bililie", "name": "Biilale", "pcode": "NA-3801-B23-002", "place": "village", "source": "UNDP - 2006, FSAU"}}, {"type": "node", "id": 1404221865, "lat": 4.1018207, "lon": 43.1015238, "tags": {"alt_name": "Gubey", "name": "War Gubey", "pcode": "NB-3813-X25-002", "place": "village", "source": "UNDP - 2006, FSAU"}}, {"type": "node", "id": 1404221920, "lat": 3.6992177, "lon": 43.0178987, "tags": {"name": "Odan", "pcode": "NA-3801-H23-003", "place": "village"}}, {"type": "node", "id": 1404221969, "lat": 4.07324, "lon": 43.12939, "tags": {"name": "Buulo Oore", "pcode": "NB-3813-Y25-004", "place": "village", "source": "UNDP - 2006"}}, {"type": "node", "id": 1404222052, "lat": 3.8405073, "lon": 43.0040658, "tags": {"name": "Buulo Aw-Xussen", "pcode": "NA-3801-D23-003", "place": "village", "source": "UNDP - 2006"}}, {"type": "node", "id": 1404222355, "lat": 4.065541, "lon": 43.1407106, "tags": {"name": "Buur Basle", "pcode": "NB-3813-Y26-002", "place": "village", "source": "UNDP - 2006, UNDP - 1997, FSAU"}}, {"type": "node", "id": 1404222387, "lat": 3.6923532, "lon": 43.2453135, "tags": {"name": "Dhato", "pcode": "NA-3801-H28-001", "place": "village", "source": "UNDP - 2006"}}, {"type": "node", "id": 1404222518, "lat": 3.7529, "lon": 43.081799, "tags": {"name": "El Dur", "pcode": "NA-3801-F24-001", "place": "hamlet", "source": "UNDP - 1997"}}, {"type": "node", "id": 1404222592, "lat": 3.86455, "lon": 42.98157, "tags": {"name": "Iskri", "pcode": "NA-3801-D22-001", "place": "hamlet", "source": "FSAU"}}, {"type": "node", "id": 1404222696, "lat": 3.6906053, "lon": 43.0146889, "tags": {"name": "Jadiid", "pcode": "NA-3801-H23-002", "place": "village"}}, {"type": "node", "id": 1404222732, "lat": 3.72469, "lon": 43.26528, "tags": {"name": "Gabaa-Degsoy", "pcode": "NA-3801-G28-001", "place": "locality", "source": "UNDP - 2006"}}, {"type": "node", "id": 1404222737, "lat": 4.09318, "lon": 43.05537, "tags": {"name": "War Uumoow", "pcode": "NB-3813-X24-002", "place": "village", "source": "UNDP - 2006"}}, {"type": "node", "id": 1404222800, "lat": 3.99638, "lon": 43.23123, "tags": {"name": "Garsaaley", "pcode": "NA-3801-A28-002", "place": "village", "source": "UNDP - 2006, UNDP - 1997, FSAU"}}, {"type": "node", "id": 1404222817, "lat": 4.0467983, "lon": 43.126007, "tags": {"name": "Mushka", "pcode": "NB-3813-Y25-002", "place": "village", "source": "UNDP - 2006, FSAU"}}, {"type": "node", "id": 1404222833, "lat": 4.0811, "lon": 43.08657, "tags": {"name": "Haball Tiireed", "pcode": "NB-3813-Y24-003", "place": "village", "source": "FSAU"}}, {"type": "node", "id": 1404222967, "lat": 3.74326, "lon": 42.9979, "tags": {"name": "Safar Nn", "pcode": "NA-3801-G22-003", "place": "village", "source": "FSAU"}}, {"type": "node", "id": 1404222973, "lat": 3.84399, "lon": 42.93957, "tags": {"name": "Afgooy", "pcode": "NA-3801-D21-001", "place": "village", "source": "UNDP - 2006"}}, {"type": "node", "id": 1404223148, "lat": 3.9922541, "lon": 43.2154862, "tags": {"name": "Macalin Yusuf", "pcode": "NA-3801-A27-002", "place": "village", "source": "UNDP - 2006, FSAU"}}, {"type": "node", "id": 1404223169, "lat": 3.9469056, "lon": 43.0318914, "tags": {"name": "Garow", "pcode": "NA-3801-B23-001", "place": "village", "source": "UNDP - 2006, FSAU"}}, {"type": "node", "id": 1404223404, "lat": 3.8068, "lon": 43.24753, "tags": {"name": "Horseed", "pcode": "NA-3801-E28-004", "place": "suburb", "source": "UNDP - 2006"}}, {"type": "node", "id": 1404223406, "lat": 3.81218, "lon": 43.24822, "tags": {"name": "Geliyo", "pcode": "NA-3801-E28-005", "place": "village", "source": "FSAU"}}, {"type": "node", "id": 1404223603, "lat": 3.7399064, "lon": 43.0069244, "tags": {"name": "Safarnooley-2", "pcode": "NA-3801-G23-002", "place": "hamlet"}}, {"type": "node", "id": 1404223630, "lat": 3.9611481, "lon": 43.0468292, "tags": {"alt_name": "Batary", "name": "Battery", "pcode": "NA-3801-A24-001", "place": "village", "source": "UNDP - 2006, FSAU"}}, {"type": "node", "id": 1404223669, "lat": 4.00288, "lon": 43.16308, "tags": {"name": "Afgooye \u0623\u0641\u062c\u0648\u064a", "name:ar": "\u0623\u0641\u062c\u0648\u064a", "name:en": "Afgooye", "name:fr": "Afgooye", "pcode": "NB-3813-Z26-005", "place": "village", "source": "UNDP - 2006"}}, {"type": "node", "id": 1404223716, "lat": 3.99313, "lon": 43.12629, "tags": {"alt_name": "War Madabdi", "name": "War Mad Cabdi", "pcode": "NA-3801-A25-003", "place": "village", "source": "UNDP - 2006, FSAU"}}, {"type": "node", "id": 1404223720, "lat": 4.0252287, "lon": 43.1632432, "tags": {"name": "Goobato", "pcode": "NB-3813-Z26-006", "place": "town", "source": "UNDP - 2006, FSAU"}}, {"type": "node", "id": 1404223762, "lat": 3.86221, "lon": 42.95234, "tags": {"name": "Durshenley", "pcode": "NA-3801-D21-002", "place": "village", "source": "FSAU"}}, {"type": "node", "id": 1404223882, "lat": 4.0044, "lon": 43.16069, "tags": {"name": "Malaaq Husein", "pcode": "NB-3813-Z26-007", "place": "village", "source": "FSAU"}}, {"type": "node", "id": 1404223885, "lat": 4.07846, "lon": 43.24317, "tags": {"name": "Sooranta", "pcode": "NB-3813-Y28-002", "place": "village", "source": "UNDP - 2006"}}, {"type": "node", "id": 1404223893, "lat": 4.05549, "lon": 43.00701, "tags": {"name": "War Adiin", "pcode": "NB-3813-Y23-001", "place": "village", "source": "UNDP - 2006"}}, {"type": "node", "id": 1404224298, "lat": 4.00591, "lon": 43.15703, "tags": {"name": "Dameerka", "pcode": "NB-3813-Z26-004", "place": "village", "source": "UNDP - 2006, FSAU"}}, {"type": "node", "id": 1404224309, "lat": 3.98424, "lon": 43.16596, "tags": {"alt_name": "Donkamade", "name": "Doonka Madi", "pcode": "NA-3801-A26-002", "place": "village", "source": "UNDP - 2006, FSAU"}}, {"type": "node", "id": 1404224321, "lat": 4.0753234, "lon": 43.0875347, "tags": {"name": "War Garas", "pcode": "NB-3813-Y24-001", "place": "village", "source": "UNDP - 2006"}}, {"type": "node", "id": 1404224455, "lat": 3.9197, "lon": 42.94631, "tags": {"name": "Masirka", "pcode": "NA-3801-B21-001", "place": "village", "source": "FSAU"}}, {"type": "node", "id": 1404224496, "lat": 4.072795, "lon": 43.130916, "tags": {"name": "Bulla Meega", "pcode": "NB-3813-Y25-005", "place": "village", "source": "FSAU"}}, {"type": "node", "id": 1404224513, "lat": 3.78673, "lon": 42.95277, "tags": {"alt_name": "Baymad Ipran", "name": "Mad Ibraan", "pcode": "NA-3801-F21-001", "place": "village", "source": "UNDP - 2006, FSAU"}}, {"type": "node", "id": 1404224826, "lat": 4.03299, "lon": 43.13625, "tags": {"name": "Baygar", "pcode": "NB-3813-Z25-001", "place": "village", "source": "UNDP - 1997"}}, {"type": "node", "id": 1404224833, "lat": 3.83874, "lon": 43.00004, "tags": {"name": "Hooshow", "pcode": "NA-3801-D23-001", "place": "village", "source": "UNDP - 2006"}}, {"type": "node", "id": 1404225081, "lat": 3.96394, "lon": 43.19122, "tags": {"alt_name": "El Jedo", "name": "Ceel-Jeedow", "pcode": "NA-3801-A27-001", "place": "village", "source": "UNDP - 2006, FSAU"}}, {"type": "node", "id": 1404225124, "lat": 3.7341722, "lon": 43.2575094, "tags": {"name": "Reydable", "pcode": "NA-3801-G28-003", "place": "hamlet", "source": "FSAU"}}, {"type": "node", "id": 1404225413, "lat": 3.80759, "lon": 43.24591, "tags": {"name": "Ceel-Ure", "pcode": "NA-3801-E28-002", "place": "village", "source": "UNDP - 2006"}}, {"type": "node", "id": 1404225446, "lat": 4.0430527, "lon": 43.1396129, "tags": {"alt_name": "War Lawile", "name": "Kidhikoy", "pcode": "NB-3813-Y26-001", "place": "village", "source": "UNDP - 2006, FSAU"}}, {"type": "node", "id": 1404225509, "lat": 3.77046, "lon": 43.053791, "tags": {"name": "Saamooley", "pcode": "NA-3801-F24-002", "place": "village", "source": "UNDP - 1997"}}, {"type": "node", "id": 1404225632, "lat": 4.00737, "lon": 42.91823, "tags": {"name": "War Adoy", "pcode": "NB-3813-Z21-001", "place": "village", "source": "FSAU"}}, {"type": "node", "id": 1404225718, "lat": 4.01478, "lon": 43.05659, "tags": {"name": "Tuugsooy", "pcode": "NB-3813-Z24-001", "place": "village", "source": "UNDP - 2006"}}, {"type": "node", "id": 1404225790, "lat": 4.02919, "lon": 43.16074, "tags": {"name": "Maranga", "pcode": "NB-3813-Z26-001", "place": "locality", "source": "UNDP - 1997"}}, {"type": "node", "id": 1404225833, "lat": 4.10309, "lon": 42.99123, "tags": {"name": "Mar-Mardoole", "pcode": "NB-3813-X22-001", "place": "village", "source": "UNDP - 2006"}}, {"type": "node", "id": 1404226057, "lat": 3.98132, "lon": 43.0847, "tags": {"name": "War Macalim Xasan", "pcode": "NA-3801-A24-002", "place": "village", "source": "UNDP - 2006"}}, {"type": "node", "id": 1404226290, "lat": 4.03861, "lon": 43.05805, "tags": {"alt_name": "Ban Gondale", "name": "Doon Qoondhole", "pcode": "NB-3813-Z24-002", "place": "village", "source": "UNDP - 2006, FSAU"}}, {"type": "node", "id": 1404226328, "lat": 3.69016, "lon": 42.99701, "tags": {"name": "Towsiile Jiroon", "pcode": "NA-3801-H22-002", "place": "village", "source": "UNDP - 2006, FSAU"}}, {"type": "node", "id": 1404226569, "lat": 4.08662, "lon": 43.118179, "tags": {"name": "Guubey", "pcode": "NB-3813-X25-001", "place": "village", "source": "UNDP - 1997"}}, {"type": "node", "id": 1404226902, "lat": 3.9767, "lon": 43.15215, "tags": {"name": "Inbeerey", "pcode": "NA-3801-A26-001", "place": "village", "source": "UNDP - 2006"}}, {"type": "node", "id": 1404226907, "lat": 3.86694, "lon": 43.01144, "tags": {"alt_name": "Hinshilow Wtp", "name": "Hinshilow", "pcode": "NA-3801-D23-002", "place": "village", "source": "UNDP - 2006, FSAU"}}, {"type": "node", "id": 1404227278, "lat": 4.02591, "lon": 43.04468, "tags": {"name": "War Caddey", "pcode": "NB-3813-Z23-001", "place": "village", "source": "UNDP - 2006"}}, {"type": "node", "id": 1404227318, "lat": 3.80925, "lon": 43.247089, "tags": {"alt_name": "Wajid", "name": "Waajid \u0648\u0627\u0627\u062c\u064a\u062f", "name:ar": "\u0648\u0627\u0627\u062c\u064a\u062f", "name:ca": "Wajid", "name:de": "Wajid", "name:en": "Wajid", "name:fr": "Wajid", "name:it": "Uegit", "name:ja": "\u30ef\u30b8\u30c9", "name:pl": "Waajid", "name:ro": "Wajid", "name:ur": "\u0648\u0627\u062c\u062f", "name:zu": "Wajid", "pcode": "NA-3801-E28-001", "place": "town", "source": "UNDP - 1997, FSAU", "wikidata": "Q2064657", "wikipedia": "so:Waajid"}}, {"type": "node", "id": 1404227323, "lat": 4.00637, "lon": 43.1562, "tags": {"name": "War Bukrey", "pcode": "NB-3813-Z26-008", "place": "village", "source": "FSAU"}}, {"type": "node", "id": 1404227568, "lat": 3.96017, "lon": 43.10476, "tags": {"alt_name": "Towsiiley", "name": "Towsiiley Leesameed", "pcode": "NA-3801-A25-002", "place": "village", "source": "UNDP - 2006, FSAU"}}, {"type": "node", "id": 1404227957, "lat": 3.7271, "lon": 43.147499, "tags": {"name": "Subai", "pcode": "NA-3801-G26-001", "place": "locality"}}, {"type": "node", "id": 1404228312, "lat": 4.07746, "lon": 43.11424, "tags": {"name": "Buulo Meegag", "pcode": "NB-3813-Y25-003", "place": "village", "source": "UNDP - 2006"}}, {"type": "node", "id": 1404229172, "lat": 3.7408429, "lon": 43.0010356, "tags": {"name": "Safarnooley-1", "pcode": "NA-3801-G23-001", "place": "hamlet", "source": "UNDP - 2006"}}, {"type": "node", "id": 1404229302, "lat": 3.68359, "lon": 42.98844, "tags": {"alt_name": "Barar Gabo", "name": "Baraar-Gaabo", "pcode": "NA-3801-H22-001", "place": "village", "source": "UNDP - 2006, FSAU"}}, {"type": "node", "id": 1404229693, "lat": 4.10294, "lon": 43.16327, "tags": {"name": "Isdhoorti", "pcode": "NB-3813-X26-001", "place": "village", "source": "UNDP - 2006, FSAU"}}, {"type": "node", "id": 1404229899, "lat": 3.79157, "lon": 42.91706, "tags": {"name": "Iska Riix", "pcode": "NA-3801-F21-003", "place": "village", "source": "UNDP - 2006"}}, {"type": "node", "id": 1404230032, "lat": 3.74335, "lon": 42.96714, "tags": {"name": "Sarmaanjab", "pcode": "NA-3801-G22-001", "place": "village", "source": "UNDP - 2006"}}, {"type": "node", "id": 1404230076, "lat": 3.77051, "lon": 42.94771, "tags": {"name": "Ceel-Dhanaawe", "pcode": "NA-3801-F21-002", "place": "village", "source": "UNDP - 2006"}}, {"type": "node", "id": 1404230170, "lat": 4.03437, "lon": 43.13825, "tags": {"alt_name": "Gumar Sangar", "name": "Gomor Sangar", "pcode": "NB-3813-Z26-003", "place": "village", "source": "UNDP - 2006, FSAU"}}, {"type": "node", "id": 1404230279, "lat": 3.7401422, "lon": 42.9414106, "tags": {"name": "Edin-Goley", "pcode": "NA-3801-G21-002", "place": "village", "source": "UNDP - 2006"}}, {"type": "node", "id": 1404230340, "lat": 3.77234, "lon": 43.26526, "tags": {"name": "El Figow", "pcode": "NA-3801-F28-001", "place": "locality", "source": "FSAU"}}, {"type": "node", "id": 1404230428, "lat": 4.0425224, "lon": 43.1500916, "tags": {"name": "Doonful", "pcode": "NB-3813-Z26-002", "place": "village", "source": "UNDP - 2006, FSAU"}}, {"type": "node", "id": 1404230799, "lat": 3.72838, "lon": 42.91011, "tags": {"alt_name": "El Bon", "name": "Ceel Boon", "pcode": "NA-3801-G21-001", "place": "town", "source": "UNDP - 2006, FSAU"}}, {"type": "node", "id": 1404230922, "lat": 4.05373, "lon": 43.10162, "tags": {"name": "Ban-Soofe", "pcode": "NB-3813-Y25-001", "place": "village", "source": "UNDP - 2006, FSAU"}}, {"type": "node", "id": 1404230944, "lat": 3.73639, "lon": 42.93141, "tags": {"name": "Elaon", "pcode": "NA-3801-G21-003", "place": "village", "source": "FSAU"}}, {"type": "node", "id": 1404231088, "lat": 3.7430813, "lon": 43.0024706, "tags": {"name": "Safar Nolay Wp", "pcode": "NA-3801-G23-003", "place": "village"}}, {"type": "node", "id": 1404231323, "lat": 4.0539961, "lon": 43.2426586, "tags": {"alt_name": "Burdhuhunle", "name": "Buur Dhuxunle", "pcode": "NB-3813-Y28-001", "place": "town", "source": "UNDP - 2006, UNDP - 1997, FSAU"}}, {"type": "node", "id": 1404231371, "lat": 3.9127725, "lon": 43.0067684, "tags": {"alt_name": "Gomoriyal", "name": "Gumarayaale", "pcode": "NA-3801-C23-001", "place": "village", "source": "UNDP - 2006, FSAU"}}, {"type": "node", "id": 1404231486, "lat": 3.79833, "lon": 42.97869, "tags": {"alt_name": "Ceel Ipran", "name": "Ceel Ibraan", "pcode": "NA-3801-E22-001", "place": "village", "source": "UNDP - 2006, FSAU"}}, {"type": "node", "id": 1404231518, "lat": 3.80979, "lon": 43.24547, "tags": {"name": "Howl-Wadaag", "pcode": "NA-3801-E28-003", "place": "suburb", "source": "UNDP - 2006"}}, {"type": "node", "id": 1404231564, "lat": 3.81596, "lon": 42.91218, "tags": {"name": "Buulo Shaabey", "pcode": "NA-3801-E21-001", "place": "village", "source": "UNDP - 2006"}}, {"type": "node", "id": 1404231767, "lat": 3.68869, "lon": 43.00215, "tags": {"alt_name": "Weley", "name": "Weeley", "pcode": "NA-3801-H23-001", "place": "village"}}, {"type": "node", "id": 1404231824, "lat": 4.0960424, "lon": 43.0675552, "tags": {"name": "War Mad Maalin", "pcode": "NB-3813-X24-003", "place": "village", "source": "UNDP - 2006"}}, {"type": "node", "id": 1404232034, "lat": 4.09306, "lon": 43.13967, "tags": {"name": "War Bilele", "pcode": "NB-3813-X26-002", "place": "village", "source": "FSAU"}}, {"type": "node", "id": 1404232387, "lat": 4.01256, "lon": 43.02156, "tags": {"name": "Buulo Shariif", "pcode": "NB-3813-Z23-002", "place": "village", "source": "UNDP - 2006"}}, {"type": "node", "id": 1404232400, "lat": 3.83502, "lon": 43.10788, "tags": {"alt_name": "El Ure Vill Dam", "name": "Eelure", "pcode": "NA-3801-D25-001", "place": "village", "source": "FSAU"}}, {"type": "node", "id": 1404232562, "lat": 3.69588, "lon": 42.8844, "tags": {"name": "Ceel-Dameer", "pcode": "NA-3801-H20-001", "place": "village", "source": "UNDP - 2006"}}, {"type": "node", "id": 1404232646, "lat": 4.01244, "lon": 43.01595, "tags": {"name": "Buulo Jadiid", "pcode": "NB-3813-Z23-003", "place": "village", "source": "UNDP - 2006"}}, {"type": "node", "id": 1404232666, "lat": 4.01277, "lon": 43.10368, "tags": {"name": "Kafaroow", "pcode": "NB-3813-Z25-002", "place": "village", "source": "UNDP - 2006, FSAU"}}, {"type": "node", "id": 1404232896, "lat": 3.9820995, "lon": 43.1364778, "tags": {"name": "War Orogle", "pcode": "NA-3801-A26-003", "place": "village", "source": "FSAU"}}, {"type": "node", "id": 1404232957, "lat": 4.01432, "lon": 43.10198, "tags": {"name": "God Gamaas", "pcode": "NB-3813-Z25-003", "place": "village", "source": "UNDP - 2006"}}, {"type": "node", "id": 1404232968, "lat": 3.99316, "lon": 43.134449, "tags": {"name": "Dharkaya Kuus", "pcode": "NA-3801-A25-001", "place": "village", "source": "UNDP - 1997"}}, {"type": "node", "id": 1404233000, "lat": 3.77895, "lon": 42.95, "tags": {"name": "Yup Grable Wp", "pcode": "NA-3801-F21-004", "place": "village", "source": "FSAU"}}, {"type": "node", "id": 1404233079, "lat": 4.0386491, "lon": 43.2218014, "tags": {"alt_name": "War Weyne", "name": "War-Wiin Kamiisle", "pcode": "NB-3813-Z27-001", "place": "village", "source": "UNDP - 2006, UNDP - 1997, FSAU"}}, {"type": "node", "id": 1404233376, "lat": 3.6985148, "lon": 43.0786907, "tags": {"alt_name": "Ceel Harare", "name": "Ceel Xarar", "pcode": "NA-3801-H24-001", "place": "village", "source": "UNDP - 2006"}}, {"type": "node", "id": 1404233448, "lat": 3.77358, "lon": 42.88764, "tags": {"name": "Low Bur", "pcode": "NA-3801-F20-002", "place": "village", "source": "FSAU"}}, {"type": "node", "id": 1404233481, "lat": 3.96901, "lon": 42.97715, "tags": {"name": "Mooyo", "pcode": "NA-3801-A22-001", "place": "village", "source": "UNDP - 1997"}}, {"type": "node", "id": 1404233540, "lat": 4.06051, "lon": 43.073, "tags": {"alt_name": "Haram Bariyo", "name": "Haran Bariyoow", "pcode": "NB-3813-Y24-002", "place": "village", "source": "UNDP - 2006, FSAU"}}, {"type": "node", "id": 1404233621, "lat": 4.05506, "lon": 43.0633, "tags": {"name": "War Yar Yar", "pcode": "NB-3813-Y24-004", "place": "village", "source": "FSAU"}}, {"type": "node", "id": 1404233636, "lat": 3.74536, "lon": 42.98106, "tags": {"alt_name": "Dukuy", "name": "Dhukuy", "pcode": "NA-3801-G22-002", "place": "village", "source": "UNDP - 2006, FSAU"}}, {"type": "node", "id": 8396541474, "lat": 3.6925894, "lon": 43.011378, "tags": {"place": "hamlet"}}, {"type": "node", "id": 8396541559, "lat": 3.6969143, "lon": 43.0758054, "tags": {"place": "isolated_dwelling"}}, {"type": "node", "id": 8399179779, "lat": 3.7117338, "lon": 43.0212555, "tags": {"place": "isolated_dwelling"}}, {"type": "node", "id": 8399179780, "lat": 3.7103009, "lon": 43.021645, "tags": {"place": "isolated_dwelling"}}, {"type": "node", "id": 8402322288, "lat": 3.6804135, "lon": 43.2359047, "tags": {"place": "isolated_dwelling"}}, {"type": "node", "id": 8405207825, "lat": 3.6864343, "lon": 43.2446818, "tags": {"place": "isolated_dwelling"}}, {"type": "node", "id": 8407596730, "lat": 3.7365107, "lon": 43.0137062, "tags": {"place": "isolated_dwelling"}}, {"type": "node", "id": 8407597495, "lat": 3.7283473, "lon": 43.0138238, "tags": {"place": "isolated_dwelling"}}, {"type": "node", "id": 8407597657, "lat": 3.7220896, "lon": 43.0027718, "tags": {"place": "isolated_dwelling"}}, {"type": "node", "id": 8434616539, "lat": 3.6910821, "lon": 43.0098706, "tags": {"place": "isolated_dwelling"}}, {"type": "node", "id": 8434616540, "lat": 3.6900971, "lon": 43.0092967, "tags": {"place": "isolated_dwelling"}}, {"type": "node", "id": 8446442342, "lat": 3.7204926, "lon": 43.254928, "tags": {"place": "hamlet"}}]}