{"version": 0.6, "generator": "Overpass API 0.7.62.1 084b4234", "osm3s": {"timestamp_osm_base": "2024-10-01T00:29:31Z", "copyright": "The data included in this document is from www.openstreetmap.org. The data is made available under ODbL."}, "elements": [{"type": "node", "id": 298296178, "lat": 14.2774132, "lon": 39.4614983, "tags": {"ele": "2444", "import:ALTNAMES": "Addi Grat, Adigrat, \u0100d\u012bgrat", "import:FULL": "\u0100dd\u012bgrat", "import:LAT": "1428", "import:LON": "3947", "import:PARENTADMIN1": "Tigray", "import:PARENTCOUNTRY": "Ethiopia", "import:POPULATION": "71453", "import:TYPE": "locality", "import:UFI": "375429947", "name": "\u12d3\u12f2\u130d\u122b\u1275 / Adigrat", "name:am": "\u12d3\u12f2\u130d\u122b\u1275", "name:de": "Adigrat", "name:en": "Adigrat", "name:es": "Adigrat", "name:fr": "Adigrat", "name:ru": "\u0410\u0434\u0434\u0438-\u0413\u0440\u0430\u0442", "place": "town", "population": "71453", "wikidata": "Q357101", "wikipedia": "ru:\u0410\u0434\u0434\u0438-\u0413\u0440\u0430\u0442"}}, {"type": "node", "id": 514110082, "lat": 13.9604855, "lon": 39.5975909, "tags": {"ele": "2425", "name": "\u12a5\u1295\u12f3 \u1270\u12ab \u1270\u1235\u134b\u12ed", "name:en": "Inda Teka Tesfay", "name:ti": "\u12a5\u1295\u12f3 \u1270\u12ab \u1270\u1235\u134b\u12ed", "place": "village"}}, {"type": "node", "id": 514110193, "lat": 14.054186, "lon": 39.577254, "tags": {"ele": "2474", "name": "\u134d\u1228\u12c8\u12ed\u1292", "name:en": "Freweyni", "name:fr": "Freweyni", "name:ti": "\u134d\u1228\u12c8\u12ed\u1292", "name:zu": "Freweyni", "place": "town", "wikidata": "Q16965710", "wikipedia": "en:Freweyni"}}, {"type": "node", "id": 514110340, "lat": 14.1859674, "lon": 39.5634336, "tags": {"alt_name": "Idaga Hamus", "ele": "2704", "name": "\u12d5\u12f3\u130b \u1213\u1219\u1235", "name:en": "Edaga Hamus", "name:fr": "Edaga Hamus", "name:ti": "\u12d5\u12f3\u130b \u1213\u1219\u1235", "place": "town", "wikidata": "Q3147774"}}, {"type": "node", "id": 580386773, "lat": 13.9375503, "lon": 39.374808, "tags": {"name": "Megab", "place": "village"}}, {"type": "node", "id": 580396445, "lat": 13.9797273, "lon": 39.4301073, "tags": {"name": "\u1213\u12cd\u12dc\u1295", "name:en": "Hawzen", "name:fr": "Hawzen", "name:ti": "\u1213\u12cd\u12dc\u1295", "name:zu": "Hawzen", "place": "town", "wikidata": "Q3128790", "wikipedia": "en:Hawzen (woreda)"}}, {"type": "node", "id": 1150880951, "lat": 14.04333, "lon": 39.49666, "tags": {"name": "Hangoda Shet'", "place": "locality", "source": "GeoDatabase"}}, {"type": "node", "id": 1150881013, "lat": 14.17639, "lon": 39.3825, "tags": {"name": "Azeba", "place": "village"}}, {"type": "node", "id": 1150881125, "lat": 14.0928289, "lon": 39.5653236, "tags": {"name": "Gudgud", "place": "hamlet"}}, {"type": "node", "id": 1150882549, "lat": 14.08333, "lon": 39.58333, "tags": {"name": "Tetama", "place": "locality", "source": "GeoDatabase"}}, {"type": "node", "id": 1150882572, "lat": 14.27583, "lon": 39.51694, "tags": {"name": "Mai Masano", "place": "locality", "source": "GeoDatabase"}}, {"type": "node", "id": 1150883272, "lat": 14.21667, "lon": 39.43333, "tags": {"name": "Set'A Mika'El Bete Kristiyan", "place": "locality", "source": "GeoDatabase"}}, {"type": "node", "id": 1150884865, "lat": 14.04083, "lon": 39.64805, "tags": {"name": "Guila Shet", "place": "locality", "source": "GeoDatabase"}}, {"type": "node", "id": 1150885702, "lat": 14.21714, "lon": 39.64631, "tags": {"name": "Suwaha", "place": "locality", "source": "GeoDatabase"}}, {"type": "node", "id": 1150886549, "lat": 14.3, "lon": 39.36667, "tags": {"name": "Adi K'Eharis Ts'Adik'An Bete Kristiyan", "place": "locality", "source": "GeoDatabase"}}, {"type": "node", "id": 1150886923, "lat": 13.95818, "lon": 39.47633, "tags": {"name": "Ayba Kidane Mykhret", "place": "village"}}, {"type": "node", "id": 1150887859, "lat": 14.18005, "lon": 39.58745, "tags": {"name": "Enda Mariam Sion", "place": "locality", "source": "GeoDatabase"}}, {"type": "node", "id": 1150887991, "lat": 14.08333, "lon": 39.43333, "tags": {"name": "Amba Ts'Iyon", "place": "locality", "source": "GeoDatabase"}}, {"type": "node", "id": 1150889359, "lat": 14.2, "lon": 39.41667, "tags": {"name": "Alequa", "place": "locality", "source": "GeoDatabase"}}, {"type": "node", "id": 1150889459, "lat": 14.27938, "lon": 39.46537, "tags": {"name": "Adigrat Medhane `Alem Bete Kristiyan", "place": "locality", "source": "GeoDatabase"}}, {"type": "node", "id": 1150890872, "lat": 14.0319417, "lon": 39.6406485, "tags": {"name": "K'Ilet", "place": "hamlet"}}, {"type": "node", "id": 1150893513, "lat": 14.09933, "lon": 39.63126, "tags": {"name": "Angwel", "place": "locality", "source": "GeoDatabase"}}, {"type": "node", "id": 1150894278, "lat": 13.98333, "lon": 39.66667, "tags": {"name": "Mesk'El", "place": "locality", "source": "GeoDatabase"}}, {"type": "node", "id": 1150894366, "lat": 13.9656824, "lon": 39.3838175, "tags": {"name": "Donguor", "place": "village"}}, {"type": "node", "id": 1150895836, "lat": 14.23122, "lon": 39.60168, "tags": {"name": "Iboyto", "place": "locality", "source": "GeoDatabase"}}, {"type": "node", "id": 1150897340, "lat": 14.14941, "lon": 39.60157, "tags": {"name": "Socota", "place": "locality", "source": "GeoDatabase"}}, {"type": "node", "id": 1150898110, "lat": 14.28333, "lon": 39.48722, "tags": {"name": "Goli'A", "place": "locality", "source": "GeoDatabase"}}, {"type": "node", "id": 1150898804, "lat": 14.09632, "lon": 39.60007, "tags": {"name": "Aba Mekereyta", "place": "hamlet"}}, {"type": "node", "id": 1150898999, "lat": 14.18333, "lon": 39.38333, "tags": {"name": "Azeba Medhane `Alem Bete Kristiyan", "place": "locality", "source": "GeoDatabase"}}, {"type": "node", "id": 1150900146, "lat": 14.20349, "lon": 39.62268, "tags": {"name": "Mezewele", "place": "locality", "source": "GeoDatabase"}}, {"type": "node", "id": 1150901970, "lat": 14.27028, "lon": 39.55861, "tags": {"name": "Mene'Asfiha Bota", "place": "locality", "source": "GeoDatabase"}}, {"type": "node", "id": 1150902012, "lat": 14.28889, "lon": 39.63972, "tags": {"name": "Kal Wishat'E Shet'", "place": "locality", "source": "GeoDatabase"}}, {"type": "node", "id": 1150902512, "lat": 14.023213, "lon": 39.6421167, "tags": {"name": "Dasbras'Eyon'", "place": "hamlet"}}, {"type": "node", "id": 1150903254, "lat": 14.1843207, "lon": 39.4101495, "tags": {"name": "Ya'Awo", "place": "village"}}, {"type": "node", "id": 1150903334, "lat": 14.2986508, "lon": 39.4616524, "tags": {"name": "Ba'Ati", "place": "neighbourhood"}}, {"type": "node", "id": 1150904834, "lat": 13.9763417, "lon": 39.4940288, "tags": {"name": "Sadaba", "place": "hamlet"}}, {"type": "node", "id": 1150908531, "lat": 14.17506, "lon": 39.6183, "tags": {"name": "Ru'Usu Dur", "place": "locality", "source": "GeoDatabase"}}, {"type": "node", "id": 1150909072, "lat": 14.29749, "lon": 39.51678, "tags": {"name": "Tara Shet'", "place": "locality", "source": "GeoDatabase"}}, {"type": "node", "id": 1150909519, "lat": 14.21759, "lon": 39.43159, "tags": {"name": "Set'A", "place": "locality", "source": "GeoDatabase"}}, {"type": "node", "id": 1150910372, "lat": 14.02887, "lon": 39.49375, "tags": {"name": "Botyes Shet'", "place": "locality", "source": "GeoDatabase"}}, {"type": "node", "id": 1150910566, "lat": 14.1021652, "lon": 39.5709275, "tags": {"name": "Meghelta", "place": "village"}}, {"type": "node", "id": 1150910978, "lat": 13.95441, "lon": 39.65473, "tags": {"name": "Ts'Ahit Shet'", "place": "locality", "source": "GeoDatabase"}}, {"type": "node", "id": 1150911691, "lat": 13.94172, "lon": 39.45402, "tags": {"name": "Enda Mariam Sebela", "place": "village"}}, {"type": "node", "id": 1150912463, "lat": 14.1251, "lon": 39.51276, "tags": {"name": "Mawrugo", "place": "hamlet"}}, {"type": "node", "id": 1150917879, "lat": 14.21667, "lon": 39.45, "tags": {"name": "Info", "place": "locality", "source": "GeoDatabase"}}, {"type": "node", "id": 1150918673, "lat": 14.11173, "lon": 39.59695, "tags": {"name": "Inda Tekle Haymanot", "place": "locality", "source": "GeoDatabase"}}, {"type": "node", "id": 1150918678, "lat": 13.97837, "lon": 39.56824, "tags": {"name": "Hadira", "place": "locality", "source": "GeoDatabase"}}, {"type": "node", "id": 1150923131, "lat": 13.9250388, "lon": 39.475511, "tags": {"name": "Addi Bere Mikael'", "place": "locality"}}, {"type": "node", "id": 1150924250, "lat": 14.13972, "lon": 39.385, "tags": {"name": "Meshat", "place": "locality", "source": "GeoDatabase"}}, {"type": "node", "id": 1150924765, "lat": 14.05444, "lon": 39.37694, "tags": {"name": "Baleda", "place": "locality", "source": "GeoDatabase"}}, {"type": "node", "id": 1150926101, "lat": 13.98333, "lon": 39.56666, "tags": {"name": "Sendada Bota", "place": "locality", "source": "GeoDatabase"}}, {"type": "node", "id": 1150928088, "lat": 13.99152, "lon": 39.67439, "tags": {"name": "Kal'Kalet Iyesus", "place": "locality", "source": "GeoDatabase"}}, {"type": "node", "id": 1150929316, "lat": 14.00888, "lon": 39.64728, "tags": {"name": "Khichen Shet", "place": "locality", "source": "GeoDatabase"}}, {"type": "node", "id": 1150931153, "lat": 14.27002, "lon": 39.60919, "tags": {"name": "Anza", "place": "locality", "source": "GeoDatabase"}}, {"type": "node", "id": 1150933936, "lat": 14.03776, "lon": 39.64319, "tags": {"name": "Abna'O", "place": "village"}}, {"type": "node", "id": 1150934858, "lat": 14.21896, "lon": 39.66194, "tags": {"name": "May Iderat", "place": "locality", "source": "GeoDatabase"}}, {"type": "node", "id": 1150935869, "lat": 14.11639, "lon": 39.39472, "tags": {"name": "Ts'Efah", "place": "locality", "source": "GeoDatabase"}}, {"type": "node", "id": 1150936123, "lat": 14.28187, "lon": 39.66265, "tags": {"is_in:country_code": "ET", "is_in:county": "Ethiopia", "name": "Subaha Zahalien", "place": "locality", "source": "GeoDatabase"}}, {"type": "node", "id": 1150936511, "lat": 14.112945, "lon": 39.5945712, "tags": {"name": "Zelalmoo", "place": "hamlet"}}, {"type": "node", "id": 1150940743, "lat": 14.05474, "lon": 39.57721, "tags": {"name": "Senkata", "place": "locality", "source": "GeoDatabase"}}, {"type": "node", "id": 1150942546, "lat": 14.25574, "lon": 39.55086, "tags": {"name": "Mekeuot Giyorgis", "place": "locality", "source": "GeoDatabase"}}, {"type": "node", "id": 1150943251, "lat": 14.2, "lon": 39.45, "tags": {"name": "Seeta", "place": "locality", "source": "GeoDatabase"}}, {"type": "node", "id": 1150943444, "lat": 14.0589127, "lon": 39.6548096, "tags": {"name": "Guila", "place": "village"}}, {"type": "node", "id": 1150945734, "lat": 14.13333, "lon": 39.6, "tags": {"name": "Mai Uecc", "place": "locality", "source": "GeoDatabase"}}, {"type": "node", "id": 1150947290, "lat": 14.1, "lon": 39.43333, "tags": {"name": "K'Wa'Ot Gebre Menfes K'Idus Bete Kristiyan", "place": "locality", "source": "GeoDatabase"}}, {"type": "node", "id": 1150949206, "lat": 14.12917, "lon": 39.59914, "tags": {"name": "T'Ek'Ot", "place": "locality", "source": "GeoDatabase"}}, {"type": "node", "id": 1150954639, "lat": 14.1182991, "lon": 39.6464627, "tags": {"name": "Ayfelah", "place": "village"}}, {"type": "node", "id": 1150956255, "lat": 14.13333, "lon": 39.51667, "tags": {"name": "Ogoro Pass", "place": "locality", "source": "GeoDatabase"}}, {"type": "node", "id": 1150960720, "lat": 14.28781, "lon": 39.50852, "tags": {"name": "Gwola", "place": "locality", "source": "GeoDatabase"}}, {"type": "node", "id": 1150962354, "lat": 13.95023, "lon": 39.37952, "tags": {"name": "Ts'A`Ida Gu'I Korebta", "place": "locality", "source": "GeoDatabase"}}, {"type": "node", "id": 1150963304, "lat": 14.2247434, "lon": 39.5184155, "tags": {"name": "Bet Hawanyat", "place": "village"}}, {"type": "node", "id": 1150963708, "lat": 13.9917342, "lon": 39.5117865, "tags": {"name": "Ts'Ehaf Werdi Bota", "place": "village"}}, {"type": "node", "id": 1150971375, "lat": 14.27906, "lon": 39.46136, "tags": {"name": "Adigrat Polis T'Abiya", "place": "locality", "source": "GeoDatabase"}}, {"type": "node", "id": 1150971456, "lat": 14.16667, "lon": 39.61667, "tags": {"name": "Ru'Usu Dur Aba Solama Bete Kristiyan", "place": "locality", "source": "GeoDatabase"}}, {"type": "node", "id": 1150973506, "lat": 14.04867, "lon": 39.59666, "tags": {"name": "Adi Ch'Ewa", "place": "hamlet"}}, {"type": "node", "id": 1150973977, "lat": 13.9429159, "lon": 39.5979398, "tags": {"name": "Addi Abbag'Ye", "place": "village"}}, {"type": "node", "id": 1150977353, "lat": 14.09, "lon": 39.48194, "tags": {"name": "Ze'Aken Shet'", "place": "locality", "source": "GeoDatabase"}}, {"type": "node", "id": 1150979135, "lat": 14.05045, "lon": 39.62582, "tags": {"name": "Agamet", "place": "village"}}, {"type": "node", "id": 1150979631, "lat": 14.11667, "lon": 39.4, "tags": {"name": "Ts'Efah Maryam Bete Kristiyan", "place": "locality", "source": "GeoDatabase"}}, {"type": "node", "id": 1151003579, "lat": 14.24306, "lon": 39.65583, "tags": {"is_in:country_code": "ET", "is_in:county": "Ethiopia", "name": "Huts'A Amba", "place": "locality", "source": "GeoDatabase"}}, {"type": "node", "id": 1350420011, "lat": 14.2972269, "lon": 39.4768381, "tags": {"name": "Baati Hagosa", "place": "village"}}, {"type": "node", "id": 3330030975, "lat": 14.2067101, "lon": 39.6441629, "tags": {"place": "hamlet"}}, {"type": "node", "id": 3359697003, "lat": 14.2344188, "lon": 39.6532512, "tags": {"place": "village"}}, {"type": "node", "id": 6397908885, "lat": 14.0121974, "lon": 39.5944336, "tags": {"name": "\u130e\u122d\u121e\u12f6", "name:en": "Gormodo", "name:ti": "\u130e\u122d\u121e\u12f6", "place": "village"}}, {"type": "node", "id": 6397925885, "lat": 14.1280485, "lon": 39.5703906, "tags": {"name": "\u121b\u12ed \u12cd\u1211\u1305", "name:en": "Mai-Wuhuj", "name:ti": "\u121b\u12ed \u12cd\u1211\u1305", "place": "village"}}, {"type": "node", "id": 8931850562, "lat": 14.2293812, "lon": 39.3819448, "tags": {"name": "Dagedey", "place": "village"}}, {"type": "node", "id": 8931850563, "lat": 14.2479909, "lon": 39.4174146, "tags": {"name": "Alequa", "place": "village"}}, {"type": "node", "id": 9228106179, "lat": 14.3006486, "lon": 39.557122, "tags": {"name": "Adi K'Elebes", "place": "village"}}, {"type": "node", "id": 9232360531, "lat": 14.2873616, "lon": 39.4917405, "tags": {"place": "village"}}, {"type": "node", "id": 9233177156, "lat": 14.2358178, "lon": 39.4323671, "tags": {"name": "Dendera", "place": "hamlet"}}, {"type": "node", "id": 9233711429, "lat": 14.1356289, "lon": 39.4449198, "tags": {"place": "village"}}, {"type": "node", "id": 9233711579, "lat": 14.1704483, "lon": 39.4270563, "tags": {"place": "village"}}, {"type": "node", "id": 9233711580, "lat": 14.1639155, "lon": 39.4045257, "tags": {"place": "hamlet"}}, {"type": "node", "id": 9233711726, "lat": 14.1727992, "lon": 39.3947303, "tags": {"name": "Rahya", "name:en": "Rahya", "place": "village"}}, {"type": "node", "id": 9234831023, "lat": 14.2146281, "lon": 39.5237821, "tags": {"name": "\u1264\u1275\u1213\u122d\u12eb\u1275", "name:am": "\u1264\u1275\u1213\u122d\u12eb\u1275", "name:en": "Bet Haworiyat", "place": "village"}}, {"type": "node", "id": 9234974003, "lat": 14.1448674, "lon": 39.5482707, "tags": {"place": "village"}}, {"type": "node", "id": 9235080832, "lat": 14.0756421, "lon": 39.5643961, "tags": {"place": "village"}}, {"type": "node", "id": 11014800799, "lat": 14.056637, "lon": 39.3724899, "tags": {"place": "hamlet"}}]}