{"version": 0.6, "generator": "Overpass API 0.7.62.1 084b4234", "osm3s": {"timestamp_osm_base": "2024-09-30T20:16:14Z", "copyright": "The data included in this document is from www.openstreetmap.org. The data is made available under ODbL."}, "elements": [{"type": "node", "id": 1150881936, "lat": 8.16111, "lon": 45.57556, "tags": {"is_in:country_code": "ET", "is_in:county": "Ethiopia", "name": "Meridleh", "place": "locality", "source": "GeoDatabase"}}, {"type": "node", "id": 1150896432, "lat": 8.12806, "lon": 45.55583, "tags": {"is_in:country_code": "ET", "is_in:county": "Ethiopia", "name": "Meridlekh", "place": "locality", "source": "GeoDatabase"}}, {"type": "node", "id": 1150901053, "lat": 8.41444, "lon": 45.68833, "tags": {"name": "Drialel", "place": "locality", "source": "GeoDatabase"}}, {"type": "node", "id": 1150913886, "lat": 8.23333, "lon": 45.68333, "tags": {"is_in:country_code": "ET", "is_in:county": "Ethiopia", "name": "Iub", "place": "locality", "source": "GeoDatabase"}}, {"type": "node", "id": 1150969227, "lat": 8.02611, "lon": 45.66167, "tags": {"is_in:country_code": "ET", "is_in:county": "Ethiopia", "name": "Kabrin", "place": "locality", "source": "GeoDatabase"}}, {"type": "node", "id": 1151002901, "lat": 8.38167, "lon": 45.84389, "tags": {"name": "Dinlekh", "place": "locality", "source": "GeoDatabase"}}, {"type": "node", "id": 1404223101, "lat": 8.4312687, "lon": 45.7193407, "tags": {"alt_name": "Candha Dhexe", "name": "Candhodhexe", "pcode": "NC-3815-P16-001", "place": "village", "source": "UNDP - 2006, GTZ - 2002"}}, {"type": "node", "id": 1404225768, "lat": 8.42054, "lon": 45.761219, "tags": {"name": "Daryaleh", "pcode": "NC-3815-P17-001", "place": "village", "source": "UNDP - 1997"}}, {"type": "node", "id": 1404226721, "lat": 8.4157163, "lon": 45.7662805, "tags": {"name": "Dhagax Dheer", "pcode": "NC-3815-Q17-001", "place": "village", "source": "GTZ - 2002"}}, {"type": "node", "id": 1404226872, "lat": 8.39541, "lon": 45.82783, "tags": {"alt_name": "Dheryaley", "name": "Dhariyalay", "pcode": "NC-3815-Q19-001", "place": "village", "source": "UNDP - 2006, GTZ - 2002"}}, {"type": "node", "id": 8921985083, "lat": 8.2798644, "lon": 45.8663052, "tags": {"place": "hamlet"}}, {"type": "node", "id": 8921985182, "lat": 8.2843565, "lon": 45.8863902, "tags": {"place": "isolated_dwelling"}}]}