{"version": 0.6, "generator": "Overpass API 0.7.62.1 084b4234", "osm3s": {"timestamp_osm_base": "2024-09-30T23:57:58Z", "copyright": "The data included in this document is from www.openstreetmap.org. The data is made available under ODbL."}, "elements": [{"type": "node", "id": 1150885684, "lat": 5.395, "lon": 44.53278, "tags": {"is_in:country_code": "ET", "is_in:county": "Ethiopia", "name": "Arunle", "place": "locality", "source": "GeoDatabase"}}, {"type": "node", "id": 1150889688, "lat": 5.60389, "lon": 44.55056, "tags": {"is_in:country_code": "ET", "is_in:county": "Ethiopia", "name": "Bur Uadere", "place": "locality", "source": "GeoDatabase", "wikidata": "Q24025485"}}, {"type": "node", "id": 1150896343, "lat": 5.45694, "lon": 44.47361, "tags": {"is_in:country_code": "ET", "is_in:county": "Ethiopia", "name": "Burdodi", "place": "locality", "source": "GeoDatabase"}}, {"type": "node", "id": 1150896628, "lat": 5.56667, "lon": 44.81666, "tags": {"is_in:country_code": "ET", "is_in:county": "Ethiopia", "name": "Faf Depression", "place": "locality", "source": "GeoDatabase"}}, {"type": "node", "id": 1150900883, "lat": 5.35944, "lon": 44.57278, "tags": {"is_in:country_code": "ET", "is_in:county": "Ethiopia", "name": "Feillo", "place": "locality", "source": "GeoDatabase"}}, {"type": "node", "id": 1150918994, "lat": 5.3875, "lon": 44.54555, "tags": {"is_in:country_code": "ET", "is_in:county": "Ethiopia", "name": "Roblei", "place": "locality", "source": "GeoDatabase"}}, {"type": "node", "id": 1150927207, "lat": 5.46167, "lon": 44.52694, "tags": {"is_in:country_code": "ET", "is_in:county": "Ethiopia", "name": "Ellin Medo", "place": "locality", "source": "GeoDatabase", "wikidata": "Q24031106"}}, {"type": "node", "id": 1150927398, "lat": 5.71667, "lon": 44.85, "tags": {"is_in:country_code": "ET", "is_in:county": "Ethiopia", "name": "Balli Got", "place": "locality", "source": "GeoDatabase", "wikidata": "Q24028744"}}, {"type": "node", "id": 1150960593, "lat": 5.70833, "lon": 44.60583, "tags": {"is_in:country_code": "ET", "is_in:county": "Ethiopia", "name": "Dorrei", "place": "locality", "source": "GeoDatabase", "wikidata": "Q24030953"}}, {"type": "node", "id": 1150972032, "lat": 5.61667, "lon": 44.5, "tags": {"is_in:country_code": "ET", "is_in:county": "Ethiopia", "name": "Laz Dogorrale", "place": "locality", "source": "GeoDatabase", "wikidata": "Q24030943"}}, {"type": "node", "id": 1150976924, "lat": 5.42361, "lon": 44.46083, "tags": {"is_in:country_code": "ET", "is_in:county": "Ethiopia", "name": "Durdere", "place": "locality", "source": "GeoDatabase"}}, {"type": "node", "id": 3168978436, "lat": 5.4105719, "lon": 44.5815616, "tags": {"place": "village"}}, {"type": "node", "id": 3168978778, "lat": 5.5138481, "lon": 44.4633229, "tags": {"place": "village"}}]}