{"version": 0.6, "generator": "Overpass API 0.7.62.1 084b4234", "osm3s": {"timestamp_osm_base": "2024-09-30T21:28:45Z", "copyright": "The data included in this document is from www.openstreetmap.org. The data is made available under ODbL."}, "elements": [{"type": "node", "id": 1150881106, "lat": 12.45, "lon": 40.05, "tags": {"is_in:country_code": "ET", "is_in:county": "Ethiopia", "name": "Rama", "place": "locality", "source": "GeoDatabase"}}, {"type": "node", "id": 1150882959, "lat": 12.58333, "lon": 40.18333, "tags": {"is_in:country_code": "ET", "is_in:county": "Ethiopia", "name": "Kubi T'Abato Shet'", "place": "locality", "source": "GeoDatabase"}}, {"type": "node", "id": 1150902269, "lat": 12.35, "lon": 40.25, "tags": {"is_in:country_code": "ET", "is_in:county": "Ethiopia", "name": "Monti Gama-Bolu", "place": "locality", "source": "GeoDatabase"}}, {"type": "node", "id": 1150925502, "lat": 12.7, "lon": 40.36667, "tags": {"is_in:country_code": "ET", "is_in:county": "Ethiopia", "name": "Fiume Waramma", "place": "locality", "source": "GeoDatabase"}}, {"type": "node", "id": 1150934775, "lat": 12.56667, "lon": 40.0, "tags": {"name": "Rair", "place": "locality", "source": "GeoDatabase"}}, {"type": "node", "id": 1150940173, "lat": 12.4, "lon": 40.3, "tags": {"is_in:country_code": "ET", "is_in:county": "Ethiopia", "name": "Teru", "place": "locality", "source": "GeoDatabase"}}, {"type": "node", "id": 1150962393, "lat": 12.66667, "lon": 40.33333, "tags": {"is_in:country_code": "ET", "is_in:county": "Ethiopia", "name": "Raya Na Azebo Awraja", "place": "locality", "source": "GeoDatabase"}}, {"type": "node", "id": 9266125788, "lat": 12.4813832, "lon": 40.314036, "tags": {"place": "town"}}]}