{"version": 0.6, "generator": "Overpass API 0.7.62.1 084b4234", "osm3s": {"timestamp_osm_base": "2024-09-30T19:03:00Z", "copyright": "The data included in this document is from www.openstreetmap.org. The data is made available under ODbL."}, "elements": [{"type": "node", "id": 10228097730, "lat": 3.1265319, "lon": 35.5450211, "tags": {"name": "Namudukey", "place": "village"}}, {"type": "node", "id": 10228152406, "lat": 3.0677951, "lon": 35.5511174, "tags": {"name": "Naotin", "place": "village"}}, {"type": "node", "id": 10228152414, "lat": 3.073284, "lon": 35.5537341, "tags": {"name": "Apua", "place": "village"}}, {"type": "node", "id": 10865256110, "lat": 3.074906, "lon": 35.5102467, "tags": {"name": "Nadapal", "place": "village"}}, {"type": "node", "id": 10866431540, "lat": 3.0048824, "lon": 35.4334548, "tags": {"name": "Kaitese", "place": "village"}}, {"type": "node", "id": 10866599347, "lat": 3.0461927, "lon": 35.4885474, "tags": {"fixme": "This name needs to be verified independently from other sources.", "name": "Nagis", "place": "village"}}, {"type": "node", "id": 10866606570, "lat": 3.0709085, "lon": 35.4946457, "tags": {"place": "village"}}]}