{"version": 0.6, "generator": "Overpass API 0.7.62.1 084b4234", "osm3s": {"timestamp_osm_base": "2024-09-30T18:41:16Z", "copyright": "The data included in this document is from www.openstreetmap.org. The data is made available under ODbL."}, "elements": [{"type": "node", "id": 44924932, "lat": -3.456608, "lon": 37.740092, "tags": {"name": "Nghonji", "place": "village", "wikidata": "Q7022333", "wikipedia": "en:Nghonji"}}, {"type": "node", "id": 965844692, "lat": -3.6468838, "lon": 37.660315, "tags": {"name": "Ugweno", "place": "village", "source": "Africover - Towns (other towns)", "wikidata": "Q16902271", "wikipedia": "en:Ugweno"}}, {"type": "node", "id": 965844859, "lat": -3.6268287, "lon": 37.6664365, "tags": {"name": "Kifula", "place": "village", "source": "Africover - Towns (other towns)"}}, {"type": "node", "id": 1908231379, "lat": -3.6969382, "lon": 37.6625999, "tags": {"is_in": "Kilimanjaro, Tansania", "name": "Usangi", "place": "village", "wikidata": "Q20746339", "wikipedia": "en:Usangi"}}, {"type": "node", "id": 4078295635, "lat": -3.6707797, "lon": 37.6498234, "tags": {"is_in": "Kilimanjaro, Tanzania", "name": "Shighatini", "place": "village"}}, {"type": "node", "id": 4891238824, "lat": -3.4389959, "lon": 37.6102437, "tags": {"name": "Kitobo", "place": "village"}}, {"type": "node", "id": 4891272329, "lat": -3.4780623, "lon": 37.680682, "tags": {"name": "Eldoro", "place": "village"}}, {"type": "node", "id": 4891384586, "lat": -3.4608879, "lon": 37.6903539, "tags": {"name": "Kimorigo", "place": "village"}}, {"type": "node", "id": 4891404188, "lat": -3.4367531, "lon": 37.6330258, "tags": {"name": "Mrambani", "place": "village"}}, {"type": "node", "id": 4891489565, "lat": -3.4251604, "lon": 37.6842582, "tags": {"name": "Kiwalwa", "place": "village"}}, {"type": "node", "id": 4899413438, "lat": -3.4287801, "lon": 37.7356301, "tags": {"name": "Rekeke", "place": "village"}}, {"type": "node", "id": 4899413648, "lat": -3.4767115, "lon": 37.7541694, "tags": {"name": "Mata", "place": "village"}}, {"type": "node", "id": 4911373056, "lat": -3.5001703, "lon": 37.680136, "tags": {"name": "Kithogoto", "place": "village"}}, {"type": "node", "id": 4911453765, "lat": -3.4150028, "lon": 37.7134116, "tags": {"name": "Mbonghoni", "place": "village"}}, {"type": "node", "id": 4911473267, "lat": -3.4425959, "lon": 37.7043831, "tags": {"name": "Margassa", "place": "village"}}, {"type": "node", "id": 4911498588, "lat": -3.4487367, "lon": 37.7170678, "tags": {"name": "Kishota", "place": "village"}}, {"type": "node", "id": 4912277795, "lat": -3.4279659, "lon": 37.6597078, "tags": {"name": "Riata", "place": "village"}}, {"type": "node", "id": 4912277796, "lat": -3.5000253, "lon": 37.7064131, "tags": {"name": "Ngutini", "place": "village"}}, {"type": "node", "id": 4912277814, "lat": -3.4632243, "lon": 37.6648087, "tags": {"name": "Kamleza", "place": "village"}}, {"type": "node", "id": 4912278828, "lat": -3.4841129, "lon": 37.643078, "tags": {"name": "Mokine", "place": "village"}}, {"type": "node", "id": 4912278829, "lat": -3.4683015, "lon": 37.6339463, "tags": {"name": "Mrabani", "place": "village"}}, {"type": "node", "id": 4914423310, "lat": -3.4496355, "lon": 37.9054246, "tags": {"name": "Luchoro", "place": "locality"}}, {"type": "node", "id": 4914423311, "lat": -3.4240103, "lon": 37.9861741, "tags": {"name": "Kisorini", "place": "locality"}}, {"type": "node", "id": 4916806178, "lat": -3.5182659, "lon": 37.7693372, "tags": {"name": "Orukungu", "place": "village"}}, {"type": "node", "id": 4916806205, "lat": -3.5280193, "lon": 37.7742402, "tags": {"name": "Munyoni", "place": "village"}}, {"type": "node", "id": 4916807275, "lat": -3.6871065, "lon": 37.8117311, "tags": {"name": "Malonza", "place": "locality"}}, {"type": "node", "id": 4916807276, "lat": -3.6531163, "lon": 37.8646469, "tags": {"name": "Moru", "place": "locality"}}, {"type": "node", "id": 5323623904, "lat": -3.715286, "lon": 37.790221, "tags": {"description": "DP Village Center", "ele": "722.4", "name": "Toloha Village", "place": "village", "source": "GPS survey"}}, {"type": "node", "id": 7057163490, "lat": -3.7284438, "lon": 37.6715555, "tags": {"name": "Ndorwe", "place": "village", "population": "2356", "source": "OpenData-NBS2012-HealthFacilities2014"}}, {"type": "node", "id": 7057163491, "lat": -3.7153387, "lon": 37.6598945, "tags": {"name": "Chomvu", "place": "village", "population": "1703", "source": "OpenData-NBS2012-HealthFacilities2014"}}, {"type": "node", "id": 7057214950, "lat": -3.5983488, "lon": 37.7010818, "tags": {"name": "Kambi ya Simba", "place": "village", "population": "782", "source": "OpenData-NBS2012-HealthFacilities2014"}}, {"type": "node", "id": 7057214951, "lat": -3.5574346, "lon": 37.7216855, "tags": {"name": "Jipe", "place": "village", "population": "733"}}, {"type": "node", "id": 7057214952, "lat": -3.6450151, "lon": 37.7161415, "tags": {"name": "Butu", "place": "village", "population": "1049", "source": "OpenData-NBS2012-HealthFacilities2014"}}, {"type": "node", "id": 7067630579, "lat": -3.7149737, "lon": 37.6705507, "tags": {"name": "Mshewa", "place": "village", "population": "1921", "source": "OpenData-NBS2012-SecondarySchools2016"}}, {"type": "node", "id": 7067630580, "lat": -3.7033558, "lon": 37.6490502, "tags": {"name": "Kimbale", "place": "village", "population": "1465", "source": "OpenData-NBS2012-SecondarySchools2016"}}, {"type": "node", "id": 7364498361, "lat": -3.7683802, "lon": 37.6529359, "tags": {"name": "Kilomeni", "place": "village", "wikidata": "Q6408126", "wikipedia": "en:Kilomeni"}}, {"type": "node", "id": 7529173591, "lat": -3.5855165, "lon": 37.6671647, "tags": {"country": "Tanzania", "district": "Mwanga", "name": "Vuchama Ngofi", "place": "village", "region": "Kilimanjaro", "ward": "Mwaniko"}}, {"type": "node", "id": 7529173592, "lat": -3.7082722, "lon": 37.6748945, "tags": {"country": "Tanzania", "district": "Mwanga", "name": "Vuagha", "place": "village", "region": "Kilimanjaro", "ward": "Kirongwe"}}, {"type": "node", "id": 7529173593, "lat": -3.737446, "lon": 37.6299318, "tags": {"country": "Tanzania", "district": "Mwanga", "name": "Ngujini", "place": "village", "region": "Kilimanjaro", "ward": "Ngujini"}}, {"type": "node", "id": 7529173596, "lat": -3.6731085, "lon": 37.6572385, "tags": {"country": "Tanzania", "district": "Mwanga", "name": "Ndanda", "place": "village", "region": "Kilimanjaro", "ward": "Kighare"}}, {"type": "node", "id": 7529173597, "lat": -3.621068, "lon": 37.6797989, "tags": {"country": "Tanzania", "district": "Mwanga", "name": "Mriti", "place": "village", "region": "Kilimanjaro", "ward": "Mwaniko"}}, {"type": "node", "id": 7529173598, "lat": -3.650174, "lon": 37.6619747, "tags": {"country": "Tanzania", "district": "Mwanga", "name": "Msangeni", "place": "village", "region": "Kilimanjaro", "ward": "Msangeni"}}, {"type": "node", "id": 7529173599, "lat": -3.6343057, "lon": 37.6406918, "tags": {"country": "Tanzania", "district": "Mwanga", "name": "Mluma", "place": "village", "region": "Kilimanjaro", "ward": "Msangeni"}}, {"type": "node", "id": 7529173600, "lat": -3.7660052, "lon": 37.609011, "tags": {"country": "Tanzania", "district": "Mwanga", "name": "Mbambua", "place": "village", "region": "Kilimanjaro", "ward": "Lembeni"}}, {"type": "node", "id": 7529173601, "lat": -3.6909965, "lon": 37.6716777, "tags": {"country": "Tanzania", "district": "Mwanga", "name": "Mbole", "place": "village", "region": "Kilimanjaro", "ward": "Kirongwe"}}, {"type": "node", "id": 7529173602, "lat": -3.636908, "lon": 37.679362, "tags": {"country": "Tanzania", "district": "Mwanga", "name": "Masumbweni", "place": "village", "region": "Kilimanjaro", "ward": "Kifula"}}, {"type": "node", "id": 7529173603, "lat": -3.6432972, "lon": 37.6834167, "tags": {"country": "Tanzania", "district": "Mwanga", "name": "Masumbeni", "place": "village", "region": "Kilimanjaro", "ward": "Kifula"}}, {"type": "node", "id": 7529173604, "lat": -3.595505, "lon": 37.6575488, "tags": {"country": "Tanzania", "district": "Mwanga", "name": "Mangio", "place": "village", "region": "Kilimanjaro", "ward": "Mwaniko"}}, {"type": "node", "id": 7529173605, "lat": -3.6528594, "lon": 37.6467632, "tags": {"country": "Tanzania", "district": "Mwanga", "name": "Mamba", "place": "village", "region": "Kilimanjaro", "ward": "Msangeni"}}, {"type": "node", "id": 7529173606, "lat": -3.7055129, "lon": 37.6714682, "tags": {"country": "Tanzania", "district": "Mwanga", "name": "Lomwe", "place": "village", "region": "Kilimanjaro", "ward": "Kirongwe"}}, {"type": "node", "id": 7529173608, "lat": -3.7670282, "lon": 37.7111756, "tags": {"country": "Tanzania", "district": "Mwanga", "name": "Kwakoa", "place": "village", "region": "Kilimanjaro", "ward": "Kwakoa"}}, {"type": "node", "id": 7529173609, "lat": -3.5636822, "lon": 37.6119033, "tags": {"country": "Tanzania", "district": "Mwanga", "name": "Kwa Nyange", "place": "hamlet", "region": "Kilimanjaro", "ward": "Kivisini"}}, {"type": "node", "id": 7529173610, "lat": -3.5642217, "lon": 37.6380757, "tags": {"country": "Tanzania", "district": "Mwanga", "name": "Kivisini", "place": "village", "region": "Kilimanjaro", "ward": "Kivisini"}}, {"type": "node", "id": 7529173615, "lat": -3.7270133, "lon": 37.7169217, "tags": {"country": "Tanzania", "district": "Mwanga", "name": "Kwakihindi", "place": "village", "region": "Kilimanjaro", "ward": "Kigoningoni"}}, {"type": "node", "id": 7529173617, "lat": -3.6945646, "lon": 37.6666569, "tags": {"country": "Tanzania", "district": "Mwanga", "name": "Kirichi", "place": "village", "region": "Kilimanjaro", "ward": "Kirongwe"}}, {"type": "node", "id": 7529173620, "lat": -3.6968332, "lon": 37.7222771, "tags": {"country": "Tanzania", "district": "Mwanga", "name": "Kigonigoni", "place": "village", "region": "Kilimanjaro", "ward": "Kigoningoni"}}, {"type": "node", "id": 7529173621, "lat": -3.6974033, "lon": 37.6481269, "tags": {"country": "Tanzania", "district": "Mwanga", "name": "Kilongaya", "place": "village", "region": "Kilimanjaro", "ward": "Kighare"}}, {"type": "node", "id": 7529173622, "lat": -3.6932921, "lon": 37.6613522, "tags": {"country": "Tanzania", "district": "Mwanga", "name": "Kilaweni", "place": "village", "region": "Kilimanjaro", "ward": "Kighare"}}, {"type": "node", "id": 7529173624, "lat": -3.7409599, "lon": 37.6312687, "tags": {"country": "Tanzania", "district": "Mwanga", "name": "Chanjale", "place": "village", "region": "Kilimanjaro", "ward": "Ngujini"}}, {"type": "node", "id": 9885173947, "lat": -3.6148799, "lon": 37.663069, "tags": {"name": "Motingi", "place": "hamlet"}}, {"type": "node", "id": 10735895602, "lat": -3.5800908, "lon": 37.7329648, "tags": {"name": "Makuyuni", "place": "hamlet"}}, {"type": "node", "id": 10735930774, "lat": -3.5674263, "lon": 37.7321683, "tags": {"name": "Ubungu", "place": "hamlet"}}, {"type": "node", "id": 10914754805, "lat": -3.6017112, "lon": 37.7538876}, {"type": "node", "id": 10914754806, "lat": -3.6018289, "lon": 37.7538608}, {"type": "node", "id": 10914754807, "lat": -3.6020859, "lon": 37.7539091}, {"type": "node", "id": 10914754808, "lat": -3.6023054, "lon": 37.7540056}, {"type": "node", "id": 10914754809, "lat": -3.6024768, "lon": 37.7540217}, {"type": "node", "id": 10914754810, "lat": -3.6026052, "lon": 37.7541558}, {"type": "node", "id": 10914754811, "lat": -3.6026534, "lon": 37.7543168}, {"type": "node", "id": 10914754812, "lat": -3.6026374, "lon": 37.7544348}, {"type": "node", "id": 10914754813, "lat": -3.6025624, "lon": 37.7545904}, {"type": "node", "id": 10914754814, "lat": -3.6025196, "lon": 37.7547084}, {"type": "node", "id": 10914754815, "lat": -3.6023804, "lon": 37.7548854}, {"type": "node", "id": 10914754816, "lat": -3.6021769, "lon": 37.7549766}, {"type": "node", "id": 10914754817, "lat": -3.6020163, "lon": 37.754939}, {"type": "node", "id": 10914754818, "lat": -3.6019307, "lon": 37.7548693}, {"type": "node", "id": 10914754819, "lat": -3.6017112, "lon": 37.754703}, {"type": "node", "id": 10914754820, "lat": -3.6015559, "lon": 37.7544884}, {"type": "node", "id": 10914754821, "lat": -3.6015238, "lon": 37.7542417}, {"type": "node", "id": 10914754822, "lat": -3.6016201, "lon": 37.7539949}, {"type": "way", "id": 1174626677, "nodes": [10914754822, 10914754821, 10914754820, 10914754819, 10914754818, 10914754817, 10914754816, 10914754815, 10914754814, 10914754813, 10914754812, 10914754811, 10914754810, 10914754809, 10914754808, 10914754807, 10914754806, 10914754805, 10914754822], "tags": {"place": "islet"}}]}