{"version": 0.6, "generator": "Overpass API 0.7.62.1 084b4234", "osm3s": {"timestamp_osm_base": "2024-09-30T22:05:41Z", "copyright": "The data included in this document is from www.openstreetmap.org. The data is made available under ODbL."}, "elements": [{"type": "node", "id": 1150883834, "lat": 12.65, "lon": 39.8, "tags": {"is_in:country_code": "ET", "is_in:county": "Ethiopia", "name": "Delate", "place": "locality", "source": "GeoDatabase"}}, {"type": "node", "id": 1150887246, "lat": 12.86667, "lon": 40.0, "tags": {"is_in:country_code": "ET", "is_in:county": "Ethiopia", "name": "Magalle", "place": "locality", "source": "GeoDatabase"}}, {"type": "node", "id": 1150887336, "lat": 12.88333, "lon": 39.96667, "tags": {"is_in:country_code": "ET", "is_in:county": "Ethiopia", "name": "Didigsala", "place": "locality", "source": "GeoDatabase"}}, {"type": "node", "id": 1150887976, "lat": 12.7670362, "lon": 39.8125187, "tags": {"name": "Adi Bidera (1)", "place": "town"}}, {"type": "node", "id": 1150893903, "lat": 12.7437841, "lon": 39.8022531, "tags": {"name": "Bosaley", "place": "village"}}, {"type": "node", "id": 1150899661, "lat": 12.71667, "lon": 39.81666, "tags": {"is_in:country_code": "ET", "is_in:county": "Ethiopia", "name": "Soloka", "place": "locality", "source": "GeoDatabase"}}, {"type": "node", "id": 1150908215, "lat": 12.8318236, "lon": 39.8115102, "tags": {"name": "Adi Bidera", "place": "hamlet"}}, {"type": "node", "id": 1150914600, "lat": 12.78333, "lon": 39.81666, "tags": {"is_in:country_code": "ET", "is_in:county": "Ethiopia", "name": "Michare Mika'El Bete Kristiyan", "place": "locality", "source": "GeoDatabase"}}, {"type": "node", "id": 1150923098, "lat": 12.8, "lon": 39.95, "tags": {"is_in:country_code": "ET", "is_in:county": "Ethiopia", "name": "Lebo", "place": "locality", "source": "GeoDatabase"}}, {"type": "node", "id": 1150924705, "lat": 12.75, "lon": 39.81666, "tags": {"is_in:country_code": "ET", "is_in:county": "Ethiopia", "name": "Gobba", "place": "locality", "source": "GeoDatabase"}}, {"type": "node", "id": 1150934775, "lat": 12.56667, "lon": 40.0, "tags": {"name": "Rair", "place": "locality", "source": "GeoDatabase"}}, {"type": "node", "id": 1150957744, "lat": 12.8180928, "lon": 39.8174754, "tags": {"is_in:country_code": "ET", "is_in:county": "Ethiopia", "name": "Adi Basale", "place": "village", "source": "GeoDatabase"}}, {"type": "node", "id": 1150960001, "lat": 12.96667, "lon": 40.01667, "tags": {"is_in:country_code": "ET", "is_in:county": "Ethiopia", "name": "Bedda", "place": "locality", "source": "GeoDatabase"}}, {"type": "node", "id": 1150967158, "lat": 12.95, "lon": 39.85, "tags": {"name": "Uare Uajo", "place": "locality"}}, {"type": "node", "id": 1150969120, "lat": 12.75, "lon": 39.83333, "tags": {"is_in:country_code": "ET", "is_in:county": "Ethiopia", "name": "Michare Bota", "place": "locality", "source": "GeoDatabase"}}, {"type": "node", "id": 9241428086, "lat": 12.9463763, "lon": 39.8783594, "tags": {"place": "hamlet"}}, {"type": "node", "id": 9241431044, "lat": 12.7990796, "lon": 39.8266411, "tags": {"place": "hamlet"}}, {"type": "node", "id": 9241431045, "lat": 12.7858235, "lon": 39.8103547, "tags": {"place": "hamlet"}}, {"type": "node", "id": 9241431248, "lat": 12.7577503, "lon": 39.8021364, "tags": {"place": "hamlet"}}, {"type": "node", "id": 9241431285, "lat": 12.9448079, "lon": 39.8152417, "tags": {"place": "hamlet"}}, {"type": "node", "id": 9241431440, "lat": 12.9509299, "lon": 39.8665953, "tags": {"place": "hamlet"}}, {"type": "node", "id": 9241431606, "lat": 12.9545581, "lon": 39.8316407, "tags": {"place": "hamlet"}}, {"type": "node", "id": 9246477416, "lat": 12.7655458, "lon": 39.8647177, "tags": {"place": "village"}}, {"type": "node", "id": 9246477931, "lat": 12.789475, "lon": 39.8393333, "tags": {"place": "hamlet"}}, {"type": "node", "id": 9246477970, "lat": 12.8195638, "lon": 39.8042393, "tags": {"place": "hamlet"}}, {"type": "node", "id": 9246477971, "lat": 12.8108179, "lon": 39.808402, "tags": {"place": "hamlet"}}, {"type": "node", "id": 9260119001, "lat": 12.9574909, "lon": 39.9100149, "tags": {"place": "hamlet"}}, {"type": "node", "id": 9260119101, "lat": 12.9840468, "lon": 39.8899841, "tags": {"place": "village"}}, {"type": "node", "id": 9260119133, "lat": 12.9965188, "lon": 39.881326, "tags": {"place": "hamlet"}}, {"type": "node", "id": 9261168655, "lat": 12.7427759, "lon": 39.9464071, "tags": {"place": "hamlet"}}, {"type": "node", "id": 9261170568, "lat": 12.8265049, "lon": 39.9313116, "tags": {"place": "town"}}, {"type": "node", "id": 9261270952, "lat": 12.7400865, "lon": 39.9370515, "tags": {"place": "hamlet"}}, {"type": "node", "id": 9261270953, "lat": 12.7460513, "lon": 39.9323416, "tags": {"place": "hamlet"}}, {"type": "node", "id": 9261271240, "lat": 12.7723471, "lon": 39.9385321, "tags": {"place": "hamlet"}}, {"type": "node", "id": 9261317824, "lat": 12.6266081, "lon": 39.9764371, "tags": {"place": "hamlet"}}, {"type": "node", "id": 9261409418, "lat": 12.6082075, "lon": 39.9778533, "tags": {"place": "hamlet"}}, {"type": "node", "id": 9277342389, "lat": 12.9660173, "lon": 39.8165184, "tags": {"place": "hamlet"}}, {"type": "node", "id": 9277342645, "lat": 12.979107, "lon": 39.801954, "tags": {"place": "hamlet"}}]}