{"version": 0.6, "generator": "Overpass API 0.7.62.1 084b4234", "osm3s": {"timestamp_osm_base": "2024-09-30T23:14:58Z", "copyright": "The data included in this document is from www.openstreetmap.org. The data is made available under ODbL."}, "elements": [{"type": "node", "id": 1150881027, "lat": 4.28333, "lon": 41.21667, "tags": {"is_in:country": "Ethiopia", "is_in:country_code": "ET", "name": "Allaio", "place": "locality", "source": "GeoDatabase"}}, {"type": "node", "id": 1150881281, "lat": 4.43333, "lon": 41.06666, "tags": {"is_in:country": "Ethiopia", "is_in:country_code": "ET", "name": "Bur Abbadale", "place": "locality", "source": "GeoDatabase"}}, {"type": "node", "id": 1150881769, "lat": 4.26667, "lon": 41.11667, "tags": {"is_in:country": "Ethiopia", "is_in:country_code": "ET", "name": "Godi", "place": "locality", "source": "GeoDatabase"}}, {"type": "node", "id": 1150882280, "lat": 4.16667, "lon": 41.23333, "tags": {"is_in:country": "Ethiopia", "is_in:country_code": "ET", "name": "Halegio", "place": "locality", "source": "GeoDatabase"}}, {"type": "node", "id": 1150885454, "lat": 4.28333, "lon": 40.88333, "tags": {"is_in:country": "Ethiopia", "is_in:country_code": "ET", "name": "Dibayu-Wein", "place": "locality", "source": "GeoDatabase"}}, {"type": "node", "id": 1150891286, "lat": 4.23333, "lon": 40.9, "tags": {"is_in:country": "Ethiopia", "is_in:country_code": "ET", "name": "Dibayu-Yeri", "place": "locality", "source": "GeoDatabase"}}, {"type": "node", "id": 1150899023, "lat": 4.33333, "lon": 41.16667, "tags": {"is_in:country": "Ethiopia", "is_in:country_code": "ET", "name": "Gheri", "place": "locality", "source": "GeoDatabase"}}, {"type": "node", "id": 1150908530, "lat": 4.48333, "lon": 41.03333, "tags": {"is_in:country": "Ethiopia", "is_in:country_code": "ET", "name": "Afar Dogut", "place": "locality", "source": "GeoDatabase"}}, {"type": "node", "id": 1150920899, "lat": 4.36667, "lon": 40.9, "tags": {"is_in:country": "Ethiopia", "is_in:country_code": "ET", "name": "Giuffa Columni", "place": "locality", "source": "GeoDatabase"}}, {"type": "node", "id": 1150922856, "lat": 4.46667, "lon": 41.15, "tags": {"is_in:country": "Ethiopia", "is_in:country_code": "ET", "name": "Seil Medo", "place": "locality", "source": "GeoDatabase"}}, {"type": "node", "id": 1150930792, "lat": 4.18333, "lon": 40.91667, "tags": {"is_in:country": "Ethiopia", "is_in:country_code": "ET", "name": "Malca Bissica", "place": "locality", "source": "GeoDatabase"}}, {"type": "node", "id": 1150934592, "lat": 4.36667, "lon": 41.16667, "tags": {"is_in:country": "Ethiopia", "is_in:country_code": "ET", "name": "Dud", "place": "locality", "source": "GeoDatabase"}}, {"type": "node", "id": 1150946151, "lat": 4.3, "lon": 41.05, "tags": {"is_in:country": "Ethiopia", "is_in:country_code": "ET", "name": "Degodia", "place": "locality", "source": "GeoDatabase"}}, {"type": "node", "id": 1150949914, "lat": 4.28333, "lon": 41.13333, "tags": {"is_in:country": "Ethiopia", "is_in:country_code": "ET", "name": "Torbi", "place": "locality", "source": "GeoDatabase"}}, {"type": "node", "id": 1150953631, "lat": 4.45, "lon": 40.86667, "tags": {"is_in:country": "Ethiopia", "is_in:country_code": "ET", "name": "Hurra Dimtu", "place": "locality", "source": "GeoDatabase"}}, {"type": "node", "id": 1150963045, "lat": 4.21667, "lon": 40.95, "tags": {"is_in:country": "Ethiopia", "is_in:country_code": "ET", "name": "Biska", "place": "locality", "source": "GeoDatabase"}}, {"type": "node", "id": 1150973573, "lat": 4.2, "lon": 40.9, "tags": {"is_in:country": "Ethiopia", "is_in:country_code": "ET", "name": "Dara", "place": "locality", "source": "GeoDatabase"}}, {"type": "node", "id": 1150977566, "lat": 4.4, "lon": 41.18333, "tags": {"is_in:country": "Ethiopia", "is_in:country_code": "ET", "name": "Ghedo", "place": "locality", "source": "GeoDatabase"}}]}