{"version": 0.6, "generator": "Overpass API 0.7.62.1 084b4234", "osm3s": {"timestamp_osm_base": "2024-09-30T22:27:05Z", "copyright": "The data included in this document is from www.openstreetmap.org. The data is made available under ODbL."}, "elements": [{"type": "node", "id": 1150880982, "lat": 7.53333, "lon": 41.43333, "tags": {"is_in:country": "Ethiopia", "is_in:country_code": "ET", "name": "K'Ersa", "place": "locality", "source": "GeoDatabase"}}, {"type": "node", "id": 1150892268, "lat": 7.48333, "lon": 41.55, "tags": {"is_in:country": "Ethiopia", "is_in:country_code": "ET", "name": "Burca Darro", "place": "locality", "source": "GeoDatabase"}}, {"type": "node", "id": 1150892855, "lat": 7.46667, "lon": 41.66667, "tags": {"is_in:country": "Ethiopia", "is_in:country_code": "ET", "name": "Ciarreche", "place": "locality", "source": "GeoDatabase"}}, {"type": "node", "id": 1150910124, "lat": 7.73333, "lon": 41.56666, "tags": {"is_in:country": "Ethiopia", "is_in:country_code": "ET", "name": "Giabalo", "place": "locality", "source": "GeoDatabase"}}, {"type": "node", "id": 1150922483, "lat": 7.4, "lon": 41.7, "tags": {"is_in:country": "Ethiopia", "is_in:country_code": "ET", "name": "Golole", "place": "locality", "source": "GeoDatabase"}}, {"type": "node", "id": 1150925344, "lat": 7.41667, "lon": 41.38333, "tags": {"is_in:country": "Ethiopia", "is_in:country_code": "ET", "name": "Kalu", "place": "locality", "source": "GeoDatabase"}}, {"type": "node", "id": 1150945343, "lat": 7.46667, "lon": 41.36667, "tags": {"is_in:country": "Ethiopia", "is_in:country_code": "ET", "name": "Gara Colba", "place": "locality", "source": "GeoDatabase"}}, {"type": "node", "id": 1150966641, "lat": 7.45, "lon": 41.68333, "tags": {"is_in:country": "Ethiopia", "is_in:country_code": "ET", "name": "Goda", "place": "locality", "source": "GeoDatabase"}}, {"type": "node", "id": 1150976980, "lat": 7.4, "lon": 41.55, "tags": {"is_in:country": "Ethiopia", "is_in:country_code": "ET", "name": "Mutte Mogi", "place": "locality", "source": "GeoDatabase"}}, {"type": "node", "id": 4671249039, "lat": 7.3791862, "lon": 41.7794678, "tags": {"name": "Lagahida", "place": "village"}}]}