{"version": 0.6, "generator": "Overpass API 0.7.62.1 084b4234", "osm3s": {"timestamp_osm_base": "2024-09-30T20:53:01Z", "copyright": "The data included in this document is from www.openstreetmap.org. The data is made available under ODbL."}, "elements": [{"type": "node", "id": 1404222130, "lat": 4.7445954, "lon": 46.1445008, "tags": {"name": "G Goonle", "pcode": "NB-3815-G26-001", "place": "village", "source": "FSAU"}}, {"type": "node", "id": 1404222180, "lat": 5.09, "lon": 46.30243, "tags": {"name": "Galqoryaale", "pcode": "NB-3811-X29-001", "place": "village", "source": "FSAU"}}, {"type": "node", "id": 1404225454, "lat": 4.94394, "lon": 46.137032, "tags": {"name": "Daaddaale", "pcode": "NB-3815-B26-001", "place": "village", "source": "UNDP - 1997"}}, {"type": "node", "id": 1404226769, "lat": 4.7961564, "lon": 46.1625358, "tags": {"name": "Ceel Baxan", "pcode": "NB-3815-E26-001", "place": "village", "source": "UNDP - 1997"}}, {"type": "node", "id": 1404233299, "lat": 4.9481, "lon": 46.247898, "tags": {"name": "Beruged", "pcode": "NB-3815-B28-001", "place": "village", "source": "UNDP - 1997"}}]}