{"version": 0.6, "generator": "Overpass API 0.7.62.1 084b4234", "osm3s": {"timestamp_osm_base": "2024-09-30T21:10:24Z", "copyright": "The data included in this document is from www.openstreetmap.org. The data is made available under ODbL."}, "elements": [{"type": "node", "id": 1404221340, "lat": 3.23631, "lon": 44.023911, "tags": {"name": "Barow", "pcode": "NA-3802-U12-002", "place": "village", "source": "UNDP - 1997"}}, {"type": "node", "id": 1404221366, "lat": 2.9048638, "lon": 43.8174331, "tags": {"name": "Warabaale Yare", "pcode": "NA-3806-C07-003", "place": "village", "source": "UNDP - 2006"}}, {"type": "node", "id": 1404221468, "lat": 2.93064, "lon": 44.129879, "tags": {"name": "Misnsqate", "pcode": "NA-3806-B14-003", "place": "village", "source": "UNDP - 1997"}}, {"type": "node", "id": 1404221476, "lat": 2.8515939, "lon": 44.1692423, "tags": {"alt_name": "Kiyaana", "name": "Kiyaan", "pcode": "NA-3806-D15-003", "place": "hamlet", "source": "UNDP - 2006, UNDP - 1997", "source:name": "UNSOA field mission and SPOT5 images data capture"}}, {"type": "node", "id": 1404221484, "lat": 3.0164927, "lon": 44.0150395, "tags": {"name": "Dhaaysi-Gubidi", "pcode": "NA-3802-Z12-001", "place": "hamlet", "source": "UNDP - 2006"}}, {"type": "node", "id": 1404221540, "lat": 3.03243, "lon": 44.048939, "tags": {"name": "Buulo Dhenforur", "pcode": "NA-3802-Z13-001", "place": "hamlet", "source": "UNDP - 1997"}}, {"type": "node", "id": 1404221579, "lat": 2.9673842, "lon": 44.1557129, "tags": {"fixme": "is in the right position??", "name": "Hararki", "pcode": "NA-3806-A15-003", "place": "village", "source": "UNDP - 2006"}}, {"type": "node", "id": 1404221642, "lat": 2.9321087, "lon": 44.161929, "tags": {"name": "Hooday", "pcode": "NA-3806-B15-007", "place": "hamlet", "source": "UNDP - 1997", "source:name": "UNSOA field mission and SPOT5 images data capture"}}, {"type": "node", "id": 1404221902, "lat": 2.8497341, "lon": 44.0738497, "tags": {"name": "Daweeda", "pcode": "NA-3806-D13-004", "place": "hamlet", "source": "UNDP - 2006"}}, {"type": "node", "id": 1404221940, "lat": 3.03334, "lon": 44.166561, "tags": {"name": "Aabow", "pcode": "NA-3802-Z15-004", "place": "hamlet", "source": "UNDP - 1997"}}, {"type": "node", "id": 1404222018, "lat": 2.9717485, "lon": 43.8095758, "tags": {"alt_name": "Warisha; Dhato", "name": "Jemeecada", "pcode": "NA-3806-A07-002", "place": "village", "source": "UNDP - 2006, FSAU"}}, {"type": "node", "id": 1404222056, "lat": 2.85594, "lon": 44.00463, "tags": {"name": "Ugaari", "pcode": "NA-3806-D12-002", "place": "hamlet", "source": "UNDP - 2006, UNDP - 1997, FSAU", "source:name": "UNSOA field mission and SPOT5 images data capture"}}, {"type": "node", "id": 1404222092, "lat": 2.909669, "lon": 44.1241905, "tags": {"alt_name": "Galoole Xasanaw Danyeer", "name": "Galoole Xas anaw Danyeer", "pcode": "NA-3806-C14-003", "place": "village", "source": "UNDP - 1997", "source:name": "UNSOA field mission and SPOT5 images data capture"}}, {"type": "node", "id": 1404222203, "lat": 2.9120391, "lon": 43.8300634, "tags": {"alt_name": "Dooy-Gaab", "name": "Bulo Banoi", "pcode": "NA-3806-C08-002", "place": "village", "source": "UNDP - 2006", "source:name": "UNSOA field mission and SPOT5 images data capture"}}, {"type": "node", "id": 1404222321, "lat": 3.01018, "lon": 44.1629, "tags": {"alt_name": "Konkorey", "name": "Ashagow", "pcode": "NA-3802-Z15-003", "place": "hamlet", "source": "UNDP - 2006, UNDP - 1997"}}, {"type": "node", "id": 1404222329, "lat": 2.992837, "lon": 44.069394, "tags": {"name": "Buulo Doon", "pcode": "NA-3806-A13-004", "place": "hamlet", "source": "UNDP - 2006"}}, {"type": "node", "id": 1404222331, "lat": 2.9674991, "lon": 44.1558512, "tags": {"name": "Heer Macalim", "pcode": "NA-3806-A15-002", "place": "hamlet", "source": "UNDP - 1997", "source:name": "UNSOA field mission and SPOT5 images data capture", "source:ref": "UNSOA field mission and SPOT5 images data capture"}}, {"type": "node", "id": 1404222352, "lat": 2.88093, "lon": 43.95843, "tags": {"alt_name": "Xawaal Arundi", "name": "Xabaal-Aluundi", "pcode": "NA-3806-C11-003", "place": "locality", "source": "UNDP - 2006, UNDP - 1997"}}, {"type": "node", "id": 1404222390, "lat": 3.03477, "lon": 43.989498, "tags": {"name": "Mintalamiin", "pcode": "NA-3802-Z11-004", "place": "locality", "source": "UNDP - 1997"}}, {"type": "node", "id": 1404222533, "lat": 2.9478445, "lon": 44.1525875, "tags": {"alt_name": "Mishaani", "name": "Minshaan", "pcode": "NA-3806-B15-014", "place": "hamlet", "source": "UNDP - 2006", "source:name": "UNSOA field mission and SPOT5 images data capture"}}, {"type": "node", "id": 1404222553, "lat": 2.9347274, "lon": 43.9708009, "tags": {"name": "Salam Maroodi", "pcode": "NA-3806-B11-002", "place": "hamlet", "source": "UNDP - 1997", "source:name": "UNSOA field mission and SPOT5 images data capture"}}, {"type": "node", "id": 1404222569, "lat": 2.959895, "lon": 44.0724781, "tags": {"name": "Korooy", "pcode": "NA-3806-A13-001", "place": "hamlet", "source": "UNDP - 1997", "source:name": "UNSOA field mission and SPOT5 images data capture"}}, {"type": "node", "id": 1404222573, "lat": 3.17162, "lon": 43.78281, "tags": {"name": "Weekiyi", "pcode": "NA-3802-V07-002", "place": "hamlet", "source": "UNDP - 2006"}}, {"type": "node", "id": 1404222674, "lat": 2.96463, "lon": 43.89497, "tags": {"alt_name": "Qadiidli-Wiin", "name": "Qadiidle", "pcode": "NA-3806-A09-002", "place": "village", "source": "UNDP - 2006, UNDP - 1997", "source:name": "UNSOA field mission and SPOT5 images data capture"}}, {"type": "node", "id": 1404222777, "lat": 2.88221, "lon": 44.11637, "tags": {"name": "Rooble", "pcode": "NA-3806-C14-002", "place": "hamlet", "source": "UNDP - 2006, UNDP - 1997", "source:name": "UNSOA field mission and SPOT5 images data capture"}}, {"type": "node", "id": 1404222791, "lat": 2.87648, "lon": 43.995312, "tags": {"name": "Gagaoy", "pcode": "NA-3806-C11-001", "place": "locality", "source": "UNDP - 1997"}}, {"type": "node", "id": 1404222836, "lat": 2.9272521, "lon": 44.0127601, "tags": {"name": "Silaata", "pcode": "NA-3806-B12-002", "place": "hamlet", "source": "UNDP - 1997", "source:name": "UNSOA field mission and SPOT5 images data capture"}}, {"type": "node", "id": 1404222853, "lat": 3.09778, "lon": 44.081661, "tags": {"name": "Kuusley", "pcode": "NA-3802-X13-001", "place": "village", "source": "UNDP - 1997"}}, {"type": "node", "id": 1404222944, "lat": 2.99525, "lon": 44.11235, "tags": {"alt_name": "Galool Dheere Aw-Uwow", "name": "Dooy Gadabay", "pcode": "NA-3806-A14-005", "place": "locality", "source": "UNDP - 2006", "source:name": "UNSOA field mission and SPOT5 images data capture", "source:ref": "UNSOA field mission and SPOT5 images data capture"}}, {"type": "node", "id": 1404223078, "lat": 2.929878, "lon": 44.162377, "tags": {"name": "Koroy", "pcode": "NA-3806-B15-006", "place": "village", "source": "UNDP - 2006"}}, {"type": "node", "id": 1404223089, "lat": 2.8743178, "lon": 44.1568546, "tags": {"name": "Galgalow", "pcode": "NA-3806-D15-006", "place": "hamlet", "source": "UNDP - 1997", "source:name": "UNSOA field mission and SPOT5 images data capture"}}, {"type": "node", "id": 1404223137, "lat": 3.01429, "lon": 43.785648, "tags": {"alt_name": "Kunyo Warabe", "name": "Kuniyo Warabe", "place": "hamlet", "source": "UNSOA I: E043N03_16, SPOT5 image based data capture using different Ancillary Sources coming from UNSOA field mission.", "source:date": "2008-03-03"}}, {"type": "node", "id": 1404223166, "lat": 2.9125078, "lon": 43.8092936, "tags": {"alt_name": "Warabale", "name": "Waraabalow", "pcode": "NA-3806-C07-005", "place": "village", "source": "UNDP - 2006, UNDP - 1997", "source:name": "UNSOA field mission and SPOT5 images data capture"}}, {"type": "node", "id": 1404223207, "lat": 2.8932159, "lon": 43.9514328, "tags": {"name": "Aborko", "pcode": "NA-3806-C10-001", "place": "isolated_dwelling", "source": "UNDP - 1997"}}, {"type": "node", "id": 1404223223, "lat": 2.8911844, "lon": 44.0625362, "tags": {"name": "Farta", "pcode": "NA-3806-C13-001", "place": "hamlet", "source": "UNDP - 1997", "source:name": "UNSOA field mission and SPOT5 images data capture"}}, {"type": "node", "id": 1404223228, "lat": 2.84341, "lon": 44.09672, "tags": {"alt_name": "Galay", "name": "Goley", "pcode": "NA-3806-D14-003", "place": "hamlet", "source": "UNDP - 2006, UNDP - 1997"}}, {"type": "node", "id": 1404223247, "lat": 2.92011, "lon": 44.1150244, "tags": {"alt_name": "Miskiroon", "name": "Miski Roon", "pcode": "NA-3806-B14-001", "place": "hamlet", "source": "UNDP - 2006, UNDP - 1997", "source:name": "UNSOA field mission and SPOT5 images data capture"}}, {"type": "node", "id": 1404223330, "lat": 3.0576847, "lon": 43.9492182, "tags": {"name": "Buulo-Fur", "pcode": "NA-3802-Y10-003", "place": "hamlet", "source": "UNDP - 2006"}}, {"type": "node", "id": 1404223360, "lat": 2.939, "lon": 44.1432, "tags": {"name": "Malaayka", "pcode": "NA-3806-B15-011", "place": "locality", "source": "UNDP - 1997", "source:name": "UNSOA field mission and SPOT5 images data capture", "source:ref": "UNSOA field mission and SPOT5 images data capture"}}, {"type": "node", "id": 1404223421, "lat": 2.96968, "lon": 44.11364, "tags": {"name": "Leeska", "pcode": "NA-3806-A14-002", "place": "village", "source": "UNDP - 1997"}}, {"type": "node", "id": 1404223425, "lat": 2.8858539, "lon": 43.8742991, "tags": {"alt_name": "Cabdi Ureen", "name": "Abdi Uurane", "pcode": "NA-3806-C09-002", "place": "village", "source": "UNDP - 2006, UNDP - 1997", "source:name": "UNSOA field mission and SPOT5 images data capture"}}, {"type": "node", "id": 1404223436, "lat": 2.88708, "lon": 44.18236, "tags": {"name": "Qaranka-Kobu Qoodi", "pcode": "NA-3806-C16-004", "place": "hamlet", "source": "UNDP - 2006"}}, {"type": "node", "id": 1404223451, "lat": 2.8726296, "lon": 43.8872026, "tags": {"alt_name": "Sabit; Zabit", "name": "Sabid", "pcode": "NA-3806-D09-002", "place": "village", "source": "UNDP - 2006, UNDP - 1997", "source:name": "UNSOA field mission and SPOT5 images data capture"}}, {"type": "node", "id": 1404223492, "lat": 2.9500786, "lon": 44.043861, "tags": {"alt_name": "Casha Birkan", "name": "Cashow Berkaan", "pcode": "NA-3806-B12-004", "place": "village", "source": "UNDP - 2006, UNDP - 1997", "source:name": "UNSOA field mission and SPOT5 images data capture"}}, {"type": "node", "id": 1404223532, "lat": 2.9454442, "lon": 43.7992521, "tags": {"name": "Kaaysiney", "pcode": "NA-3806-B07-003", "place": "isolated_dwelling", "source": "UNDP - 2006, UNDP - 1997", "source:name": "UNSOA field mission and SPOT5 images data capture"}}, {"type": "node", "id": 1404223541, "lat": 2.9705, "lon": 43.951801, "tags": {"name": "Lumi", "pcode": "NA-3806-A10-004", "place": "locality", "source": "UNDP - 1997"}}, {"type": "node", "id": 1404223560, "lat": 2.9712328, "lon": 43.888726, "tags": {"alt_name": "Curunlow", "name": "Qurunlow", "pcode": "NA-3806-A09-003", "place": "hamlet", "source": "UNDP - 1997", "source:name": "UNSOA field mission and SPOT5 images data capture"}}, {"type": "node", "id": 1404223565, "lat": 3.035125, "lon": 43.81613, "tags": {"name": "Kuunyi", "pcode": "NA-3802-Z07-003", "place": "locality", "source": "UNDP - 2006"}}, {"type": "node", "id": 1404223638, "lat": 2.985021, "lon": 43.944988, "tags": {"name": "Magaay Muusa", "pcode": "NA-3806-A10-006", "place": "village", "source": "UNDP - 1997"}}, {"type": "node", "id": 1404224122, "lat": 2.9596689, "lon": 44.1670896, "tags": {"name": "Idaadlow Mataakooy", "pcode": "NA-3806-A15-001", "place": "hamlet", "source": "UNDP - 1997"}}, {"type": "node", "id": 1404224129, "lat": 2.8597593, "lon": 43.9098595, "tags": {"name": "Doyaleey", "pcode": "NA-3806-D10-006", "place": "village", "source": "UNDP - 2006"}}, {"type": "node", "id": 1404224137, "lat": 2.892303, "lon": 44.1617966, "tags": {"name": "Qaranki", "pcode": "NA-3806-C15-003", "place": "hamlet", "source": "UNDP - 2006"}}, {"type": "node", "id": 1404224181, "lat": 3.0262725, "lon": 43.9899594, "tags": {"name": "Gamber", "pcode": "NA-3802-Z11-003", "place": "village", "source": "UNDP - 1997"}}, {"type": "node", "id": 1404224202, "lat": 3.0287471, "lon": 43.8794186, "tags": {"name": "Warqadey", "pcode": "NA-3802-Z09-001", "place": "village", "source": "UNDP - 2006"}}, {"type": "node", "id": 1404224233, "lat": 2.98105, "lon": 43.80595, "tags": {"name": "Jemeecada", "pcode": "NA-3806-A07-003", "place": "locality", "source": "UNDP - 1997"}}, {"type": "node", "id": 1404224332, "lat": 2.96618, "lon": 44.08854, "tags": {"name": "Heer Aw Cise", "pcode": "NA-3806-A13-002", "place": "locality", "source": "UNDP - 1997", "source:name": "UNSOA field mission and SPOT5 images data capture", "source:ref": "UNSOA field mission and SPOT5 images data capture"}}, {"type": "node", "id": 1404224382, "lat": 2.8648, "lon": 44.1111, "tags": {"alt_name": "Gariiri", "name": "Gariire", "pcode": "NA-3806-D14-004", "place": "locality", "source": "UNDP - 2006, UNDP - 1997", "source:name": "UNSOA field mission and SPOT5 images data capture", "source:ref": "UNSOA field mission and SPOT5 images data capture"}}, {"type": "node", "id": 1404224394, "lat": 3.0322, "lon": 44.131699, "tags": {"name": "Bercadle", "pcode": "NA-3802-Z14-003", "place": "village", "source": "UNDP - 1997"}}, {"type": "node", "id": 1404224426, "lat": 2.9787658, "lon": 44.1687711, "tags": {"name": "Hera Mata", "pcode": "NA-3806-A15-006", "place": "isolated_dwelling", "source": "UNDP - 1997"}}, {"type": "node", "id": 1404224429, "lat": 2.84546, "lon": 44.08361, "tags": {"name": "Shiidlow (Afar Shiidow)", "pcode": "NA-3806-D13-002", "place": "hamlet", "source": "UNDP - 2006"}}, {"type": "node", "id": 1404224478, "lat": 2.85838, "lon": 44.17635, "tags": {"name": "Shan Hagar", "pcode": "NA-3806-D15-005", "place": "locality", "source": "UNDP - 1997", "source:name": "UNSOA field mission and SPOT5 images data capture", "source:ref": "UNSOA field mission and SPOT5 images data capture"}}, {"type": "node", "id": 1404224510, "lat": 2.9409338, "lon": 43.928662, "tags": {"alt_name": "Habar Gari", "name": "Habay Gare", "pcode": "NA-3806-B10-004", "place": "hamlet", "source": "UNDP - 2006", "source:name": "UNSOA field mission and SPOT5 images data capture"}}, {"type": "node", "id": 1404224512, "lat": 2.8719138, "lon": 43.9811404, "tags": {"name": "Gagso", "pcode": "NA-3806-D11-003", "place": "locality", "source": "UNDP - 1997"}}, {"type": "node", "id": 1404224570, "lat": 2.95895, "lon": 43.80868, "tags": {"name": "Mogdiile", "pcode": "NA-3806-A07-001", "place": "village", "source": "UNDP - 2006"}}, {"type": "node", "id": 1404224576, "lat": 2.86799, "lon": 44.11901, "tags": {"name": "Galool Bure", "pcode": "NA-3806-D14-007", "place": "hamlet", "source": "UNDP - 2006"}}, {"type": "node", "id": 1404224595, "lat": 2.94889, "lon": 44.1558, "tags": {"name": "Mas-Koofuuri", "pcode": "NA-3806-B15-015", "place": "hamlet", "source": "UNDP - 2006"}}, {"type": "node", "id": 1404224726, "lat": 3.03407, "lon": 44.0485, "tags": {"name": "Waamo (Main Village)", "pcode": "NA-3802-Z13-002", "place": "hamlet", "source": "UNDP - 2006"}}, {"type": "node", "id": 1404224739, "lat": 2.9376977, "lon": 44.0775328, "tags": {"name": "Shiidalow", "pcode": "NA-3806-B13-002", "place": "hamlet", "source": "UNDP - 2006"}}, {"type": "node", "id": 1404224741, "lat": 2.84377, "lon": 44.151192, "tags": {"alt_name": "Fuud Saqaar", "name": "Fuud Saqaaf", "pcode": "NA-3806-D15-002", "place": "hamlet", "source": "UNDP - 1997", "source:name": "UNSOA field mission and SPOT5 images data capture"}}, {"type": "node", "id": 1404224790, "lat": 2.9367494, "lon": 43.9983384, "tags": {"alt_name": "Kunyi", "name": "Kuuniyo", "pcode": "NA-3806-B11-003", "place": "hamlet", "source": "UNDP - 2006, UNDP - 1997", "source:name": "UNSOA field mission and SPOT5 images data capture"}}, {"type": "node", "id": 1404224800, "lat": 3.2689, "lon": 43.9981, "tags": {"fixme": "abandoned?", "name": "Yageg", "pcode": "NA-3802-T11-001", "place": "village", "source": "UNDP - 1997"}}, {"type": "node", "id": 1404224994, "lat": 3.18969, "lon": 43.871189, "tags": {"name": "Onaybo", "pcode": "NA-3802-V09-003", "place": "isolated_dwelling", "source": "UNDP - 1997"}}, {"type": "node", "id": 1404225053, "lat": 3.05252, "lon": 44.040352, "tags": {"name": "Buulo Xasanow", "pcode": "NA-3802-Y12-003", "place": "village", "source": "UNDP - 1997"}}, {"type": "node", "id": 1404225056, "lat": 3.07874, "lon": 44.1592, "tags": {"alt_name": "Wagalow", "name": "Wegelow Gaduudow", "pcode": "NA-3802-Y15-001", "place": "hamlet", "source": "UNDP - 2006, UNDP - 1997"}}, {"type": "node", "id": 1404225182, "lat": 2.96224, "lon": 43.934681, "tags": {"name": "Bog Daadi", "pcode": "NA-3806-A10-001", "place": "locality", "source": "UNDP - 1997"}}, {"type": "node", "id": 1404225237, "lat": 2.8823236, "lon": 44.0433351, "tags": {"alt_name": "Godobeey", "fixme": "is in the right position??", "name": "Godobey", "pcode": "NA-3806-C12-002", "place": "village", "source": "UNDP - 2006, FSAU"}}, {"type": "node", "id": 1404225266, "lat": 2.95691, "lon": 44.02048, "tags": {"alt_name": "Awli", "name": "Aawla", "pcode": "NA-3806-B12-006", "place": "locality", "source": "UNDP - 2006, UNDP - 1997", "source:name": "UNSOA field mission and SPOT5 images data capture", "source:ref": "UNSOA field mission and SPOT5 images data capture"}}, {"type": "node", "id": 1404225330, "lat": 2.92989, "lon": 44.0365, "tags": {"alt_name": "Gumbiyi", "name": "Gumbi", "pcode": "NA-3806-B12-003", "place": "locality", "source": "UNDP - 2006, UNDP - 1997", "source:name": "UNSOA field mission and SPOT5 images data capture", "source:ref": "UNSOA field mission and SPOT5 images data capture"}}, {"type": "node", "id": 1404225369, "lat": 3.00268, "lon": 44.159939, "tags": {"name": "Buur Dhijis", "pcode": "NA-3802-Z15-002", "place": "hamlet", "source": "UNDP - 1997"}}, {"type": "node", "id": 1404225371, "lat": 2.92901, "lon": 44.153381, "tags": {"name": "Shabeele", "pcode": "NA-3806-B15-005", "place": "village", "source": "UNDP - 1997"}}, {"type": "node", "id": 1404225376, "lat": 2.840364, "lon": 43.940052, "tags": {"alt_name": "Maayfuri; May Fuurey", "name": "Mayfuurre", "pcode": "NA-3806-D10-003", "place": "hamlet", "source": "UNDP - 2006, UNDP - 1997, FSAU", "source:name": "UNSOA field mission and SPOT5 images data capture", "source:ref": "UNSOA field mission and SPOT5 images data capture"}}, {"type": "node", "id": 1404225427, "lat": 3.08279, "lon": 44.131409, "tags": {"name": "Kuniyo", "pcode": "NA-3802-Y14-001", "place": "village", "source": "UNDP - 1997"}}, {"type": "node", "id": 1404225555, "lat": 2.9581307, "lon": 44.1516935, "tags": {"alt_name": "Shuun-Qayli", "name": "Shuun Qaayle", "pcode": "NA-3806-B15-018", "place": "village", "source": "UNDP - 2006, UNDP - 1997", "source:name": "UNSOA field mission and SPOT5 images data capture"}}, {"type": "node", "id": 1404225573, "lat": 2.8549692, "lon": 44.1423198, "tags": {"alt_name": "Raydaba", "name": "Raaydaboo", "pcode": "NA-3806-D15-004", "place": "hamlet", "source": "UNDP - 2006, UNDP - 1997", "source:name": "UNSOA field mission and SPOT5 images data capture"}}, {"type": "node", "id": 1404225594, "lat": 2.9793632, "lon": 44.1160245, "tags": {"alt_name": "Kisurun", "name": "Kisuro", "pcode": "NA-3806-A14-003", "place": "hamlet", "source": "UNDP - 2006, UNDP - 1997", "source:name": "UNSOA field mission and SPOT5 images data capture"}}, {"type": "node", "id": 1404225596, "lat": 3.20404, "lon": 43.883789, "tags": {"name": "Aweey", "pcode": "NA-3802-V09-002", "place": "isolated_dwelling", "source": "UNDP - 1997"}}, {"type": "node", "id": 1404225597, "lat": 2.9977096, "lon": 44.1710489, "tags": {"name": "Daara-S", "pcode": "NA-3806-A15-009", "place": "isolated_dwelling", "source": "UNDP - 2006"}}, {"type": "node", "id": 1404225603, "lat": 3.11896, "lon": 43.99275, "tags": {"name": "Lowi Gerjeele", "pcode": "NA-3802-X11-002", "place": "locality", "source": "UNDP - 2006"}}, {"type": "node", "id": 1404225605, "lat": 2.963258, "lon": 43.9437351, "tags": {"name": "Dhumey", "pcode": "NA-3806-A10-002", "place": "hamlet", "source": "UNDP - 1997", "source:name": "UNSOA field mission and SPOT5 images data capture"}}, {"type": "node", "id": 1404225641, "lat": 3.0383388, "lon": 43.9404111, "tags": {"name": "Reeray Kuuley", "pcode": "NA-3802-Z10-006", "place": "hamlet", "source": "UNDP - 2006"}}, {"type": "node", "id": 1404225661, "lat": 3.02387, "lon": 43.98801, "tags": {"name": "Galooshi", "pcode": "NA-3802-Z11-002", "place": "village", "source": "UNDP - 2006"}}, {"type": "node", "id": 1404225664, "lat": 3.08789, "lon": 44.029621, "tags": {"name": "Buulo Subto", "pcode": "NA-3802-X12-001", "place": "village", "source": "UNDP - 1997"}}, {"type": "node", "id": 1404225707, "lat": 2.88632, "lon": 44.181438, "tags": {"name": "Qaranka", "pcode": "NA-3806-C15-002", "place": "village", "source": "UNDP - 1997"}}, {"type": "node", "id": 1404225743, "lat": 2.99707, "lon": 44.16257, "tags": {"name": "Shiinshali", "pcode": "NA-3806-A15-008", "place": "hamlet", "source": "UNDP - 2006"}}, {"type": "node", "id": 1404225750, "lat": 2.91481, "lon": 44.08123, "tags": {"alt_name": "Boonkaay", "name": "Boonka", "pcode": "NA-3806-C13-004", "place": "village", "source": "UNDP - 2006, UNDP - 1997", "source:name": "UNSOA field mission and SPOT5 images data capture"}}, {"type": "node", "id": 1404225842, "lat": 2.8811113, "lon": 44.0920765, "tags": {"name": "Raarka", "pcode": "NA-3806-C14-001", "place": "hamlet", "source": "UNDP - 1997", "source:name": "UNSOA field mission and SPOT5 images data capture"}}, {"type": "node", "id": 1404225850, "lat": 2.9259065, "lon": 44.1761694, "tags": {"name": "Gaal Guuris", "pcode": "NA-3806-B15-003", "place": "hamlet", "source": "UNDP - 1997", "source:name": "UNSOA field mission and SPOT5 images data capture", "source:ref": "UNSOA field mission and SPOT5 images data capture"}}, {"type": "node", "id": 1404225956, "lat": 2.9574538, "lon": 44.1148224, "tags": {"alt_name": "Suruqli", "name": "Suruqle", "pcode": "NA-3806-B14-005", "place": "village", "source": "UNDP - 2006, UNDP - 1997", "source:name": "UNSOA field mission and SPOT5 images data capture"}}, {"type": "node", "id": 1404226039, "lat": 3.25961, "lon": 44.16964, "tags": {"name": "Beer Shabeel", "pcode": "NA-3802-T15-002", "place": "village", "source": "UNDP - 1997"}}, {"type": "node", "id": 1404226113, "lat": 2.9, "lon": 44.08333, "tags": {"name": "Caro", "pcode": "NA-3806-C13-002", "place": "locality", "source": "UNDP - 1997", "source:name": "UNSOA field mission and SPOT5 images data capture", "source:ref": "UNSOA field mission and SPOT5 images data capture"}}, {"type": "node", "id": 1404226156, "lat": 2.95121, "lon": 44.00531, "tags": {"name": "Mada Barodi", "pcode": "NA-3806-B12-005", "place": "hamlet", "source": "UNDP - 1997", "source:name": "UNSOA field mission and SPOT5 images data capture"}}, {"type": "node", "id": 1404226214, "lat": 2.9247316, "lon": 44.0322466, "tags": {"alt_name": "Gediisoy", "name": "Gadiis aay", "pcode": "NA-3806-B12-001", "place": "hamlet", "source": "UNDP - 2006, UNDP - 1997", "source:name": "UNSOA field mission and SPOT5 images data capture"}}, {"type": "node", "id": 1404226259, "lat": 2.86449, "lon": 44.099602, "tags": {"name": "Jameeco Aaminey", "pcode": "NA-3806-D14-005", "place": "hamlet", "source": "UNDP - 1997"}}, {"type": "node", "id": 1404226283, "lat": 3.0015399, "lon": 44.1617133, "tags": {"name": "Daanjeri", "pcode": "NA-3802-Z15-001", "place": "hamlet", "source": "UNDP - 2006"}}, {"type": "node", "id": 1404226304, "lat": 2.9855984, "lon": 43.8060216, "tags": {"alt_name": "Golli", "name": "Gol", "pcode": "NA-3806-A07-005", "place": "hamlet", "source": "UNDP - 2006, UNDP - 1997", "source:name": "UNSOA field mission and SPOT5 images data capture"}}, {"type": "node", "id": 1404226378, "lat": 2.9831651, "lon": 43.9458474, "tags": {"alt_name": "Makanday", "name": "Magaay Muuse", "pcode": "NA-3806-A10-005", "place": "village", "source": "FSAU", "source:name": "UNSOA field mission and SPOT5 images data capture"}}, {"type": "node", "id": 1404226496, "lat": 2.92876, "lon": 44.144, "tags": {"name": "Guudka", "pcode": "NA-3806-B15-004", "place": "locality", "source": "UNDP - 1997", "source:name": "UNSOA field mission and SPOT5 images data capture", "source:ref": "UNSOA field mission and SPOT5 images data capture"}}, {"type": "node", "id": 1404226604, "lat": 3.01866, "lon": 44.010899, "tags": {"name": "Munyow", "pcode": "NA-3802-Z12-002", "place": "village", "source": "UNDP - 1997"}}, {"type": "node", "id": 1404226610, "lat": 2.8933371, "lon": 43.8044394, "tags": {"alt_name": "Aliyow Dooyow", "name": "Caliyow Dooyo", "pcode": "NA-3806-C07-002", "place": "village", "source": "UNDP - 2006, UNDP - 1997", "source:name": "UNSOA field mission and SPOT5 images data capture"}}, {"type": "node", "id": 1404226619, "lat": 2.9643306, "lon": 43.9185537, "tags": {"name": "Orogdi", "pcode": "NA-3806-A10-003", "place": "hamlet", "source": "UNDP - 2006"}}, {"type": "node", "id": 1404226663, "lat": 2.96691, "lon": 44.11264, "tags": {"name": "Lees", "pcode": "NA-3806-A14-001", "place": "village", "source": "UNDP - 2006"}}, {"type": "node", "id": 1404226715, "lat": 3.09078, "lon": 43.88554, "tags": {"name": "Tinjiroow", "pcode": "NA-3802-X09-003", "place": "locality", "source": "UNDP - 1997"}}, {"type": "node", "id": 1404226807, "lat": 3.15696, "lon": 43.924431, "tags": {"name": "Eela Rog", "pcode": "NA-3802-W10-001", "place": "isolated_dwelling", "source": "UNDP - 1997"}}, {"type": "node", "id": 1404226832, "lat": 2.9823041, "lon": 44.0284755, "tags": {"name": "Muunya", "pcode": "NA-3806-A12-003", "place": "hamlet", "source": "UNDP - 1997", "source:name": "UNSOA field mission and SPOT5 images data capture"}}, {"type": "node", "id": 1404226861, "lat": 3.03232, "lon": 43.82595, "tags": {"alt_name": "Grangrasle", "name": "Garangarasle", "pcode": "NA-3802-Z08-002", "place": "hamlet", "source": "UNDP - 2006, UNDP - 1997"}}, {"type": "node", "id": 1404226874, "lat": 2.8731625, "lon": 44.1191537, "tags": {"alt_name": "Waf Dhay", "name": "Wafdhey Weyn", "pcode": "NA-3806-D14-008", "place": "village", "source": "UNDP - 1997, FSAU", "source:name": "UNSOA field mission and SPOT5 images data capture"}}, {"type": "node", "id": 1404226877, "lat": 2.84981, "lon": 44.02338, "tags": {"alt_name": "Sheebele", "name": "Sheeble", "pcode": "NA-3806-D12-001", "place": "hamlet", "source": "UNDP - 2006, UNDP - 1997", "source:name": "UNSOA field mission and SPOT5 images data capture"}}, {"type": "node", "id": 1404226888, "lat": 3.08962, "lon": 43.930561, "tags": {"name": "Gafayl", "pcode": "NA-3802-X10-001", "place": "locality", "source": "UNDP - 1997"}}, {"type": "node", "id": 1404226903, "lat": 2.9439773, "lon": 43.9162747, "tags": {"alt_name": "Roobli-Sheekh", "name": "Rooble Shiikh", "pcode": "NA-3806-B10-005", "place": "village", "source": "UNDP - 2006, UNDP - 1997", "source:name": "UNSOA field mission and SPOT5 images data capture"}}, {"type": "node", "id": 1404227025, "lat": 3.08257, "lon": 44.079449, "tags": {"name": "Farfanqoron", "pcode": "NA-3802-Y13-002", "place": "village", "source": "UNDP - 1997"}}, {"type": "node", "id": 1404227204, "lat": 2.865217, "lon": 44.116389, "tags": {"name": "Danaaley", "pcode": "NA-3806-D14-006", "place": "hamlet", "source": "UNDP - 2006, UNDP - 1997", "source:name": "UNSOA field mission and SPOT5 images data capture"}}, {"type": "node", "id": 1404227615, "lat": 3.033106, "lon": 43.9173043, "tags": {"name": "Samakay Gadudi", "pcode": "NA-3802-Z10-005", "place": "village", "source": "UNDP - 2006"}}, {"type": "node", "id": 1404227979, "lat": 2.919772, "lon": 44.172111, "tags": {"name": "Hoodoy-Reer-Aw-Malin-Ebd", "pcode": "NA-3806-B15-002", "place": "village", "source": "UNDP - 2006"}}, {"type": "node", "id": 1404228029, "lat": 2.8547725, "lon": 43.8140057, "tags": {"name": "Buulo Hanyow", "pcode": "NA-3806-D07-004", "place": "hamlet", "source": "UNDP - 1997", "source:name": "UNSOA field mission and SPOT5 images data capture"}}, {"type": "node", "id": 1404228057, "lat": 2.9489155, "lon": 43.9511457, "tags": {"name": "Aw Jiloole", "pcode": "NA-3806-B10-006", "place": "hamlet", "source": "UNDP - 1997"}}, {"type": "node", "id": 1404228091, "lat": 2.9513641, "lon": 44.1492551, "tags": {"alt_name": "Fulayka", "name": "Fulaayka", "pcode": "NA-3806-B15-016", "place": "village", "source": "UNDP - 2006, UNDP - 1997", "source:name": "UNSOA field mission and SPOT5 images data capture"}}, {"type": "node", "id": 1404228102, "lat": 2.8627156, "lon": 44.0207962, "tags": {"alt_name": "Golooli", "name": "Galoole", "pcode": "NA-3806-D12-003", "place": "hamlet", "source": "UNDP - 2006, UNDP - 1997, FSAU", "source:name": "UNSOA field mission and SPOT5 images data capture"}}, {"type": "node", "id": 1404228202, "lat": 3.22426, "lon": 43.892948, "tags": {"name": "Surweyn", "pcode": "NA-3802-U09-001", "place": "isolated_dwelling", "source": "UNDP - 1997"}}, {"type": "node", "id": 1404228225, "lat": 2.9947534, "lon": 43.7990639, "tags": {"alt_name": "Lowi-Buul", "name": "Low Buulo", "pcode": "NA-3806-A07-006", "place": "hamlet", "source": "UNDP - 2006, UNDP - 1997", "source:name": "UNSOA field mission and SPOT5 images data capture"}}, {"type": "node", "id": 1404228256, "lat": 2.8742418, "lon": 43.8970684, "tags": {"name": "Caliyow Maadow", "pcode": "NA-3806-D09-003", "place": "hamlet", "source": "UNDP - 2006"}}, {"type": "node", "id": 1404228302, "lat": 3.09208, "lon": 44.1549, "tags": {"name": "Reer-Baare", "pcode": "NA-3802-X15-001", "place": "hamlet", "source": "UNDP - 2006"}}, {"type": "node", "id": 1404228339, "lat": 3.0400782, "lon": 44.0466941, "tags": {"name": "Amarka", "pcode": "NA-3802-Z13-003", "place": "hamlet", "source": "UNDP - 2006"}}, {"type": "node", "id": 1404228360, "lat": 2.9891275, "lon": 44.1117749, "tags": {"alt_name": "Galoolow Wiin", "name": "Galoolow", "pcode": "NA-3806-A14-004", "place": "hamlet", "source": "UNDP - 2006, UNDP - 1997", "source:name": "UNSOA field mission and SPOT5 images data capture", "source:ref": "UNSOA field mission and SPOT5 images data capture"}}, {"type": "node", "id": 1404228371, "lat": 3.26022, "lon": 44.03315, "tags": {"name": "Rama", "pcode": "NA-3802-T12-001", "place": "village", "source": "UNDP - 1997"}}, {"type": "node", "id": 1404228697, "lat": 3.04523, "lon": 43.91254, "tags": {"name": "Isnaarka", "pcode": "NA-3802-Y10-005", "place": "village", "source": "UNDP - 2006"}}, {"type": "node", "id": 1404228900, "lat": 2.9383463, "lon": 44.1738799, "tags": {"name": "Heer Caliyow Mamow", "pcode": "NA-3806-B15-009", "place": "hamlet", "source": "UNDP - 1997"}}, {"type": "node", "id": 1404229125, "lat": 2.85662, "lon": 43.9483, "tags": {"name": "Tin Saagara", "pcode": "NA-3806-D10-005", "place": "locality", "source": "UNDP - 2006"}}, {"type": "node", "id": 1404229308, "lat": 2.8824961, "lon": 44.0431883, "tags": {"name": "Baale", "pcode": "NA-3806-C12-001", "place": "hamlet", "source": "UNDP - 1997", "source:name": "UNSOA field mission and SPOT5 images data capture"}}, {"type": "node", "id": 1404229399, "lat": 3.06658, "lon": 44.15579, "tags": {"name": "Aw-Suurudow", "pcode": "NA-3802-Y15-002", "place": "hamlet", "source": "UNDP - 2006"}}, {"type": "node", "id": 1404229438, "lat": 2.9557572, "lon": 44.1674606, "tags": {"name": "Meykootuurey", "pcode": "NA-3806-B15-017", "place": "isolated_dwelling", "source": "UNDP - 1997"}}, {"type": "node", "id": 1404229600, "lat": 2.97467, "lon": 44.15684, "tags": {"name": "Buulo-Mad-Ebdiyow-Kulow", "pcode": "NA-3806-A15-004", "place": "village", "source": "UNDP - 2006"}}, {"type": "node", "id": 1404229801, "lat": 3.1003689, "lon": 43.9013672, "tags": {"name": "Goormay", "pcode": "NA-3802-X09-002", "place": "locality", "source": "UNDP - 1997"}}, {"type": "node", "id": 1404229810, "lat": 2.96451, "lon": 43.973999, "tags": {"name": "Moroligoy", "pcode": "NA-3806-A11-001", "place": "locality", "source": "UNDP - 1997"}}, {"type": "node", "id": 1404229940, "lat": 2.982705, "lon": 43.8756622, "tags": {"alt_name": "Shinbir", "name": "Shimbire", "pcode": "NA-3806-A09-004", "place": "hamlet", "source": "UNDP - 2006, UNDP - 1997, FSAU"}}, {"type": "node", "id": 1404229963, "lat": 2.9756898, "lon": 44.1473745, "tags": {"name": "Laambuul", "pcode": "NA-3806-A15-005", "place": "hamlet", "source": "UNDP - 1997"}}, {"type": "node", "id": 1404230046, "lat": 2.99509, "lon": 44.059181, "tags": {"name": "Waama", "pcode": "NA-3806-A13-007", "place": "village", "source": "UNDP - 1997", "source:name": "UNSOA field mission and SPOT5 images data capture"}}, {"type": "node", "id": 1404230141, "lat": 2.87894, "lon": 43.90129, "tags": {"name": "Raydabow", "pcode": "NA-3806-C09-001", "place": "village", "source": "UNDP - 2006, UNDP - 1997", "source:name": "UNSOA field mission and SPOT5 images data capture"}}, {"type": "node", "id": 1404230147, "lat": 3.0604958, "lon": 44.036448, "tags": {"name": "Gubti", "pcode": "NA-3802-Y12-001", "place": "village", "source": "UNDP - 2006"}}, {"type": "node", "id": 1404230205, "lat": 3.06277, "lon": 43.932899, "tags": {"name": "Gumlsole", "pcode": "NA-3802-Y10-001", "place": "locality", "source": "UNDP - 1997"}}, {"type": "node", "id": 1404230256, "lat": 3.04967, "lon": 44.16019, "tags": {"alt_name": "Aw Shabeel Isaaq", "name": "Awshibeel", "pcode": "NA-3802-Y15-004", "place": "hamlet", "source": "UNDP - 2006, UNDP - 1997"}}, {"type": "node", "id": 1404230302, "lat": 3.10711, "lon": 43.9937, "tags": {"name": "Maalin Mad", "pcode": "NA-3802-X11-001", "place": "locality", "source": "UNDP - 2006"}}, {"type": "node", "id": 1404230321, "lat": 2.9571934, "lon": 43.8086529, "tags": {"alt_name": "War Isho", "name": "Madi-Wiini", "pcode": "NA-3806-B07-005", "place": "village", "source": "UNDP - 2006, UNDP - 1997"}}, {"type": "node", "id": 1404230360, "lat": 2.9168329, "lon": 43.9809363, "tags": {"name": "Wagadoy", "pcode": "NA-3806-B11-001", "place": "village", "source": "UNDP - 1997", "source:name": "UNSOA field mission and SPOT5 images data capture"}}, {"type": "node", "id": 1404230364, "lat": 3.08067, "lon": 43.79295, "tags": {"name": "Idaw Madow", "pcode": "NA-3802-Y07-001", "place": "locality", "source": "UNDP - 1997"}}, {"type": "node", "id": 1404230533, "lat": 2.981, "lon": 44.0513, "tags": {"name": "Scima", "pcode": "NA-3806-A13-003", "place": "village", "source": "UNDP - 1997"}}, {"type": "node", "id": 1404230549, "lat": 3.1624489, "lon": 43.8299402, "tags": {"name": "Gordan", "pcode": "NA-3802-W08-002", "place": "isolated_dwelling", "source": "UNDP - 1997"}}, {"type": "node", "id": 1404230564, "lat": 2.8423694, "lon": 43.9939533, "tags": {"alt_name": "Korow 1Aad", "name": "Karrow", "pcode": "NA-3806-D11-002", "place": "hamlet", "source": "UNDP - 2006, UNDP - 1997", "source:name": "UNSOA field mission and SPOT5 images data capture"}}, {"type": "node", "id": 1404230575, "lat": 2.9461043, "lon": 44.167244, "tags": {"name": "Heer Aw Madow", "pcode": "NA-3806-B15-013", "place": "hamlet", "source": "UNDP - 1997", "source:name": "UNSOA field mission and SPOT5 images data capture"}}, {"type": "node", "id": 1404230602, "lat": 3.1201, "lon": 43.918201, "tags": {"name": "Mugdile", "pcode": "NA-3802-X10-002", "place": "locality", "source": "UNDP - 1997"}}, {"type": "node", "id": 1404230717, "lat": 3.1, "lon": 43.85969, "tags": {"name": "Lafa", "pcode": "NA-3802-X08-003", "place": "village", "source": "UNDP - 2006"}}, {"type": "node", "id": 1404230734, "lat": 3.0313075, "lon": 44.1344193, "tags": {"alt_name": "Morgawaan", "name": "Moori-Gawaan", "pcode": "NA-3802-Z14-002", "place": "village", "source": "UNDP - 2006, UNDP - 1997"}}, {"type": "node", "id": 1404230745, "lat": 2.8428526, "lon": 43.8820013, "tags": {"name": "Hoosow", "pcode": "NA-3806-D09-001", "place": "hamlet", "source": "UNDP - 2006, UNDP - 1997", "source:name": "UNSOA field mission and SPOT5 images data capture"}}, {"type": "node", "id": 1404230802, "lat": 2.963978, "lon": 43.9093287, "tags": {"alt_name": "Qadiidli-Yarey", "name": "Qadiidle Xarey", "pcode": "NA-3806-A09-001", "place": "hamlet", "source": "UNDP - 2006, UNDP - 1997", "source:name": "UNSOA field mission and SPOT5 images data capture"}}, {"type": "node", "id": 1404230804, "lat": 3.23005, "lon": 44.025471, "tags": {"name": "Jimcadi Dhilmanyole", "pcode": "NA-3802-U12-001", "place": "village", "source": "UNDP - 1997"}}, {"type": "node", "id": 1404230937, "lat": 3.22595, "lon": 44.01437, "tags": {"name": "Buulo Wacalim", "pcode": "NA-3802-U12-003", "place": "village", "source": "UNDP - 1997"}}, {"type": "node", "id": 1404230965, "lat": 2.9725, "lon": 44.0125, "tags": {"name": "Mintaal Amiin", "pcode": "NA-3806-A12-001", "place": "locality", "source": "UNDP - 1997", "source:name": "UNSOA field mission and SPOT5 images data capture", "source:ref": "UNSOA field mission and SPOT5 images data capture"}}, {"type": "node", "id": 1404230982, "lat": 3.0778, "lon": 44.069901, "tags": {"name": "Kubcadoy", "pcode": "NA-3802-Y13-001", "place": "village", "source": "UNDP - 1997"}}, {"type": "node", "id": 1404231015, "lat": 2.84412, "lon": 44.05577, "tags": {"alt_name": "Kodoloob", "name": "Gudolaab", "pcode": "NA-3806-D13-001", "place": "hamlet", "source": "UNDP - 2006, UNDP - 1997", "source:name": "UNSOA field mission and SPOT5 images data capture"}}, {"type": "node", "id": 1404231052, "lat": 3.08007, "lon": 44.00578, "tags": {"name": "Batey", "pcode": "NA-3802-Y12-002", "place": "village", "source": "UNDP - 2006"}}, {"type": "node", "id": 1404231092, "lat": 3.00562, "lon": 44.1224038, "tags": {"alt_name": "Dooy Gadahay", "name": "Dooygodobey", "pcode": "NA-3802-Z14-001", "place": "village", "source": "UNDP - 2006, UNDP - 1997"}}, {"type": "node", "id": 1404231242, "lat": 2.8975341, "lon": 43.8536981, "tags": {"alt_name": "Qorontoola", "name": "Qorantole", "pcode": "NA-3806-C08-001", "place": "village", "source": "UNDP - 2006, UNDP - 1997"}}, {"type": "node", "id": 1404231299, "lat": 2.9786, "lon": 43.820801, "tags": {"name": "Bulo Gasei", "pcode": "NA-3806-A08-001", "place": "locality", "source": "UNDP - 1997"}}, {"type": "node", "id": 1404231302, "lat": 3.1939, "lon": 43.843479, "tags": {"name": "Xalmeey", "pcode": "NA-3802-V08-001", "place": "isolated_dwelling", "source": "UNDP - 1997"}}, {"type": "node", "id": 1404231324, "lat": 2.99271, "lon": 44.067451, "tags": {"name": "Guumba", "pcode": "NA-3806-A13-005", "place": "hamlet", "source": "UNDP - 1997"}}, {"type": "node", "id": 1404231447, "lat": 2.9255061, "lon": 44.1060475, "tags": {"alt_name": "Mar Marka", "name": "Marmarkaa", "pcode": "NA-3806-B14-002", "place": "hamlet", "source": "UNDP - 2006, UNDP - 1997", "source:name": "UNSOA field mission and SPOT5 images data capture"}}, {"type": "node", "id": 1404231474, "lat": 2.93831, "lon": 44.16507, "tags": {"name": "Her Ay Casha", "pcode": "NA-3806-B15-010", "place": "village", "source": "UNDP - 1997"}}, {"type": "node", "id": 1404231510, "lat": 2.935915, "lon": 44.078504, "tags": {"alt_name": "Shiima", "name": "Shiid Eddi", "pcode": "NA-3806-B13-001", "place": "village", "source": "UNDP - 2006, UNDP - 1997"}}, {"type": "node", "id": 1404231577, "lat": 2.8657622, "lon": 43.9345226, "tags": {"alt_name": "Buakay", "name": "Bunkay", "pcode": "NA-3806-D10-007", "place": "hamlet", "source": "UNDP - 1997", "source:name": "UNSOA field mission and SPOT5 images data capture"}}, {"type": "node", "id": 1404231609, "lat": 2.84869, "lon": 44.078621, "tags": {"name": "Shiidlow", "pcode": "NA-3806-D13-003", "place": "hamlet", "source": "UNDP - 1997"}}, {"type": "node", "id": 1404231644, "lat": 2.987362, "lon": 43.7860006, "tags": {"name": "Maxamuudow", "pcode": "NA-3806-A07-004", "place": "hamlet", "source": "UNDP - 1997"}}, {"type": "node", "id": 1404231660, "lat": 2.95258, "lon": 43.80986, "tags": {"name": "Aleemi", "pcode": "NA-3806-B07-004", "place": "locality", "source": "UNDP - 2006"}}, {"type": "node", "id": 1404231688, "lat": 3.17038, "lon": 43.83138, "tags": {"name": "Madi-Eriin", "pcode": "NA-3802-V08-003", "place": "locality", "source": "UNDP - 2006"}}, {"type": "node", "id": 1404231763, "lat": 2.85687, "lon": 44.0497, "tags": {"name": "Takow", "pcode": "NA-3806-D13-005", "place": "hamlet", "source": "UNDP - 2006"}}, {"type": "node", "id": 1404231822, "lat": 3.09437, "lon": 43.820549, "tags": {"name": "Buur Halab", "pcode": "NA-3802-X08-001", "place": "locality", "source": "UNDP - 1997"}}, {"type": "node", "id": 1404231857, "lat": 2.90018, "lon": 44.1677, "tags": {"name": "Raaswini", "pcode": "NA-3806-C15-004", "place": "village", "source": "UNDP - 2006"}}, {"type": "node", "id": 1404231863, "lat": 3.08325, "lon": 44.094818, "tags": {"name": "Aw Nagay", "pcode": "NA-3802-Y14-002", "place": "village", "source": "UNDP - 1997"}}, {"type": "node", "id": 1404231889, "lat": 3.2701, "lon": 44.1805, "tags": {"name": "Ban-Chi Surta", "pcode": "NA-3802-T15-001", "place": "village", "source": "UNDP - 1997"}}, {"type": "node", "id": 1404231971, "lat": 2.91416, "lon": 44.04349, "tags": {"alt_name": "Galol-Tuuri", "name": "Galool Tuure", "pcode": "NA-3806-C12-004", "place": "hamlet", "source": "UNDP - 2006, UNDP - 1997", "source:name": "UNSOA field mission and SPOT5 images data capture"}}, {"type": "node", "id": 1404231981, "lat": 2.9000141, "lon": 43.9882088, "tags": {"alt_name": "Lowiidi", "name": "Loowiloy", "pcode": "NA-3806-C11-005;NA-3806-C11-004", "place": "hamlet", "source": "UNDP - 2006"}}, {"type": "node", "id": 1404232045, "lat": 3.05652, "lon": 44.1491, "tags": {"alt_name": "Ayaroy", "name": "Aayaroy", "pcode": "NA-3802-Y15-003", "place": "village", "source": "UNDP - 2006, UNDP - 1997"}}, {"type": "node", "id": 1404232221, "lat": 2.8800871, "lon": 43.966439, "tags": {"alt_name": "Baasmale", "name": "Bashmaale", "pcode": "NA-3806-C11-002", "place": "hamlet", "source": "UNDP - 2006, UNDP - 1997", "source:name": "UNSOA field mission and SPOT5 images data capture"}}, {"type": "node", "id": 1404232303, "lat": 2.97429, "lon": 44.01297, "tags": {"name": "Gember", "pcode": "NA-3806-A12-002", "place": "hamlet", "source": "UNDP - 2006"}}, {"type": "node", "id": 1404232340, "lat": 2.98904, "lon": 44.1637585, "tags": {"alt_name": "Haat", "name": "Haaf", "pcode": "NA-3806-A15-007", "place": "hamlet", "source": "UNDP - 2006, UNDP - 1997", "source:name": "UNSOA field mission and SPOT5 images data capture"}}, {"type": "node", "id": 1404232363, "lat": 2.8667256, "lon": 43.9343405, "tags": {"fixme": "check", "name": "Mino Kuroon", "pcode": "NA-3806-D10-008", "place": "village", "source": "UNDP - 2006"}}, {"type": "node", "id": 1404232567, "lat": 3.0504107, "lon": 43.8990078, "tags": {"name": "Ghelai", "pcode": "NA-3802-Y09-004", "place": "village", "source": "UNDP - 1997"}}, {"type": "node", "id": 1404232995, "lat": 2.9460679, "lon": 44.1758465, "tags": {"name": "Aw Reenow", "pcode": "NA-3806-B15-012", "place": "hamlet", "source": "UNDP - 1997", "source:name": "UNSOA field mission and SPOT5 images data capture", "source:ref": "UNSOA field mission and SPOT5 images data capture"}}, {"type": "node", "id": 1404233033, "lat": 2.88865, "lon": 44.01584, "tags": {"alt_name": "Limaale", "name": "Liimaale", "pcode": "NA-3806-C12-003", "place": "hamlet", "source": "UNDP - 2006, UNDP - 1997, FSAU", "source:name": "UNSOA field mission and SPOT5 images data capture"}}, {"type": "node", "id": 1404233094, "lat": 2.9478684, "lon": 44.1015026, "tags": {"name": "Deega", "pcode": "NA-3806-B14-004", "place": "hamlet", "source": "UNDP - 1997", "source:name": "UNSOA field mission and SPOT5 images data capture"}}, {"type": "node", "id": 1404233177, "lat": 2.8869804, "lon": 43.8671555, "tags": {"name": "Lufa", "pcode": "NA-3806-C09-003", "place": "village", "source": "UNDP - 2006"}}, {"type": "node", "id": 1404233184, "lat": 3.159186, "lon": 43.8561085, "tags": {"name": "Maka Yarey", "pcode": "NA-3802-W08-001", "place": "hamlet", "source": "UNDP - 1997"}}, {"type": "node", "id": 1404233272, "lat": 2.9210755, "lon": 44.1709579, "tags": {"name": "Duura", "pcode": "NA-3806-B15-001", "place": "village", "source": "UNDP - 1997", "source:name": "UNSOA field mission and SPOT5 images data capture"}}, {"type": "node", "id": 1404233297, "lat": 2.87887, "lon": 44.14109, "tags": {"name": "Hoogey", "pcode": "NA-3806-C15-001", "place": "locality", "source": "UNDP - 1997", "source:name": "UNSOA field mission and SPOT5 images data capture", "source:ref": "UNSOA field mission and SPOT5 images data capture"}}, {"type": "node", "id": 1404233326, "lat": 2.9964074, "lon": 44.0608507, "tags": {"name": "Buulo", "pcode": "NA-3806-A13-006", "place": "isolated_dwelling", "source": "UNDP - 2006"}}, {"type": "node", "id": 1404233350, "lat": 3.06538, "lon": 43.87549, "tags": {"alt_name": "Gawan", "name": "Gawaan", "pcode": "NA-3802-Y09-002", "place": "village", "source": "UNDP - 2006, UNDP - 1997"}}, {"type": "node", "id": 1404233368, "lat": 3.065591, "lon": 43.9946162, "tags": {"name": "Erimow", "pcode": "NA-3802-Y11-001", "place": "village", "source": "UNDP - 2006"}}, {"type": "node", "id": 1404233381, "lat": 2.9059703, "lon": 43.8177684, "tags": {"name": "Miriqlay", "pcode": "NA-3806-C07-004", "place": "hamlet", "source": "UNDP - 1997", "source:name": "UNSOA field mission and SPOT5 images data capture"}}, {"type": "node", "id": 1404233390, "lat": 2.85446, "lon": 43.94183, "tags": {"name": "Meene Karron", "pcode": "NA-3806-D10-004", "place": "locality", "source": "UNDP - 1997"}}, {"type": "node", "id": 1404233441, "lat": 3.18612, "lon": 43.899059, "tags": {"name": "Mareere", "pcode": "NA-3802-V09-001", "place": "isolated_dwelling", "source": "UNDP - 1997"}}, {"type": "node", "id": 1404233464, "lat": 3.1985124, "lon": 43.8588305, "tags": {"name": "Neebsoy", "pcode": "NA-3802-V08-002", "place": "village", "source": "UNDP - 2006"}}, {"type": "node", "id": 1404233560, "lat": 2.9148304, "lon": 44.1264755, "tags": {"name": "Galool-Tuure", "pcode": "NA-3806-C14-004", "place": "hamlet", "source": "UNDP - 2006"}}, {"type": "node", "id": 1404233629, "lat": 2.923809, "lon": 43.9294891, "tags": {"name": "Kuunyada Boodh", "pcode": "NA-3806-B10-002", "place": "hamlet", "source": "UNDP - 1997"}}, {"type": "node", "id": 1404233652, "lat": 2.8405958, "lon": 43.9649935, "tags": {"alt_name": "Barabuula; Bara-Buule", "name": "Barabuule", "pcode": "NA-3806-D11-001", "place": "hamlet", "source": "UNDP - 2006, UNDP - 1997", "source:name": "UNSOA field mission and SPOT5 images data capture"}}, {"type": "node", "id": 1404233692, "lat": 2.9184765, "lon": 43.8032034, "tags": {"name": "Buulo Iman", "pcode": "NA-3806-B07-001", "place": "hamlet", "source": "UNDP - 2006"}}, {"type": "node", "id": 1404233748, "lat": 3.0428895, "lon": 43.9263124, "tags": {"name": "Kuunyo Omin", "pcode": "NA-3802-Y10-004", "place": "locality", "source": "UNDP - 2006"}}, {"type": "node", "id": 1404233790, "lat": 2.91796, "lon": 43.93153, "tags": {"alt_name": "Lughabar; Lug-Habar", "name": "Lugabaro", "pcode": "NA-3806-B10-001", "place": "village", "source": "UNDP - 2006, UNDP - 1997"}}, {"type": "node", "id": 1404233964, "lat": 2.913, "lon": 44.05368, "tags": {"alt_name": "Abaqsaarre", "name": "Abaqs aarre", "pcode": "NA-3806-C13-003", "place": "locality", "source": "UNDP - 1997", "source:name": "UNSOA field mission and SPOT5 images data capture", "source:ref": "UNSOA field mission and SPOT5 images data capture"}}, {"type": "node", "id": 5982125008, "lat": 3.0426954, "lon": 43.8018947}, {"type": "node", "id": 5982125019, "lat": 3.041324, "lon": 43.801193}, {"type": "node", "id": 5982125063, "lat": 3.0417976, "lon": 43.8014881}, {"type": "node", "id": 5982125080, "lat": 3.04221, "lon": 43.7993971}, {"type": "node", "id": 5982125090, "lat": 3.0431239, "lon": 43.7994335}, {"type": "node", "id": 5982125103, "lat": 3.0435096, "lon": 43.8020084}, {"type": "node", "id": 5982125125, "lat": 3.0433425, "lon": 43.8000826}, {"type": "node", "id": 5982125126, "lat": 3.0436677, "lon": 43.8013674}, {"type": "node", "id": 5984061782, "lat": 3.0998214, "lon": 43.8617002}, {"type": "node", "id": 5984061783, "lat": 3.0970333, "lon": 43.8618262}, {"type": "node", "id": 5984063589, "lat": 3.1005285, "lon": 43.8591038}, {"type": "node", "id": 5984063619, "lat": 3.100964, "lon": 43.8600479}, {"type": "node", "id": 5984063625, "lat": 3.0981732, "lon": 43.8608419}, {"type": "node", "id": 5984063626, "lat": 3.0999516, "lon": 43.8574998}, {"type": "node", "id": 5984063638, "lat": 3.0982413, "lon": 43.862265}, {"type": "node", "id": 5984063652, "lat": 3.100182, "lon": 43.8617876}, {"type": "node", "id": 5984063653, "lat": 3.1014835, "lon": 43.8607324}, {"type": "node", "id": 5984063670, "lat": 3.1011338, "lon": 43.8610806}, {"type": "node", "id": 5984063674, "lat": 3.0991786, "lon": 43.8588871}, {"type": "node", "id": 5984063682, "lat": 3.0990892, "lon": 43.8590856}, {"type": "node", "id": 5984063895, "lat": 3.1007069, "lon": 43.8614067}, {"type": "node", "id": 5984063910, "lat": 3.0990678, "lon": 43.8583045}, {"type": "node", "id": 5984063922, "lat": 3.1007428, "lon": 43.8598119}, {"type": "node", "id": 5984063926, "lat": 3.0994374, "lon": 43.8615714}, {"type": "node", "id": 5984063932, "lat": 3.0976118, "lon": 43.8610441}, {"type": "node", "id": 5984063933, "lat": 3.0989162, "lon": 43.8616551}, {"type": "node", "id": 5984063934, "lat": 3.0975331, "lon": 43.8622318}, {"type": "node", "id": 5984063936, "lat": 3.0991213, "lon": 43.8596402}, {"type": "node", "id": 5984063943, "lat": 3.1002141, "lon": 43.8583313}, {"type": "node", "id": 5984063945, "lat": 3.0990768, "lon": 43.8600265}, {"type": "node", "id": 5984063947, "lat": 3.0976751, "lon": 43.8623794}, {"type": "node", "id": 5984063952, "lat": 3.0990142, "lon": 43.8592518}, {"type": "node", "id": 5984064086, "lat": 3.0987999, "lon": 43.8606042}, {"type": "node", "id": 6118788666, "lat": 2.9250803, "lon": 44.058499, "tags": {"name": "Lafa", "place": "hamlet", "source:name": "UNSOA field mission and SPOT5 images data capture"}}, {"type": "node", "id": 6118788667, "lat": 2.9437293, "lon": 44.0761775, "tags": {"name": "Shiima", "place": "hamlet", "source:name": "UNSOA field mission and SPOT5 images data capture"}}, {"type": "node", "id": 6118788668, "lat": 2.9389747, "lon": 44.0561414, "tags": {"name": "Galoole", "place": "village", "source:name": "UNSOA field mission and SPOT5 images data capture"}}, {"type": "node", "id": 6118788669, "lat": 2.9809274, "lon": 44.0715158, "tags": {"place": "hamlet"}}, {"type": "node", "id": 6118788670, "lat": 2.9926568, "lon": 44.0577507, "tags": {"name": "Waama", "place": "hamlet", "source:name": "UNSOA field mission and SPOT5 images data capture"}}, {"type": "node", "id": 6119298059, "lat": 3.0004634, "lon": 44.1529973, "tags": {"place": "hamlet", "source:ref": "UNSOA field mission and SPOT5 images data capture"}}, {"type": "node", "id": 6119298060, "lat": 2.9343057, "lon": 44.0612832, "tags": {"place": "hamlet", "source:ref": "UNSOA field mission and SPOT5 images data capture"}}, {"type": "node", "id": 6119298063, "lat": 2.9945211, "lon": 44.0795758, "tags": {"place": "hamlet", "source:ref": "UNSOA field mission and SPOT5 images data capture"}}, {"type": "node", "id": 6119298064, "lat": 2.9899033, "lon": 44.0286487, "tags": {"name": "Totoorow", "place": "hamlet", "source:name": "UNSOA field mission and SPOT5 images data capture"}}, {"type": "node", "id": 6119298071, "lat": 2.8483298, "lon": 44.0851307, "tags": {"name": "Shiidlow", "place": "hamlet", "source:name": "UNSOA field mission and SPOT5 images data capture"}}, {"type": "node", "id": 6119298073, "lat": 2.8685392, "lon": 44.1767737, "tags": {"place": "hamlet"}}, {"type": "node", "id": 6119298074, "lat": 2.8639155, "lon": 44.0716472, "tags": {"place": "hamlet"}}, {"type": "node", "id": 6119298075, "lat": 2.8606714, "lon": 44.0690777, "tags": {"name": "Godobay", "place": "hamlet", "source:name": "UNSOA field mission and SPOT5 images data capture"}}, {"type": "node", "id": 6119298076, "lat": 2.8916012, "lon": 44.1634727, "tags": {"name": "Qaranka", "place": "hamlet", "source:name": "UNSOA field mission and SPOT5 images data capture"}}, {"type": "node", "id": 6119298077, "lat": 2.8980651, "lon": 44.0492266, "tags": {"name": "Takow", "place": "hamlet", "source:name": "UNSOA field mission and SPOT5 images data capture"}}, {"type": "node", "id": 6119298078, "lat": 2.9365692, "lon": 44.1543987, "tags": {"name": "Korey", "place": "hamlet", "source:name": "UNSOA field mission and SPOT5 images data capture"}}, {"type": "node", "id": 6119393122, "lat": 2.8507, "lon": 44.0374, "tags": {"name": "Ugaarey", "place": "locality", "source:name": "UNSOA field mission and SPOT5 images data capture", "source:ref": "UNSOA field mission and SPOT5 images data capture"}}, {"type": "node", "id": 6119393127, "lat": 2.97654, "lon": 44.15775, "tags": {"name": "Hera Mata Gooy", "place": "locality", "source:name": "UNSOA field mission and SPOT5 images data capture", "source:ref": "UNSOA field mission and SPOT5 images data capture"}}, {"type": "node", "id": 6119393128, "lat": 2.8611, "lon": 44.1797, "tags": {"name": "Balaaw", "place": "locality", "source:name": "UNSOA field mission and SPOT5 images data capture", "source:ref": "UNSOA field mission and SPOT5 images data capture"}}, {"type": "node", "id": 6119393129, "lat": 2.85, "lon": 44.11667, "tags": {"name": "Gherir Aman", "place": "locality", "source:name": "UNSOA field mission and SPOT5 images data capture", "source:ref": "UNSOA field mission and SPOT5 images data capture"}}, {"type": "node", "id": 6119430692, "lat": 2.9359976, "lon": 44.1774795, "tags": {"name": "Heer Caliyow Mamow", "place": "hamlet", "source:name": "UNSOA field mission and SPOT5 images data capture", "source:ref": "UNSOA field mission and SPOT5 images data capture"}}, {"type": "node", "id": 6121178325, "lat": 2.9082638, "lon": 44.0611142, "tags": {"place": "hamlet", "source:ref": "UNSOA field mission and SPOT5 images data capture"}}, {"type": "node", "id": 6121178326, "lat": 2.8396967, "lon": 44.0952483, "tags": {"place": "hamlet", "source:ref": "UNSOA field mission and SPOT5 images data capture"}}, {"type": "node", "id": 6121178332, "lat": 2.9945354, "lon": 44.1737019, "tags": {"place": "hamlet", "source:ref": "UNSOA field mission and SPOT5 images data capture"}}, {"type": "node", "id": 6121178335, "lat": 2.8918899, "lon": 44.0120037, "tags": {"place": "hamlet", "source:ref": "UNSOA field mission and SPOT5 images data capture"}}, {"type": "node", "id": 6121178379, "lat": 2.9126531, "lon": 44.0718413, "tags": {"place": "hamlet", "source:ref": "UNSOA field mission and SPOT5 images data capture"}}, {"type": "node", "id": 6121178393, "lat": 2.9884959, "lon": 44.0605296, "tags": {"place": "isolated_dwelling", "source:ref": "UNSOA field mission and SPOT5 images data capture"}}, {"type": "node", "id": 6121178426, "lat": 2.8407482, "lon": 44.1662459, "tags": {"place": "hamlet", "source:ref": "UNSOA field mission and SPOT5 images data capture"}}, {"type": "node", "id": 6121178427, "lat": 2.9991093, "lon": 44.1520143, "tags": {"place": "isolated_dwelling", "source:ref": "UNSOA field mission and SPOT5 images data capture"}}, {"type": "node", "id": 6121178428, "lat": 2.9717456, "lon": 44.1830452, "tags": {"place": "hamlet", "source:ref": "UNSOA field mission and SPOT5 images data capture"}}, {"type": "node", "id": 6121178441, "lat": 2.9863485, "lon": 44.0596865, "tags": {"place": "isolated_dwelling", "source:ref": "UNSOA field mission and SPOT5 images data capture"}}, {"type": "node", "id": 6121178442, "lat": 2.9986047, "lon": 44.1485078, "tags": {"place": "isolated_dwelling", "source:ref": "UNSOA field mission and SPOT5 images data capture"}}, {"type": "node", "id": 6121178444, "lat": 2.9094553, "lon": 44.0617293, "tags": {"place": "hamlet", "source:ref": "UNSOA field mission and SPOT5 images data capture"}}, {"type": "node", "id": 6121178447, "lat": 2.846067, "lon": 44.0905983, "tags": {"place": "hamlet", "source:ref": "UNSOA field mission and SPOT5 images data capture"}}, {"type": "node", "id": 6121178458, "lat": 2.9774174, "lon": 44.1162253, "tags": {"place": "isolated_dwelling", "source:ref": "UNSOA field mission and SPOT5 images data capture"}}, {"type": "node", "id": 6121178470, "lat": 2.9600012, "lon": 44.1571554, "tags": {"place": "hamlet", "source:ref": "UNSOA field mission and SPOT5 images data capture"}}, {"type": "node", "id": 6121178588, "lat": 2.9903133, "lon": 44.1713976, "tags": {"place": "hamlet", "source:ref": "UNSOA field mission and SPOT5 images data capture"}}, {"type": "node", "id": 6121178615, "lat": 2.9547092, "lon": 44.1713016, "tags": {"place": "hamlet", "source:ref": "UNSOA field mission and SPOT5 images data capture"}}, {"type": "node", "id": 6121178650, "lat": 2.9683247, "lon": 44.1102718, "tags": {"name": "Leeska", "place": "locality", "source:name": "UNSOA field mission and SPOT5 images data capture", "source:ref": "UNSOA field mission and SPOT5 images data capture"}}, {"type": "node", "id": 6121178705, "lat": 2.9192453, "lon": 44.1311525, "tags": {"name": "Gadiis ey", "place": "hamlet", "source:name": "UNSOA field mission and SPOT5 images data capture", "source:ref": "UNSOA field mission and SPOT5 images data capture"}}, {"type": "node", "id": 6121178706, "lat": 2.9616779, "lon": 44.1627141, "tags": {"name": "Idaadlow Mataakooy", "place": "hamlet", "source:name": "UNSOA field mission and SPOT5 images data capture", "source:ref": "UNSOA field mission and SPOT5 images data capture"}}, {"type": "node", "id": 6121178726, "lat": 2.9845546, "lon": 44.067175, "tags": {"name": "Guumba", "place": "hamlet", "source:name": "UNSOA field mission and SPOT5 images data capture", "source:ref": "UNSOA field mission and SPOT5 images data capture"}}, {"type": "node", "id": 6121178727, "lat": 2.934055, "lon": 44.1312716, "tags": {"name": "Misnaqate", "place": "hamlet", "source:name": "UNSOA field mission and SPOT5 images data capture", "source:ref": "UNSOA field mission and SPOT5 images data capture"}}, {"type": "node", "id": 6121178787, "lat": 2.8681246, "lon": 44.0942586, "tags": {"name": "Jameeco Aaminey", "place": "hamlet", "source:name": "UNSOA field mission and SPOT5 images data capture", "source:ref": "UNSOA field mission and SPOT5 images data capture"}}, {"type": "node", "id": 6121178790, "lat": 2.932087, "lon": 44.131507, "tags": {"name": "Dadian", "place": "hamlet", "source:name": "UNSOA field mission and SPOT5 images data capture", "source:ref": "UNSOA field mission and SPOT5 images data capture"}}, {"type": "node", "id": 6121178898, "lat": 2.9798105, "lon": 44.1521329, "tags": {"name": "Laambuul", "place": "hamlet", "source:name": "UNSOA field mission and SPOT5 images data capture", "source:ref": "UNSOA field mission and SPOT5 images data capture"}}, {"type": "node", "id": 6123587807, "lat": 2.9628093, "lon": 43.8097268, "tags": {"name": "War Isho", "place": "hamlet", "source:name": "UNSOA field mission and SPOT5 images data capture"}}, {"type": "node", "id": 6123588059, "lat": 2.924933, "lon": 43.8007951, "tags": {"place": "hamlet"}}, {"type": "node", "id": 6123588104, "lat": 2.9027744, "lon": 43.8484687, "tags": {"place": "hamlet"}}, {"type": "node", "id": 6123588159, "lat": 2.9062584, "lon": 43.8399762, "tags": {"name": "Qorontoola", "place": "hamlet", "source:name": "UNSOA field mission and SPOT5 images data capture"}}, {"type": "node", "id": 6123588402, "lat": 2.8819977, "lon": 43.8801295, "tags": {"place": "hamlet"}}, {"type": "node", "id": 6123588622, "lat": 2.8792374, "lon": 43.9057385, "tags": {"place": "hamlet"}}, {"type": "node", "id": 6123588883, "lat": 2.9598468, "lon": 43.9748168, "tags": {"name": "Moroligoy", "place": "hamlet", "source:name": "UNSOA field mission and SPOT5 images data capture"}}, {"type": "node", "id": 6123588903, "lat": 2.9879926, "lon": 43.9697856, "tags": {"name": "Kormarey", "place": "hamlet", "source:name": "UNSOA field mission and SPOT5 images data capture"}}, {"type": "node", "id": 6123588948, "lat": 2.9905488, "lon": 43.8760042, "tags": {"name": "Shinbir", "place": "hamlet", "source:name": "UNSOA field mission and SPOT5 images data capture"}}, {"type": "node", "id": 6127895199, "lat": 2.840569, "lon": 43.7936772, "tags": {"place": "isolated_dwelling", "source:ref": "UNSOA field mission and SPOT5 images data capture"}}, {"type": "node", "id": 6127895200, "lat": 2.8465442, "lon": 43.9934547, "tags": {"place": "hamlet", "source:ref": "UNSOA field mission and SPOT5 images data capture"}}, {"type": "node", "id": 6127895222, "lat": 2.9960717, "lon": 43.9445043, "tags": {"place": "isolated_dwelling", "source:ref": "UNSOA field mission and SPOT5 images data capture"}}, {"type": "node", "id": 6127895226, "lat": 2.9296033, "lon": 43.961832, "tags": {"place": "hamlet", "source:ref": "UNSOA field mission and SPOT5 images data capture"}}, {"type": "node", "id": 6127895228, "lat": 2.8448395, "lon": 43.9635963, "tags": {"place": "isolated_dwelling", "source:ref": "UNSOA field mission and SPOT5 images data capture"}}, {"type": "node", "id": 6127895241, "lat": 2.9150678, "lon": 43.8355682, "tags": {"place": "hamlet", "source:ref": "UNSOA field mission and SPOT5 images data capture"}}, {"type": "node", "id": 6127895243, "lat": 2.9081224, "lon": 43.8385334, "tags": {"place": "hamlet", "source:ref": "UNSOA field mission and SPOT5 images data capture"}}, {"type": "node", "id": 6127895244, "lat": 2.9149181, "lon": 43.9358514, "tags": {"place": "hamlet", "source:ref": "UNSOA field mission and SPOT5 images data capture"}}, {"type": "node", "id": 6127895253, "lat": 2.9958134, "lon": 43.9418138, "tags": {"place": "isolated_dwelling", "source:ref": "UNSOA field mission and SPOT5 images data capture"}}, {"type": "node", "id": 6127895266, "lat": 2.9106087, "lon": 43.8375664, "tags": {"place": "hamlet", "source:ref": "UNSOA field mission and SPOT5 images data capture"}}, {"type": "node", "id": 6127895268, "lat": 2.9824197, "lon": 43.804266, "tags": {"place": "isolated_dwelling", "source:ref": "UNSOA field mission and SPOT5 images data capture"}}, {"type": "node", "id": 6127902988, "lat": 2.991833, "lon": 43.8015612, "tags": {"place": "hamlet", "source:ref": "UNSOA field mission and SPOT5 images data capture"}}, {"type": "node", "id": 6127903049, "lat": 2.9172499, "lon": 43.9393768, "tags": {"place": "isolated_dwelling", "source:ref": "UNSOA field mission and SPOT5 images data capture"}}, {"type": "node", "id": 6127903063, "lat": 2.8908768, "lon": 43.8526706, "tags": {"place": "hamlet", "source:ref": "UNSOA field mission and SPOT5 images data capture"}}, {"type": "node", "id": 6127903290, "lat": 2.9097827, "lon": 43.8348278, "tags": {"place": "hamlet", "source:ref": "UNSOA field mission and SPOT5 images data capture"}}, {"type": "node", "id": 6127903306, "lat": 2.8631474, "lon": 43.9396216, "tags": {"place": "hamlet", "source:ref": "UNSOA field mission and SPOT5 images data capture"}}, {"type": "node", "id": 6127903341, "lat": 2.9317041, "lon": 43.7917248, "tags": {"place": "village", "source:ref": "UNSOA field mission and SPOT5 images data capture"}}, {"type": "node", "id": 6127903342, "lat": 2.9102656, "lon": 43.949792, "tags": {"place": "isolated_dwelling", "source:ref": "UNSOA field mission and SPOT5 images data capture"}}, {"type": "node", "id": 6127903343, "lat": 2.8965377, "lon": 43.8006832, "tags": {"place": "hamlet", "source:ref": "UNSOA field mission and SPOT5 images data capture"}}, {"type": "node", "id": 6127903559, "lat": 2.8897975, "lon": 43.956966, "tags": {"name": "Xawaal Arundi", "place": "hamlet", "source:name": "UNSOA field mission and SPOT5 images data capture", "source:ref": "UNSOA field mission and SPOT5 images data capture"}}, {"type": "node", "id": 6127903795, "lat": 2.8712952, "lon": 43.9921492, "tags": {"name": "Gagsoy", "place": "hamlet", "source:name": "UNSOA field mission and SPOT5 images data capture", "source:ref": "UNSOA field mission and SPOT5 images data capture"}}, {"type": "node", "id": 6130486064, "lat": 2.9608432, "lon": 43.9234418}, {"type": "node", "id": 6130486065, "lat": 2.9600557, "lon": 43.9240077}, {"type": "node", "id": 6130486066, "lat": 2.959753, "lon": 43.9239621}, {"type": "node", "id": 6130486067, "lat": 2.9592896, "lon": 43.9239863}, {"type": "node", "id": 6130486068, "lat": 2.9580414, "lon": 43.9243725}, {"type": "node", "id": 6130486069, "lat": 2.957653, "lon": 43.9245415}, {"type": "node", "id": 6130486070, "lat": 2.9574306, "lon": 43.9246595}, {"type": "node", "id": 6130486071, "lat": 2.9573824, "lon": 43.9248607}, {"type": "node", "id": 6130486072, "lat": 2.9575378, "lon": 43.9250538}, {"type": "node", "id": 6130486073, "lat": 2.9580253, "lon": 43.9252308}, {"type": "node", "id": 6130486074, "lat": 2.9583253, "lon": 43.925212}, {"type": "node", "id": 6130486075, "lat": 2.9589869, "lon": 43.9248607}, {"type": "node", "id": 6130486076, "lat": 2.9593512, "lon": 43.9243886}, {"type": "node", "id": 6130486077, "lat": 2.959445, "lon": 43.9242035}, {"type": "node", "id": 6130486078, "lat": 2.9600664, "lon": 43.9242035}, {"type": "node", "id": 6130486079, "lat": 2.9604361, "lon": 43.9243779}, {"type": "node", "id": 6130486080, "lat": 2.960787, "lon": 43.9245012}, {"type": "node", "id": 6130486081, "lat": 2.9602298, "lon": 43.9239943}, {"type": "node", "id": 6130486082, "lat": 2.9607334, "lon": 43.9235383}, {"type": "node", "id": 6130486083, "lat": 2.9611968, "lon": 43.9234605}, {"type": "node", "id": 6130486084, "lat": 2.9615664, "lon": 43.9244395}, {"type": "node", "id": 6130486085, "lat": 2.9620432, "lon": 43.9252013}, {"type": "node", "id": 6130486086, "lat": 2.9615557, "lon": 43.9259469}, {"type": "node", "id": 6130486087, "lat": 2.9612825, "lon": 43.9259255}, {"type": "node", "id": 6130486088, "lat": 2.9609557, "lon": 43.9256358}, {"type": "node", "id": 6130486089, "lat": 2.9610575, "lon": 43.9252174}, {"type": "node", "id": 6130486090, "lat": 2.9609825, "lon": 43.9245415}, {"type": "node", "id": 6130486091, "lat": 2.9609691, "lon": 43.9234069}, {"type": "node", "id": 6130486364, "lat": 2.9586621, "lon": 43.925079}, {"type": "node", "id": 6130486489, "lat": 2.9610947, "lon": 43.9247098}, {"type": "node", "id": 6130486501, "lat": 2.9611015, "lon": 43.9234272}, {"type": "node", "id": 6130486529, "lat": 2.9573101, "lon": 43.9247462}, {"type": "node", "id": 6130486555, "lat": 2.9598875, "lon": 43.9241549}, {"type": "node", "id": 6130486567, "lat": 2.9614306, "lon": 43.9238975}, {"type": "node", "id": 6130486696, "lat": 2.9585011, "lon": 43.924115}, {"type": "node", "id": 6130486735, "lat": 2.9617693, "lon": 43.9248136}, {"type": "node", "id": 6130486762, "lat": 2.9618822, "lon": 43.925726}, {"type": "node", "id": 6130486926, "lat": 2.9610637, "lon": 43.9258342}, {"type": "node", "id": 6130486965, "lat": 2.9592093, "lon": 43.9246101}, {"type": "node", "id": 6130486991, "lat": 2.961178, "lon": 43.9249121}, {"type": "node", "id": 6130487003, "lat": 2.9603876, "lon": 43.9239157}, {"type": "node", "id": 6130487019, "lat": 2.9620393, "lon": 43.9253628}, {"type": "node", "id": 6130487031, "lat": 2.9577797, "lon": 43.9251885}, {"type": "node", "id": 6130487056, "lat": 2.9602351, "lon": 43.9242767}, {"type": "node", "id": 6130487068, "lat": 2.9612808, "lon": 43.9235275}, {"type": "node", "id": 6130487196, "lat": 2.9578535, "lon": 43.9244424}, {"type": "node", "id": 6130487235, "lat": 2.9615645, "lon": 43.92421}, {"type": "node", "id": 6130487264, "lat": 2.9588517, "lon": 43.9240051}, {"type": "node", "id": 6130487303, "lat": 2.9619108, "lon": 43.9249891}, {"type": "node", "id": 6130487330, "lat": 2.9617532, "lon": 43.9258669}, {"type": "node", "id": 6130487368, "lat": 2.9596174, "lon": 43.9241476}, {"type": "node", "id": 6130487395, "lat": 2.9609453, "lon": 43.9254305}, {"type": "node", "id": 6137068393, "lat": 2.9094552, "lon": 44.0617298, "tags": {"place": "hamlet", "source:ref": "UNSOA field mission and SPOT5 images data capture"}}, {"type": "node", "id": 6137068397, "lat": 2.8396972, "lon": 44.0952484, "tags": {"place": "village", "source:ref": "UNSOA field mission and SPOT5 images data capture"}}, {"type": "node", "id": 6189458351, "lat": 3.1334832, "lon": 43.8084286}, {"type": "node", "id": 6189458352, "lat": 3.1336466, "lon": 43.8083804}, {"type": "node", "id": 6189458353, "lat": 3.1338688, "lon": 43.8082731}, {"type": "node", "id": 6189458354, "lat": 3.1339706, "lon": 43.8082543}, {"type": "node", "id": 6189458355, "lat": 3.134134, "lon": 43.8082409}, {"type": "node", "id": 6189458356, "lat": 3.1343348, "lon": 43.8082328}, {"type": "node", "id": 6189458358, "lat": 3.1345518, "lon": 43.8082677}, {"type": "node", "id": 6189458711, "lat": 3.1308639, "lon": 43.8099039}, {"type": "node", "id": 6190022335, "lat": 3.2133172, "lon": 43.9098108}, {"type": "node", "id": 6190022350, "lat": 3.2098278, "lon": 43.9108971}, {"type": "node", "id": 6190022359, "lat": 3.2082263, "lon": 43.9112753}, {"type": "node", "id": 6190027541, "lat": 3.1701605, "lon": 43.7820491}, {"type": "node", "id": 6190027546, "lat": 3.1707255, "lon": 43.7812096}, {"type": "node", "id": 6190029787, "lat": 3.2198247, "lon": 43.8242778}, {"type": "node", "id": 6190029789, "lat": 3.2190294, "lon": 43.8232706}, {"type": "node", "id": 6190029790, "lat": 3.2187415, "lon": 43.82293}, {"type": "node", "id": 6190029791, "lat": 3.2185205, "lon": 43.8226148}, {"type": "node", "id": 6190029792, "lat": 3.218076, "lon": 43.8219617}, {"type": "node", "id": 6190029793, "lat": 3.2178631, "lon": 43.8216171}, {"type": "node", "id": 6192353681, "lat": 3.2219698, "lon": 43.8357416}, {"type": "node", "id": 6192432648, "lat": 3.2215226, "lon": 43.8362324}, {"type": "node", "id": 6192620319, "lat": 3.2183599, "lon": 43.8408566}, {"type": "node", "id": 6198509795, "lat": 3.2366931, "lon": 43.8791075}, {"type": "node", "id": 6198509796, "lat": 3.2367601, "lon": 43.8792229}, {"type": "node", "id": 6198509797, "lat": 3.2368136, "lon": 43.8792497}, {"type": "node", "id": 6198509798, "lat": 3.2368726, "lon": 43.8792846}, {"type": "node", "id": 6198509799, "lat": 3.2369583, "lon": 43.8793033}, {"type": "node", "id": 6198509800, "lat": 3.2370386, "lon": 43.8793114}, {"type": "node", "id": 6198509801, "lat": 3.237127, "lon": 43.8793436}, {"type": "node", "id": 6198509802, "lat": 3.237218, "lon": 43.879365}, {"type": "node", "id": 6198509803, "lat": 3.2372957, "lon": 43.8793623}, {"type": "node", "id": 6207755204, "lat": 3.0359815, "lon": 43.8825381}, {"type": "node", "id": 6208004012, "lat": 3.2115243, "lon": 43.827019}, {"type": "node", "id": 6209811097, "lat": 3.2183751, "lon": 43.8224011}, {"type": "node", "id": 6209811150, "lat": 3.2118336, "lon": 43.8263109}, {"type": "node", "id": 6209811151, "lat": 3.2118738, "lon": 43.8263109}, {"type": "node", "id": 6209811152, "lat": 3.211938, "lon": 43.8263109}, {"type": "node", "id": 6209811153, "lat": 3.2120318, "lon": 43.8263163}, {"type": "node", "id": 6209811159, "lat": 3.2127361, "lon": 43.8265711}, {"type": "node", "id": 6209811160, "lat": 3.2129798, "lon": 43.826614}, {"type": "node", "id": 6209811161, "lat": 3.2131431, "lon": 43.826673}, {"type": "node", "id": 6209811168, "lat": 3.2138662, "lon": 43.8269976}, {"type": "node", "id": 6209811187, "lat": 3.2139412, "lon": 43.8270834}, {"type": "node", "id": 6209811369, "lat": 3.2199934, "lon": 43.8351461}, {"type": "node", "id": 6209811387, "lat": 3.2218868, "lon": 43.8357308}, {"type": "node", "id": 6209811624, "lat": 3.2228963, "lon": 43.8254579}, {"type": "node", "id": 6209811632, "lat": 3.2221546, "lon": 43.8244656}, {"type": "node", "id": 6209811633, "lat": 3.2222215, "lon": 43.8245434}, {"type": "node", "id": 6209811634, "lat": 3.222326, "lon": 43.8246935}, {"type": "node", "id": 6209811635, "lat": 3.2224973, "lon": 43.8249135}, {"type": "node", "id": 6209812187, "lat": 3.2246692, "lon": 43.8302109}, {"type": "node", "id": 6209890211, "lat": 2.903716, "lon": 43.9829828, "tags": {"place": "isolated_dwelling"}}, {"type": "node", "id": 6209890212, "lat": 2.9026204, "lon": 43.9842314, "tags": {"place": "isolated_dwelling"}}, {"type": "node", "id": 6209968974, "lat": 3.2150686, "lon": 43.8281295}, {"type": "node", "id": 6209968975, "lat": 3.2151784, "lon": 43.8284057}, {"type": "node", "id": 6209968976, "lat": 3.2152882, "lon": 43.8286471}, {"type": "node", "id": 6209968977, "lat": 3.2159711, "lon": 43.829138}, {"type": "node", "id": 6209969395, "lat": 3.2163514, "lon": 43.8329105}, {"type": "node", "id": 6209969396, "lat": 3.2164906, "lon": 43.8329615}, {"type": "node", "id": 6209969397, "lat": 3.216567, "lon": 43.8330165}, {"type": "node", "id": 6209969461, "lat": 3.2176207, "lon": 43.8322842}, {"type": "node", "id": 6210296270, "lat": 3.036935, "lon": 43.7961012}, {"type": "node", "id": 6210296271, "lat": 3.0391689, "lon": 43.7966484}, {"type": "node", "id": 6210296272, "lat": 3.0411134, "lon": 43.7988424}, {"type": "node", "id": 6210296273, "lat": 3.0408081, "lon": 43.799293}, {"type": "node", "id": 6210296274, "lat": 3.0407117, "lon": 43.7997919}, {"type": "node", "id": 6210296275, "lat": 3.040942, "lon": 43.8009506}, {"type": "node", "id": 6210296276, "lat": 3.041617, "lon": 43.7989497}, {"type": "node", "id": 6210296277, "lat": 3.0388699, "lon": 43.7979186}, {"type": "node", "id": 6210296278, "lat": 3.0365433, "lon": 43.7970834}, {"type": "node", "id": 6210296279, "lat": 3.0361139, "lon": 43.7975476}, {"type": "node", "id": 6210296280, "lat": 3.0400102, "lon": 43.8020987}, {"type": "node", "id": 6210296281, "lat": 3.0400638, "lon": 43.799356}, {"type": "node", "id": 6210296282, "lat": 3.0391528, "lon": 43.7972402}, {"type": "node", "id": 6210296283, "lat": 3.0352765, "lon": 43.7993942}, {"type": "node", "id": 6210296284, "lat": 3.0353724, "lon": 43.8000025}, {"type": "node", "id": 6210296286, "lat": 3.0372976, "lon": 43.8008317}, {"type": "node", "id": 6210296287, "lat": 3.0405867, "lon": 43.8004446}, {"type": "node", "id": 6210296289, "lat": 3.0388458, "lon": 43.7976516}, {"type": "node", "id": 6210296290, "lat": 3.0359389, "lon": 43.7977257}, {"type": "node", "id": 6210296291, "lat": 3.0411999, "lon": 43.8021786}, {"type": "node", "id": 6210296292, "lat": 3.0399462, "lon": 43.7990001}, {"type": "node", "id": 6210296293, "lat": 3.039298, "lon": 43.796855}, {"type": "node", "id": 6210296294, "lat": 3.0353221, "lon": 43.7997377}, {"type": "node", "id": 6210296295, "lat": 3.035774, "lon": 43.800273}, {"type": "node", "id": 6210296296, "lat": 3.0399208, "lon": 43.798053}, {"type": "node", "id": 6210296297, "lat": 3.0385412, "lon": 43.7958596}, {"type": "node", "id": 6210296298, "lat": 3.0376647, "lon": 43.8010826}, {"type": "node", "id": 6210296299, "lat": 3.0402562, "lon": 43.7999223}, {"type": "node", "id": 6210296300, "lat": 3.03862, "lon": 43.8018258}, {"type": "node", "id": 6210296302, "lat": 3.0386255, "lon": 43.7978393}, {"type": "node", "id": 6210296303, "lat": 3.0355666, "lon": 43.7978808}, {"type": "node", "id": 6210296304, "lat": 3.0411605, "lon": 43.801506}, {"type": "node", "id": 6210296305, "lat": 3.0389779, "lon": 43.7964392}, {"type": "node", "id": 6210296307, "lat": 3.036105, "lon": 43.800244}, {"type": "node", "id": 6210296308, "lat": 3.039253, "lon": 43.7978678}, {"type": "node", "id": 6210296309, "lat": 3.0378829, "lon": 43.7957708}, {"type": "node", "id": 6210296310, "lat": 3.0381776, "lon": 43.8012591}, {"type": "node", "id": 6210296311, "lat": 3.0403609, "lon": 43.79981}, {"type": "node", "id": 6210296312, "lat": 3.0392536, "lon": 43.8020822}, {"type": "node", "id": 6210296313, "lat": 3.0405893, "lon": 43.7995653}, {"type": "node", "id": 6210296315, "lat": 3.0352216, "lon": 43.7988088}, {"type": "node", "id": 6210296316, "lat": 3.0388298, "lon": 43.7962788}, {"type": "node", "id": 6210296318, "lat": 3.0367072, "lon": 43.8002664}, {"type": "node", "id": 6210296319, "lat": 3.0408069, "lon": 43.8010145}, {"type": "node", "id": 6210296320, "lat": 3.0390049, "lon": 43.7978689}, {"type": "node", "id": 6210296321, "lat": 3.036685, "lon": 43.797048}, {"type": "node", "id": 6210296322, "lat": 3.0361609, "lon": 43.7966948}, {"type": "node", "id": 6210296323, "lat": 3.0404403, "lon": 43.799725}, {"type": "node", "id": 6210296324, "lat": 3.039772, "lon": 43.8021151}, {"type": "node", "id": 6210296325, "lat": 3.0404207, "lon": 43.7993917}, {"type": "node", "id": 6210296326, "lat": 3.0385559, "lon": 43.7976679}, {"type": "node", "id": 6210296327, "lat": 3.0354833, "lon": 43.7991895}, {"type": "node", "id": 6210296328, "lat": 3.0398119, "lon": 43.7989257}, {"type": "node", "id": 6210296329, "lat": 3.0399822, "lon": 43.7986306}, {"type": "node", "id": 6210296330, "lat": 3.0371761, "lon": 43.8004606}, {"type": "node", "id": 6210296331, "lat": 3.0405899, "lon": 43.8006986}, {"type": "node", "id": 6210296340, "lat": 3.0522717, "lon": 43.8062882}, {"type": "node", "id": 6210296341, "lat": 3.0522771, "lon": 43.806079}, {"type": "node", "id": 6210296342, "lat": 3.052336, "lon": 43.8058644}, {"type": "node", "id": 6210296343, "lat": 3.0523039, "lon": 43.8056445}, {"type": "node", "id": 6210296344, "lat": 3.0522774, "lon": 43.8054744}, {"type": "node", "id": 6210296345, "lat": 3.0519824, "lon": 43.8054192}, {"type": "node", "id": 6210296346, "lat": 3.0517467, "lon": 43.8052744}, {"type": "node", "id": 6210296347, "lat": 3.0515968, "lon": 43.8050759}, {"type": "node", "id": 6210296348, "lat": 3.0513611, "lon": 43.8050598}, {"type": "node", "id": 6210296349, "lat": 3.0511736, "lon": 43.8051403}, {"type": "node", "id": 6210296350, "lat": 3.0510289, "lon": 43.8053924}, {"type": "node", "id": 6210296351, "lat": 3.0510718, "lon": 43.805623}, {"type": "node", "id": 6210296352, "lat": 3.0512218, "lon": 43.8057572}, {"type": "node", "id": 6210296353, "lat": 3.0513021, "lon": 43.8058376}, {"type": "node", "id": 6210296354, "lat": 3.0510771, "lon": 43.8061219}, {"type": "node", "id": 6210296355, "lat": 3.0511575, "lon": 43.8062131}, {"type": "node", "id": 6210296356, "lat": 3.0511682, "lon": 43.8063097}, {"type": "node", "id": 6210296357, "lat": 3.0511254, "lon": 43.8065082}, {"type": "node", "id": 6210296358, "lat": 3.0510771, "lon": 43.8067067}, {"type": "node", "id": 6210296359, "lat": 3.05097, "lon": 43.8067549}, {"type": "node", "id": 6210296360, "lat": 3.0507879, "lon": 43.806873}, {"type": "node", "id": 6210296361, "lat": 3.0506915, "lon": 43.8070768}, {"type": "node", "id": 6210296362, "lat": 3.0506807, "lon": 43.8073611}, {"type": "node", "id": 6210296363, "lat": 3.0506218, "lon": 43.8073611}, {"type": "node", "id": 6210296364, "lat": 3.0503915, "lon": 43.8074738}, {"type": "node", "id": 6210296365, "lat": 3.0504611, "lon": 43.8077688}, {"type": "node", "id": 6210296366, "lat": 3.0506593, "lon": 43.807919}, {"type": "node", "id": 6210296367, "lat": 3.0507772, "lon": 43.8079405}, {"type": "node", "id": 6210296368, "lat": 3.0509218, "lon": 43.8079995}, {"type": "node", "id": 6210296369, "lat": 3.0510343, "lon": 43.8082302}, {"type": "node", "id": 6210296370, "lat": 3.0512486, "lon": 43.8083374}, {"type": "node", "id": 6210296371, "lat": 3.0514307, "lon": 43.808375}, {"type": "node", "id": 6210296372, "lat": 3.0515807, "lon": 43.8083482}, {"type": "node", "id": 6210296373, "lat": 3.051661, "lon": 43.8084286}, {"type": "node", "id": 6210296374, "lat": 3.0515646, "lon": 43.8086164}, {"type": "node", "id": 6210296375, "lat": 3.051661, "lon": 43.8089114}, {"type": "node", "id": 6210296376, "lat": 3.0518753, "lon": 43.8089383}, {"type": "node", "id": 6210296377, "lat": 3.0519289, "lon": 43.8090831}, {"type": "node", "id": 6210296378, "lat": 3.0518539, "lon": 43.8092709}, {"type": "node", "id": 6210296379, "lat": 3.0518967, "lon": 43.8094532}, {"type": "node", "id": 6210296380, "lat": 3.0519449, "lon": 43.8097054}, {"type": "node", "id": 6210296381, "lat": 3.0521378, "lon": 43.8098985}, {"type": "node", "id": 6210296382, "lat": 3.0525824, "lon": 43.8102526}, {"type": "node", "id": 6210296383, "lat": 3.0534127, "lon": 43.8109231}, {"type": "node", "id": 6210296384, "lat": 3.054618, "lon": 43.8109177}, {"type": "node", "id": 6210296385, "lat": 3.0542163, "lon": 43.80889}, {"type": "node", "id": 6210296386, "lat": 3.0535734, "lon": 43.8086647}, {"type": "node", "id": 6210296387, "lat": 3.0533431, "lon": 43.8086325}, {"type": "node", "id": 6210296388, "lat": 3.0535359, "lon": 43.8084769}, {"type": "node", "id": 6210296389, "lat": 3.0540181, "lon": 43.8079673}, {"type": "node", "id": 6210296390, "lat": 3.0538359, "lon": 43.8077473}, {"type": "node", "id": 6210296391, "lat": 3.0533645, "lon": 43.8076401}, {"type": "node", "id": 6210296392, "lat": 3.0531234, "lon": 43.8077635}, {"type": "node", "id": 6210296393, "lat": 3.0529735, "lon": 43.8077635}, {"type": "node", "id": 6210296394, "lat": 3.0528235, "lon": 43.8077366}, {"type": "node", "id": 6210296395, "lat": 3.0527431, "lon": 43.807506}, {"type": "node", "id": 6210296396, "lat": 3.0528609, "lon": 43.8073718}, {"type": "node", "id": 6210296397, "lat": 3.0529199, "lon": 43.8071841}, {"type": "node", "id": 6210296398, "lat": 3.0527217, "lon": 43.8069963}, {"type": "node", "id": 6210296399, "lat": 3.0527699, "lon": 43.8069266}, {"type": "node", "id": 6210296400, "lat": 3.0529252, "lon": 43.8068408}, {"type": "node", "id": 6210296401, "lat": 3.0531181, "lon": 43.8066101}, {"type": "node", "id": 6210296402, "lat": 3.0531984, "lon": 43.8064867}, {"type": "node", "id": 6210296403, "lat": 3.0531342, "lon": 43.8063258}, {"type": "node", "id": 6210296404, "lat": 3.0530645, "lon": 43.80624}, {"type": "node", "id": 6210296405, "lat": 3.0527538, "lon": 43.8062453}, {"type": "node", "id": 6210296406, "lat": 3.0524646, "lon": 43.8064545}, {"type": "node", "id": 6210296502, "lat": 3.0117495, "lon": 43.936068}, {"type": "node", "id": 6210296503, "lat": 3.0144621, "lon": 43.9380073}, {"type": "node", "id": 6210296504, "lat": 3.0116204, "lon": 43.9375361}, {"type": "node", "id": 6210296505, "lat": 3.0122492, "lon": 43.9372697}, {"type": "node", "id": 6210296506, "lat": 3.0137592, "lon": 43.9360903}, {"type": "node", "id": 6210296507, "lat": 3.0133359, "lon": 43.9373842}, {"type": "node", "id": 6210296508, "lat": 3.0138277, "lon": 43.9378674}, {"type": "node", "id": 6210296509, "lat": 3.0115651, "lon": 43.9360621}, {"type": "node", "id": 6210296510, "lat": 3.0108173, "lon": 43.9375502}, {"type": "node", "id": 6210296511, "lat": 3.0144204, "lon": 43.9377753}, {"type": "node", "id": 6210296512, "lat": 3.0142981, "lon": 43.9370746}, {"type": "node", "id": 6210296513, "lat": 3.0144021, "lon": 43.9367041}, {"type": "node", "id": 6210296514, "lat": 3.0124276, "lon": 43.937115}, {"type": "node", "id": 6210296515, "lat": 3.0134627, "lon": 43.9362881}, {"type": "node", "id": 6210296516, "lat": 3.0130913, "lon": 43.9365631}, {"type": "node", "id": 6210296517, "lat": 3.0136462, "lon": 43.9377641}, {"type": "node", "id": 6210296518, "lat": 3.01401, "lon": 43.9381203}, {"type": "node", "id": 6210296519, "lat": 3.0109763, "lon": 43.9364416}, {"type": "node", "id": 6210296520, "lat": 3.0143431, "lon": 43.9376325}, {"type": "node", "id": 6210296521, "lat": 3.0143356, "lon": 43.9372328}, {"type": "node", "id": 6210296522, "lat": 3.0143388, "lon": 43.936984}, {"type": "node", "id": 6210296523, "lat": 3.014677, "lon": 43.9365697}, {"type": "node", "id": 6210296524, "lat": 3.0126736, "lon": 43.9370499}, {"type": "node", "id": 6210296525, "lat": 3.0108173, "lon": 43.9373142}, {"type": "node", "id": 6210296526, "lat": 3.0110021, "lon": 43.9375636}, {"type": "node", "id": 6210296527, "lat": 3.0131772, "lon": 43.9365915}, {"type": "node", "id": 6210296528, "lat": 3.0125419, "lon": 43.9362039}, {"type": "node", "id": 6210296529, "lat": 3.0142658, "lon": 43.9382334}, {"type": "node", "id": 6210296530, "lat": 3.0114815, "lon": 43.9376172}, {"type": "node", "id": 6210296531, "lat": 3.0110356, "lon": 43.9370793}, {"type": "node", "id": 6210296532, "lat": 3.0143312, "lon": 43.9374124}, {"type": "node", "id": 6210296533, "lat": 3.0150091, "lon": 43.9364343}, {"type": "node", "id": 6210296534, "lat": 3.0129965, "lon": 43.9372964}, {"type": "node", "id": 6210296535, "lat": 3.0130187, "lon": 43.936229}, {"type": "node", "id": 6210296536, "lat": 3.0120291, "lon": 43.9361573}, {"type": "node", "id": 6210296537, "lat": 3.0144026, "lon": 43.9381798}, {"type": "node", "id": 6210296538, "lat": 3.0111811, "lon": 43.9375287}, {"type": "node", "id": 6210296539, "lat": 3.0119577, "lon": 43.9373708}, {"type": "node", "id": 6210296540, "lat": 3.0136108, "lon": 43.9355275}, {"type": "node", "id": 6210296541, "lat": 3.0132723, "lon": 43.9373292}, {"type": "node", "id": 6210296542, "lat": 3.0063633, "lon": 43.9962949}, {"type": "node", "id": 6210296543, "lat": 3.006259, "lon": 43.9959919}, {"type": "node", "id": 6210296544, "lat": 3.0058636, "lon": 43.995123}, {"type": "node", "id": 6210296545, "lat": 3.0056197, "lon": 43.9964139}, {"type": "node", "id": 6210296546, "lat": 3.0065001, "lon": 43.9966935}, {"type": "node", "id": 6210296547, "lat": 3.0064882, "lon": 43.9958904}, {"type": "node", "id": 6210296548, "lat": 3.0049394, "lon": 43.9959878}, {"type": "node", "id": 6210296549, "lat": 3.0066726, "lon": 43.9957}, {"type": "node", "id": 6210296550, "lat": 3.0052212, "lon": 43.9965864}, {"type": "node", "id": 6210296552, "lat": 3.0050605, "lon": 43.995593}, {"type": "node", "id": 6210296553, "lat": 3.0058398, "lon": 43.9971396}, {"type": "node", "id": 6210296554, "lat": 3.0061967, "lon": 43.9962176}, {"type": "node", "id": 6210296555, "lat": 3.0060421, "lon": 43.9968898}, {"type": "node", "id": 6210296556, "lat": 3.0063157, "lon": 43.9958845}, {"type": "node", "id": 6210296557, "lat": 3.005126, "lon": 43.995242}, {"type": "node", "id": 6210296558, "lat": 3.0057208, "lon": 43.9967708}, {"type": "node", "id": 6210296559, "lat": 3.0067191, "lon": 43.9960679}, {"type": "node", "id": 6210296560, "lat": 3.0064406, "lon": 43.9964793}, {"type": "node", "id": 6210296561, "lat": 3.0068351, "lon": 43.99592}, {"type": "node", "id": 6210296562, "lat": 3.0064466, "lon": 43.995355}, {"type": "node", "id": 6210296563, "lat": 3.0053639, "lon": 43.9962235}, {"type": "node", "id": 6210296565, "lat": 3.0063351, "lon": 43.9958845}, {"type": "node", "id": 6210296566, "lat": 3.0050605, "lon": 43.9958547}, {"type": "node", "id": 6210296567, "lat": 3.0060183, "lon": 43.9970682}, {"type": "node", "id": 6210296568, "lat": 3.0050477, "lon": 43.9965607}, {"type": "node", "id": 6210296569, "lat": 3.0062384, "lon": 43.9969731}, {"type": "node", "id": 6210296570, "lat": 3.0052985, "lon": 43.9954621}, {"type": "node", "id": 6210296571, "lat": 3.0057322, "lon": 43.9970485}, {"type": "node", "id": 6210296572, "lat": 3.0102802, "lon": 43.9947132}, {"type": "node", "id": 6210296574, "lat": 3.0085048, "lon": 43.9960094}, {"type": "node", "id": 6210296575, "lat": 3.0095825, "lon": 43.9954065}, {"type": "node", "id": 6210296576, "lat": 3.0083389, "lon": 43.9954578}, {"type": "node", "id": 6210296577, "lat": 3.00981, "lon": 43.9951642}, {"type": "node", "id": 6210296578, "lat": 3.0100313, "lon": 43.994963}, {"type": "node", "id": 6210296579, "lat": 3.0087844, "lon": 43.9946055}, {"type": "node", "id": 6210296580, "lat": 3.0084164, "lon": 43.9965893}, {"type": "node", "id": 6210296581, "lat": 3.0091532, "lon": 43.9952539}, {"type": "node", "id": 6210296582, "lat": 3.0098278, "lon": 43.9943749}, {"type": "node", "id": 6210296584, "lat": 3.0080408, "lon": 43.9960867}, {"type": "node", "id": 6210296585, "lat": 3.0088302, "lon": 43.9952866}, {"type": "node", "id": 6210296586, "lat": 3.0104487, "lon": 43.9943359}, {"type": "node", "id": 6210296588, "lat": 3.0082471, "lon": 43.9957097}, {"type": "node", "id": 6210296591, "lat": 3.0097243, "lon": 43.9950278}, {"type": "node", "id": 6210296592, "lat": 3.0100931, "lon": 43.9948672}, {"type": "node", "id": 6210296593, "lat": 3.0094441, "lon": 43.9953573}, {"type": "node", "id": 6210296595, "lat": 3.0085821, "lon": 43.9962473}, {"type": "node", "id": 6210296596, "lat": 3.0098552, "lon": 43.9952361}, {"type": "node", "id": 6210296597, "lat": 3.010003, "lon": 43.9950621}, {"type": "node", "id": 6210296598, "lat": 3.0089569, "lon": 43.9944925}, {"type": "node", "id": 6210296599, "lat": 3.0098572, "lon": 43.9951043}, {"type": "node", "id": 6210296600, "lat": 3.0081026, "lon": 43.9969261}, {"type": "node", "id": 6210296601, "lat": 3.0103645, "lon": 43.9942306}, {"type": "node", "id": 6210296602, "lat": 3.0089062, "lon": 43.9954027}, {"type": "node", "id": 6210296603, "lat": 3.0101473, "lon": 43.9941622}, {"type": "node", "id": 6210296605, "lat": 3.0095696, "lon": 43.9943913}, {"type": "node", "id": 6210296606, "lat": 3.0077433, "lon": 43.9957763}, {"type": "node", "id": 6210296607, "lat": 3.0086476, "lon": 43.995242}, {"type": "node", "id": 6210296608, "lat": 3.0098037, "lon": 43.9950124}, {"type": "node", "id": 6210296785, "lat": 3.0463687, "lon": 43.9752911}, {"type": "node", "id": 6210296786, "lat": 3.0475839, "lon": 43.9722231}, {"type": "node", "id": 6210296787, "lat": 3.0447285, "lon": 43.973282}, {"type": "node", "id": 6210296788, "lat": 3.0445263, "lon": 43.9745312}, {"type": "node", "id": 6210296789, "lat": 3.0462395, "lon": 43.9710215}, {"type": "node", "id": 6210296790, "lat": 3.0463399, "lon": 43.976688}, {"type": "node", "id": 6210296791, "lat": 3.0461681, "lon": 43.9758637}, {"type": "node", "id": 6210296792, "lat": 3.0466277, "lon": 43.9745066}, {"type": "node", "id": 6210296793, "lat": 3.0469513, "lon": 43.9736309}, {"type": "node", "id": 6210296794, "lat": 3.0456327, "lon": 43.9729964}, {"type": "node", "id": 6210296795, "lat": 3.0463802, "lon": 43.9750776}, {"type": "node", "id": 6210296796, "lat": 3.0477267, "lon": 43.9717353}, {"type": "node", "id": 6210296797, "lat": 3.0474132, "lon": 43.9708827}, {"type": "node", "id": 6210296798, "lat": 3.044562, "lon": 43.9752093}, {"type": "node", "id": 6210296799, "lat": 3.0464536, "lon": 43.9715806}, {"type": "node", "id": 6210296800, "lat": 3.0462514, "lon": 43.9764109}, {"type": "node", "id": 6210296801, "lat": 3.0463421, "lon": 43.9757819}, {"type": "node", "id": 6210296802, "lat": 3.0470655, "lon": 43.9730979}, {"type": "node", "id": 6210296803, "lat": 3.0454311, "lon": 43.9726696}, {"type": "node", "id": 6210296804, "lat": 3.0466176, "lon": 43.9745294}, {"type": "node", "id": 6210296805, "lat": 3.0455194, "lon": 43.9727032}, {"type": "node", "id": 6210296806, "lat": 3.047572, "lon": 43.9713665}, {"type": "node", "id": 6210296807, "lat": 3.0469771, "lon": 43.9707954}, {"type": "node", "id": 6210296808, "lat": 3.0447999, "lon": 43.9756495}, {"type": "node", "id": 6210296809, "lat": 3.0464284, "lon": 43.9718077}, {"type": "node", "id": 6210296810, "lat": 3.04618, "lon": 43.97258}, {"type": "node", "id": 6210296811, "lat": 3.0463428, "lon": 43.975769}, {"type": "node", "id": 6210296812, "lat": 3.0471797, "lon": 43.9724888}, {"type": "node", "id": 6210296813, "lat": 3.0450241, "lon": 43.9726279}, {"type": "node", "id": 6210296814, "lat": 3.0466797, "lon": 43.9705218}, {"type": "node", "id": 6210296815, "lat": 3.0454543, "lon": 43.9759588}, {"type": "node", "id": 6210296816, "lat": 3.0463823, "lon": 43.9722231}, {"type": "node", "id": 6210296817, "lat": 3.0460134, "lon": 43.9728656}, {"type": "node", "id": 6210296818, "lat": 3.0463532, "lon": 43.9755771}, {"type": "node", "id": 6210296819, "lat": 3.0472674, "lon": 43.9724311}, {"type": "node", "id": 6210296820, "lat": 3.0450498, "lon": 43.9729488}, {"type": "node", "id": 6210296821, "lat": 3.0447285, "lon": 43.9739125}, {"type": "node", "id": 6210296822, "lat": 3.0462395, "lon": 43.9705932}, {"type": "node", "id": 6210296823, "lat": 3.0455019, "lon": 43.9762682}, {"type": "node", "id": 6210296824, "lat": 3.0469913, "lon": 43.9740648}, {"type": "node", "id": 6210296825, "lat": 3.0458588, "lon": 43.9730797}, {"type": "node", "id": 6210296826, "lat": 3.0607069, "lon": 43.9266549}, {"type": "node", "id": 6210296827, "lat": 3.0583655, "lon": 43.9268453}, {"type": "node", "id": 6210296828, "lat": 3.0595971, "lon": 43.9259389}, {"type": "node", "id": 6210296829, "lat": 3.0600116, "lon": 43.9282077}, {"type": "node", "id": 6210296830, "lat": 3.0594505, "lon": 43.9259887}, {"type": "node", "id": 6210296831, "lat": 3.0604666, "lon": 43.9276921}, {"type": "node", "id": 6210296832, "lat": 3.05887, "lon": 43.9262932}, {"type": "node", "id": 6210296833, "lat": 3.0591286, "lon": 43.9277483}, {"type": "node", "id": 6210296834, "lat": 3.0600406, "lon": 43.9261409}, {"type": "node", "id": 6210296835, "lat": 3.0605659, "lon": 43.9263985}, {"type": "node", "id": 6210296836, "lat": 3.0584181, "lon": 43.9270795}, {"type": "node", "id": 6210296837, "lat": 3.0602135, "lon": 43.9275574}, {"type": "node", "id": 6210296838, "lat": 3.0611144, "lon": 43.9270365}, {"type": "node", "id": 6210296839, "lat": 3.0585654, "lon": 43.9266073}, {"type": "node", "id": 6210296841, "lat": 3.059717, "lon": 43.9259696}, {"type": "node", "id": 6210296842, "lat": 3.0594873, "lon": 43.9280069}, {"type": "node", "id": 6210296843, "lat": 3.059165, "lon": 43.9260743}, {"type": "node", "id": 6210296844, "lat": 3.0584422, "lon": 43.9270929}, {"type": "node", "id": 6210296845, "lat": 3.0604975, "lon": 43.9262742}, {"type": "node", "id": 6210296846, "lat": 3.0540691, "lon": 43.9504262}, {"type": "node", "id": 6210296847, "lat": 3.0514658, "lon": 43.9504756}, {"type": "node", "id": 6210296848, "lat": 3.0533341, "lon": 43.9513356}, {"type": "node", "id": 6210296849, "lat": 3.0527776, "lon": 43.9501465}, {"type": "node", "id": 6210296850, "lat": 3.0520322, "lon": 43.9503984}, {"type": "node", "id": 6210296851, "lat": 3.0539162, "lon": 43.9501593}, {"type": "node", "id": 6210296852, "lat": 3.0526508, "lon": 43.9511027}, {"type": "node", "id": 6210296853, "lat": 3.0533688, "lon": 43.9499806}, {"type": "node", "id": 6210296854, "lat": 3.0536502, "lon": 43.9502651}, {"type": "node", "id": 6210296855, "lat": 3.0518592, "lon": 43.9511409}, {"type": "node", "id": 6210296856, "lat": 3.0535185, "lon": 43.9512911}, {"type": "node", "id": 6210296857, "lat": 3.052313, "lon": 43.950139}, {"type": "node", "id": 6210296858, "lat": 3.0539833, "lon": 43.950722}, {"type": "node", "id": 6210296859, "lat": 3.0517864, "lon": 43.9502742}, {"type": "node", "id": 6210296860, "lat": 3.0531267, "lon": 43.9513121}, {"type": "node", "id": 6210296861, "lat": 3.0530901, "lon": 43.9500199}, {"type": "node", "id": 6210296862, "lat": 3.0539404, "lon": 43.9511061}, {"type": "node", "id": 6210296863, "lat": 3.0516798, "lon": 43.9510148}, {"type": "node", "id": 6210296864, "lat": 3.0520175, "lon": 43.9512535}, {"type": "node", "id": 6210296865, "lat": 3.0534789, "lon": 43.9500081}, {"type": "node", "id": 6210296866, "lat": 3.053954, "lon": 43.9509373}, {"type": "node", "id": 6210296867, "lat": 3.068891, "lon": 43.9606397}, {"type": "node", "id": 6210296868, "lat": 3.0674838, "lon": 43.9631046}, {"type": "node", "id": 6210296869, "lat": 3.0697662, "lon": 43.9610017}, {"type": "node", "id": 6210296870, "lat": 3.069558, "lon": 43.9623579}, {"type": "node", "id": 6210296871, "lat": 3.0693094, "lon": 43.9605448}, {"type": "node", "id": 6210296872, "lat": 3.0678075, "lon": 43.961926}, {"type": "node", "id": 6210296873, "lat": 3.0697039, "lon": 43.9620525}, {"type": "node", "id": 6210296874, "lat": 3.0681196, "lon": 43.9608485}, {"type": "node", "id": 6210296875, "lat": 3.0678115, "lon": 43.9612024}, {"type": "node", "id": 6210296876, "lat": 3.0684956, "lon": 43.960521}, {"type": "node", "id": 6210296877, "lat": 3.0685254, "lon": 43.9629137}, {"type": "node", "id": 6210296878, "lat": 3.0697187, "lon": 43.9611456}, {"type": "node", "id": 6210296879, "lat": 3.0691964, "lon": 43.9624384}, {"type": "node", "id": 6210296880, "lat": 3.0690381, "lon": 43.9607447}, {"type": "node", "id": 6210296881, "lat": 3.0676742, "lon": 43.9623448}, {"type": "node", "id": 6210296882, "lat": 3.0679644, "lon": 43.9632055}, {"type": "node", "id": 6210296883, "lat": 3.0694093, "lon": 43.9612444}, {"type": "node", "id": 6210296884, "lat": 3.0678198, "lon": 43.9611704}, {"type": "node", "id": 6210297185, "lat": 3.0697091, "lon": 43.9606305}, {"type": "node", "id": 6210297186, "lat": 3.0678075, "lon": 43.961689}, {"type": "node", "id": 6210297187, "lat": 3.0687718, "lon": 43.9628198}, {"type": "node", "id": 6210297188, "lat": 3.0683415, "lon": 43.9605089}, {"type": "node", "id": 6210297189, "lat": 3.0243606, "lon": 43.9372459}, {"type": "node", "id": 6210297190, "lat": 3.0225607, "lon": 43.9402187}, {"type": "node", "id": 6210297191, "lat": 3.0250675, "lon": 43.9369433}, {"type": "node", "id": 6210297192, "lat": 3.0231114, "lon": 43.9374243}, {"type": "node", "id": 6210297193, "lat": 3.020839, "lon": 43.9389472}, {"type": "node", "id": 6210297194, "lat": 3.025241, "lon": 43.9351876}, {"type": "node", "id": 6210297196, "lat": 3.022127, "lon": 43.9376857}, {"type": "node", "id": 6210297197, "lat": 3.0241333, "lon": 43.9382427}, {"type": "node", "id": 6210297198, "lat": 3.0227368, "lon": 43.9356811}, {"type": "node", "id": 6210297199, "lat": 3.0218265, "lon": 43.9379359}, {"type": "node", "id": 6210297200, "lat": 3.0212221, "lon": 43.9379837}, {"type": "node", "id": 6210297201, "lat": 3.0248722, "lon": 43.9371031}, {"type": "node", "id": 6210297202, "lat": 3.0226355, "lon": 43.9396967}, {"type": "node", "id": 6210297203, "lat": 3.0253957, "lon": 43.9366748}, {"type": "node", "id": 6210297204, "lat": 3.0230734, "lon": 43.9374302}, {"type": "node", "id": 6210297205, "lat": 3.0213268, "lon": 43.939435}, {"type": "node", "id": 6210297206, "lat": 3.0250675, "lon": 43.9349414}, {"type": "node", "id": 6210297207, "lat": 3.0244796, "lon": 43.934569}, {"type": "node", "id": 6210297209, "lat": 3.0242417, "lon": 43.9380549}, {"type": "node", "id": 6210297210, "lat": 3.0227485, "lon": 43.93593}, {"type": "node", "id": 6210297211, "lat": 3.0216837, "lon": 43.9380668}, {"type": "node", "id": 6210297212, "lat": 3.021011, "lon": 43.9381657}, {"type": "node", "id": 6210297213, "lat": 3.0228735, "lon": 43.9394707}, {"type": "node", "id": 6210297214, "lat": 3.0256336, "lon": 43.9364369}, {"type": "node", "id": 6210297215, "lat": 3.0228021, "lon": 43.9374719}, {"type": "node", "id": 6210297216, "lat": 3.0215648, "lon": 43.9397919}, {"type": "node", "id": 6210297217, "lat": 3.0248722, "lon": 43.9346642}, {"type": "node", "id": 6210297218, "lat": 3.0243139, "lon": 43.9346691}, {"type": "node", "id": 6210297220, "lat": 3.0243672, "lon": 43.9376443}, {"type": "node", "id": 6210297221, "lat": 3.0229805, "lon": 43.9362822}, {"type": "node", "id": 6210297222, "lat": 3.0229686, "lon": 43.9369603}, {"type": "node", "id": 6210297224, "lat": 3.0229764, "lon": 43.939092}, {"type": "node", "id": 6210297225, "lat": 3.0256098, "lon": 43.9360918}, {"type": "node", "id": 6210297226, "lat": 3.0226844, "lon": 43.9373887}, {"type": "node", "id": 6210297227, "lat": 3.0219098, "lon": 43.9399228}, {"type": "node", "id": 6210297228, "lat": 3.0234066, "lon": 43.9393161}, {"type": "node", "id": 6210297229, "lat": 3.0237301, "lon": 43.9388282}, {"type": "node", "id": 6210297230, "lat": 3.0242856, "lon": 43.9352908}, {"type": "node", "id": 6210297232, "lat": 3.0243079, "lon": 43.9374964}, {"type": "node", "id": 6210297233, "lat": 3.0228854, "lon": 43.9366391}, {"type": "node", "id": 6210297234, "lat": 3.023159, "lon": 43.9372102}, {"type": "node", "id": 6210297235, "lat": 3.0207438, "lon": 43.9383047}, {"type": "node", "id": 6210297236, "lat": 3.0233738, "lon": 43.9393202}, {"type": "node", "id": 6210297237, "lat": 3.0254433, "lon": 43.9356516}, {"type": "node", "id": 6210297238, "lat": 3.0224322, "lon": 43.937481}, {"type": "node", "id": 6210297240, "lat": 3.0235873, "lon": 43.9390662}, {"type": "node", "id": 6210297241, "lat": 3.0240632, "lon": 43.9383642}, {"type": "node", "id": 6210297242, "lat": 3.0230415, "lon": 43.9352986}, {"type": "node", "id": 6210297243, "lat": 3.0219261, "lon": 43.9377902}, {"type": "node", "id": 6210297244, "lat": 3.0272792, "lon": 43.9224895}, {"type": "node", "id": 6210297245, "lat": 3.0267444, "lon": 43.9238174}, {"type": "node", "id": 6210297247, "lat": 3.0286801, "lon": 43.9241633}, {"type": "node", "id": 6210297248, "lat": 3.0288703, "lon": 43.9220101},