{"version": 0.6, "generator": "Overpass API 0.7.62.1 084b4234", "osm3s": {"timestamp_osm_base": "2024-09-30T23:00:39Z", "copyright": "The data included in this document is from www.openstreetmap.org. The data is made available under ODbL."}, "elements": [{"type": "node", "id": 1150889516, "lat": 7.83333, "lon": 42.91667, "tags": {"is_in:country": "Ethiopia", "is_in:country_code": "ET", "name": "Cabedleh", "place": "locality", "source": "GeoDatabase"}}, {"type": "node", "id": 1150938671, "lat": 7.56667, "lon": 42.88333, "tags": {"is_in:country": "Ethiopia", "is_in:country_code": "ET", "name": "Gul Anod", "place": "locality", "source": "GeoDatabase"}}, {"type": "node", "id": 1150970619, "lat": 7.68333, "lon": 42.71667, "tags": {"is_in:country": "Ethiopia", "is_in:country_code": "ET", "name": "Sullul", "place": "locality", "source": "GeoDatabase"}}, {"type": "node", "id": 1150982297, "lat": 7.6820747, "lon": 42.8345745, "tags": {"is_in:country": "Ethiopia", "is_in:country_code": "ET", "name": "Segeg", "place": "village", "source": "GeoDatabase"}}, {"type": "node", "id": 8467318984, "lat": 7.5159207, "lon": 42.9113168, "tags": {"place": "hamlet"}}]}