{"version": 0.6, "generator": "Overpass API 0.7.62.1 084b4234", "osm3s": {"timestamp_osm_base": "2024-09-30T22:11:39Z", "copyright": "The data included in this document is from www.openstreetmap.org. The data is made available under ODbL."}, "elements": [{"type": "node", "id": 1150880668, "lat": 10.45, "lon": 39.81666, "tags": {"is_in:country": "Ethiopia", "is_in:country_code": "ET", "name": "Monte Cumbi", "place": "locality", "source": "GeoDatabase"}}, {"type": "node", "id": 1150882227, "lat": 10.4, "lon": 39.93333, "tags": {"is_in:country": "Ethiopia", "is_in:country_code": "ET", "name": "Wuk'Ubi Shelek'O", "place": "locality", "source": "GeoDatabase"}}, {"type": "node", "id": 1150883397, "lat": 10.7, "lon": 40.0, "tags": {"is_in:country": "Ethiopia", "is_in:country_code": "ET", "name": "Dodota", "place": "locality", "source": "GeoDatabase"}}, {"type": "node", "id": 1150883649, "lat": 10.61667, "lon": 39.91667, "tags": {"is_in:country": "Ethiopia", "is_in:country_code": "ET", "name": "Jimete", "place": "locality", "source": "GeoDatabase"}}, {"type": "node", "id": 1150885671, "lat": 10.51667, "lon": 39.76667, "tags": {"is_in:country": "Ethiopia", "is_in:country_code": "ET", "name": "Mount Abuye Meda", "place": "locality", "source": "GeoDatabase"}}, {"type": "node", "id": 1150889386, "lat": 10.36667, "lon": 39.8, "tags": {"is_in:country": "Ethiopia", "is_in:country_code": "ET", "name": "Fureuta", "place": "locality", "source": "GeoDatabase"}}, {"type": "node", "id": 1150892008, "lat": 10.55, "lon": 40.0, "tags": {"is_in:country": "Ethiopia", "is_in:country_code": "ET", "name": "Shonke", "place": "locality", "source": "GeoDatabase"}}, {"type": "node", "id": 1150892115, "lat": 10.45, "lon": 39.9, "tags": {"is_in:country": "Ethiopia", "is_in:country_code": "ET", "name": "Kebroy Maryam Terara", "place": "locality", "source": "GeoDatabase"}}, {"type": "node", "id": 1150895343, "lat": 10.4, "lon": 39.98333, "tags": {"is_in:country": "Ethiopia", "is_in:country_code": "ET", "name": "Debra Ghelele", "place": "locality", "source": "GeoDatabase"}}, {"type": "node", "id": 1150897413, "lat": 10.71667, "lon": 39.96667, "tags": {"is_in:country": "Ethiopia", "is_in:country_code": "ET", "name": "Dugudu", "place": "locality", "source": "GeoDatabase"}}, {"type": "node", "id": 1150898550, "lat": 10.41667, "lon": 39.83333, "tags": {"is_in:country": "Ethiopia", "is_in:country_code": "ET", "name": "Wegamago Abo Bete Kristiyan", "place": "locality", "source": "GeoDatabase"}}, {"type": "node", "id": 1150898628, "lat": 10.4, "lon": 39.88333, "tags": {"is_in:country": "Ethiopia", "is_in:country_code": "ET", "name": "Gwasa Terara", "place": "locality", "source": "GeoDatabase"}}, {"type": "node", "id": 1150900868, "lat": 10.41667, "lon": 39.91667, "tags": {"is_in:country": "Ethiopia", "is_in:country_code": "ET", "name": "Falma", "place": "locality", "source": "GeoDatabase"}}, {"type": "node", "id": 1150903221, "lat": 10.73333, "lon": 40.0, "tags": {"is_in:country": "Ethiopia", "is_in:country_code": "ET", "name": "Gurarsa", "place": "locality", "source": "GeoDatabase"}}, {"type": "node", "id": 1150903356, "lat": 10.697741, "lon": 39.780899, "tags": {"is_in:country": "Ethiopia", "is_in:country_code": "ET", "name": "Mekoy", "place": "village", "source": "GeoDatabase"}}, {"type": "node", "id": 1150903439, "lat": 10.51667, "lon": 39.95, "tags": {"is_in:country": "Ethiopia", "is_in:country_code": "ET", "name": "Jara", "place": "locality", "source": "GeoDatabase"}}, {"type": "node", "id": 1150921593, "lat": 10.58333, "lon": 40.0, "tags": {"is_in:country": "Ethiopia", "is_in:country_code": "ET", "name": "Jorit", "place": "locality", "source": "GeoDatabase"}}, {"type": "node", "id": 1150926631, "lat": 10.46667, "lon": 39.96667, "tags": {"is_in:country": "Ethiopia", "is_in:country_code": "ET", "name": "Derensa", "place": "locality", "source": "GeoDatabase"}}, {"type": "node", "id": 1150928325, "lat": 10.66667, "lon": 40.03333, "tags": {"is_in:country": "Ethiopia", "is_in:country_code": "ET", "name": "Gora", "place": "locality", "source": "GeoDatabase"}}, {"type": "node", "id": 1150931949, "lat": 10.63333, "lon": 39.86667, "tags": {"is_in:country": "Ethiopia", "is_in:country_code": "ET", "name": "Lut'E", "place": "locality", "source": "GeoDatabase"}}, {"type": "node", "id": 1150932671, "lat": 10.45, "lon": 39.85, "tags": {"is_in:country": "Ethiopia", "is_in:country_code": "ET", "name": "Iruf Kolemo", "place": "locality", "source": "GeoDatabase"}}, {"type": "node", "id": 1150933357, "lat": 10.4, "lon": 39.9, "tags": {"is_in:country": "Ethiopia", "is_in:country_code": "ET", "name": "Falma Maryam Bete Kristiyan", "place": "locality", "source": "GeoDatabase"}}, {"type": "node", "id": 1150937241, "lat": 10.46667, "lon": 39.91667, "tags": {"is_in:country": "Ethiopia", "is_in:country_code": "ET", "name": "Birbira", "place": "locality", "source": "GeoDatabase"}}, {"type": "node", "id": 1150938208, "lat": 10.35, "lon": 39.96667, "tags": {"is_in:country": "Ethiopia", "is_in:country_code": "ET", "name": "Efeson", "place": "locality", "source": "GeoDatabase"}}, {"type": "node", "id": 1150940878, "lat": 10.7164422, "lon": 39.8670264, "tags": {"name": "Kamisee", "name:ar": "\u0643\u0645\u0633\u064a", "name:ar1": "\u0643\u0645\u064a\u0633\u064a", "place": "town", "source": "GeoDatabase", "wikidata": "Q3194987", "wikimedia_commons": "Category:Kemise", "wikipedia": "en:Kemise"}}, {"type": "node", "id": 1150943785, "lat": 10.66667, "lon": 39.76667, "tags": {"is_in:country": "Ethiopia", "is_in:country_code": "ET", "name": "Amoscia", "place": "locality", "source": "GeoDatabase"}}, {"type": "node", "id": 1150944005, "lat": 10.51667, "lon": 39.96667, "tags": {"is_in:country": "Ethiopia", "is_in:country_code": "ET", "name": "Degaga", "place": "locality", "source": "GeoDatabase"}}, {"type": "node", "id": 1150944246, "lat": 10.36667, "lon": 39.81666, "tags": {"is_in:country": "Ethiopia", "is_in:country_code": "ET", "name": "Gidm", "place": "locality", "source": "GeoDatabase"}}, {"type": "node", "id": 1150949693, "lat": 10.3448956, "lon": 39.9574609, "tags": {"name": "Ataye", "place": "town", "source": "GeoDatabase", "wikidata": "Q102428504"}}, {"type": "node", "id": 1150956383, "lat": 10.6003286, "lon": 39.919477, "tags": {"is_in:country": "Ethiopia", "is_in:country_code": "ET", "name": "Ch'Iret'E", "place": "locality", "source": "GeoDatabase"}}, {"type": "node", "id": 1150958059, "lat": 10.73333, "lon": 40.05, "tags": {"is_in:country": "Ethiopia", "is_in:country_code": "ET", "name": "Bora", "place": "locality", "source": "GeoDatabase"}}, {"type": "node", "id": 1150963504, "lat": 10.5854176, "lon": 40.018712, "tags": {"is_in:country": "Ethiopia", "is_in:country_code": "ET", "name": "Art'Uma", "place": "locality", "source": "GeoDatabase"}}, {"type": "node", "id": 1150971060, "lat": 10.51667, "lon": 39.93333, "tags": {"is_in:country": "Ethiopia", "is_in:country_code": "ET", "name": "K'Ore Meda Shet'", "place": "locality", "source": "GeoDatabase"}}, {"type": "node", "id": 1150974817, "lat": 10.48333, "lon": 40.01667, "tags": {"is_in:country": "Ethiopia", "is_in:country_code": "ET", "name": "Urse", "place": "locality", "source": "GeoDatabase"}}, {"type": "node", "id": 1150975139, "lat": 10.4, "lon": 39.86667, "tags": {"is_in:country": "Ethiopia", "is_in:country_code": "ET", "name": "Yisirdo", "place": "locality", "source": "GeoDatabase"}}, {"type": "node", "id": 1150975978, "lat": 10.43333, "lon": 39.9, "tags": {"is_in:country": "Ethiopia", "is_in:country_code": "ET", "name": "Aba Boker Terara", "place": "locality", "source": "GeoDatabase"}}, {"type": "node", "id": 1150978638, "lat": 10.66667, "lon": 39.75, "tags": {"is_in:country": "Ethiopia", "is_in:country_code": "ET", "name": "Ghiscie", "place": "locality", "source": "GeoDatabase"}}, {"type": "node", "id": 1150981976, "lat": 10.4, "lon": 39.96667, "tags": {"is_in:country": "Ethiopia", "is_in:country_code": "ET", "name": "Gelo Bota", "place": "locality", "source": "GeoDatabase"}}, {"type": "node", "id": 1151004791, "lat": 10.71667, "lon": 39.85, "tags": {"is_in:country": "Ethiopia", "is_in:country_code": "ET", "name": "K'Ach'Ur", "place": "locality", "source": "GeoDatabase"}}, {"type": "node", "id": 2206470636, "lat": 10.685396, "lon": 40.043543, "tags": {"name": "Borajo", "place": "village"}}, {"type": "node", "id": 2461402401, "lat": 10.5549602, "lon": 39.9348912, "tags": {"name": "Chaffa Robit", "place": "village"}}, {"type": "node", "id": 2461402410, "lat": 10.422578, "lon": 39.935187, "tags": {"name": "Karakore", "place": "town", "wikidata": "Q3192921", "wikipedia": "en:Karakore"}}, {"type": "node", "id": 2461402422, "lat": 10.4694745, "lon": 39.9841939, "tags": {"place": "village"}}, {"type": "node", "id": 2461402426, "lat": 10.4797797, "lon": 40.0391307, "tags": {"place": "village"}}, {"type": "node", "id": 3228610757, "lat": 10.6777956, "lon": 39.9049378, "tags": {"place": "hamlet"}}, {"type": "node", "id": 3258255797, "lat": 10.6184471, "lon": 39.9729439, "tags": {"place": "village"}}, {"type": "node", "id": 3258255856, "lat": 10.6345387, "lon": 39.9846342, "tags": {"place": "hamlet"}}, {"type": "node", "id": 3258255857, "lat": 10.6709851, "lon": 39.9900082, "tags": {"place": "hamlet"}}, {"type": "node", "id": 3258255858, "lat": 10.6923422, "lon": 39.9816604, "tags": {"place": "hamlet"}}, {"type": "node", "id": 3258255859, "lat": 10.7039655, "lon": 39.9800513, "tags": {"place": "hamlet"}}, {"type": "node", "id": 3258258182, "lat": 10.7225898, "lon": 39.9676519, "tags": {"place": "hamlet"}}, {"type": "node", "id": 3258267172, "lat": 10.7367636, "lon": 39.9914635, "tags": {"place": "hamlet"}}, {"type": "node", "id": 3258271343, "lat": 10.5916519, "lon": 40.0421415, "tags": {"place": "hamlet"}}, {"type": "node", "id": 3258271344, "lat": 10.5749305, "lon": 40.011666, "tags": {"place": "hamlet"}}, {"type": "node", "id": 11568530454, "lat": 10.6294457, "lon": 39.7899471, "tags": {"place": "village"}}, {"type": "node", "id": 11577695974, "lat": 10.4926887, "lon": 39.864471, "tags": {"name": "Majete", "place": "town"}}, {"type": "node", "id": 11579343074, "lat": 10.5923547, "lon": 39.8424215, "tags": {"place": "village"}}]}