{"version": 0.6, "generator": "Overpass API 0.7.62.1 084b4234", "osm3s": {"timestamp_osm_base": "2024-09-30T20:57:14Z", "copyright": "The data included in this document is from www.openstreetmap.org. The data is made available under ODbL."}, "elements": [{"type": "node", "id": 1404221335, "lat": 2.9098, "lon": 45.39296, "tags": {"alt_name": "Gariirow", "name": "Giirwayn", "pcode": "NA-3807-C09-002", "place": "locality", "source": "UNDP - 2006, UNDP - 1997"}}, {"type": "node", "id": 1404221375, "lat": 2.79382, "lon": 45.14537, "tags": {"name": "Garas Moqorrey", "pcode": "NA-3807-E04-001", "place": "village", "source": "UNDP - 1997"}}, {"type": "node", "id": 1404221477, "lat": 2.7958, "lon": 45.110249, "tags": {"name": "Dani", "pcode": "NA-3807-E03-001", "place": "village", "source": "UNDP - 1997"}}, {"type": "node", "id": 1404221575, "lat": 2.922, "lon": 45.149899, "tags": {"name": "Uar Bunle", "pcode": "NA-3807-B04-001", "place": "village", "source": "UNDP - 1997"}}, {"type": "node", "id": 1404221891, "lat": 2.6555517, "lon": 45.070896, "tags": {"name": "Tugaarey", "pcode": "NA-3807-J02-009", "place": "village", "source": "UNDP - 2006"}}, {"type": "node", "id": 1404221910, "lat": 2.60102, "lon": 45.1885, "tags": {"name": "Buulo-Eelay", "pcode": "NA-3807-K05-003", "place": "isolated_dwelling", "source": "UNDP - 2006"}}, {"type": "node", "id": 1404222008, "lat": 2.6697011, "lon": 45.2917551, "tags": {"alt_name": "Taxsile", "name": "Taxsiile", "pcode": "NA-3807-H07-003", "place": "village", "source": "UNDP - 2006"}}, {"type": "node", "id": 1404222025, "lat": 2.7582405, "lon": 45.1454206, "tags": {"name": "Dhaxanley", "pcode": "NA-3807-F04-002", "place": "hamlet", "source": "UNDP - 1997"}}, {"type": "node", "id": 1404222107, "lat": 2.66348, "lon": 45.08643, "tags": {"name": "Korkaa Maray", "pcode": "NA-3807-J02-011", "place": "village", "source": "UNDP - 1997"}}, {"type": "node", "id": 1404222120, "lat": 2.69823, "lon": 45.10278, "tags": {"name": "Buuloyarey Shiiqaal", "pcode": "NA-3807-H03-002", "place": "locality", "source": "UNDP - 2006"}}, {"type": "node", "id": 1404222124, "lat": 2.92, "lon": 45.419998, "tags": {"name": "Malable", "pcode": "NA-3807-B10-001", "place": "locality", "source": "UNDP - 1997"}}, {"type": "node", "id": 1404222137, "lat": 2.77931, "lon": 45.1329, "tags": {"name": "Garaska Cad", "pcode": "NA-3807-F03-004", "place": "village", "source": "UNDP - 2006"}}, {"type": "node", "id": 1404222377, "lat": 2.7016811, "lon": 45.4207236, "tags": {"alt_name": "Cilanley", "name": "Cilaanley", "pcode": "NA-3807-H10-002", "place": "hamlet", "source": "UNDP - 2006"}}, {"type": "node", "id": 1404222406, "lat": 2.94699, "lon": 45.29392, "tags": {"alt_name": "Faxshil", "name": "Oorley", "pcode": "NA-3807-B07-004", "place": "village", "source": "UNDP - 2006"}}, {"type": "node", "id": 1404222543, "lat": 2.7991536, "lon": 45.0930653, "tags": {"name": "Bulo Sigalei", "pcode": "NA-3807-E03-002", "place": "village", "source": "UNDP - 1997"}}, {"type": "node", "id": 1404222576, "lat": 2.63247, "lon": 45.272839, "tags": {"name": "Gabaanis", "pcode": "NA-3807-J07-001", "place": "hamlet", "source": "UNDP - 1997"}}, {"type": "node", "id": 1404222748, "lat": 2.85548, "lon": 45.39513, "tags": {"name": "Buulo Qacda", "pcode": "NA-3807-D09-003", "place": "locality", "source": "UNDP - 2006"}}, {"type": "node", "id": 1404222805, "lat": 2.80375, "lon": 45.132038, "tags": {"name": "Dabool Yarey", "pcode": "NA-3807-E03-003", "place": "village", "source": "UNDP - 1997"}}, {"type": "node", "id": 1404222810, "lat": 2.83098, "lon": 45.10963, "tags": {"name": "Hodile", "pcode": "NA-3807-E03-005", "place": "village", "source": "UNDP - 2006"}}, {"type": "node", "id": 1404222849, "lat": 2.82375, "lon": 45.40297, "tags": {"alt_name": "Japay", "name": "Jaqay", "pcode": "NA-3807-E09-003", "place": "locality", "source": "UNDP - 2006"}}, {"type": "node", "id": 1404222942, "lat": 2.7204282, "lon": 45.3109231, "tags": {"alt_name": "Ceeshoy", "name": "Ceejoy", "pcode": "NA-3807-G07-001", "place": "village", "source": "UNDP - 2006, UNDP - 1997"}}, {"type": "node", "id": 1404223000, "lat": 2.7715, "lon": 45.169079, "tags": {"name": "Soohane", "pcode": "NA-3807-F04-003", "place": "village", "source": "UNDP - 1997"}}, {"type": "node", "id": 1404223128, "lat": 2.83979, "lon": 45.24564, "tags": {"name": "Mudu", "pcode": "NA-3807-D06-001", "place": "village", "source": "UNDP - 1997"}}, {"type": "node", "id": 1404223320, "lat": 2.8336982, "lon": 45.3606384, "tags": {"name": "Dani Saqiir", "pcode": "NA-3807-D08-001", "place": "hamlet", "source": "UNDP - 2006"}}, {"type": "node", "id": 1404223410, "lat": 2.6580126, "lon": 45.168069, "tags": {"name": "Barey Diini", "pcode": "NA-3807-J04-005", "place": "village", "source": "UNDP - 2006"}}, {"type": "node", "id": 1404223449, "lat": 2.77229, "lon": 45.143978, "tags": {"name": "Abeesaale", "pcode": "NA-3807-F04-004", "place": "village", "source": "UNDP - 1997"}}, {"type": "node", "id": 1404223524, "lat": 2.6234809, "lon": 45.3228733, "tags": {"alt_name": "Keysaney", "name": "Kaysaney", "pcode": "NA-3807-K08-006", "place": "village", "source": "UNDP - 2006, UNDP - 1997, FSAU"}}, {"type": "node", "id": 1404223536, "lat": 2.5860856, "lon": 45.1348738, "tags": {"name": "Buulo Bariise", "pcode": "NA-3807-K03-001", "place": "hamlet", "source": "UNDP - 2006"}}, {"type": "node", "id": 1404223621, "lat": 2.80985, "lon": 45.17038, "tags": {"name": "Baalley", "pcode": "NA-3807-E04-007", "place": "village", "source": "UNDP - 1997"}}, {"type": "node", "id": 1404223632, "lat": 2.6323807, "lon": 45.1050568, "tags": {"alt_name": "Garas Dhaay", "name": "Yaras Dhaay", "pcode": "NA-3807-J03-002", "place": "hamlet", "source": "UNDP - 2006"}}, {"type": "node", "id": 1404223805, "lat": 2.82331, "lon": 45.37183, "tags": {"name": "Barake", "pcode": "NA-3807-E09-002", "place": "locality", "source": "FSAU"}}, {"type": "node", "id": 1404224100, "lat": 2.66536, "lon": 45.08574, "tags": {"name": "Kormari", "pcode": "NA-3807-J02-012", "place": "village", "source": "UNDP - 2006"}}, {"type": "node", "id": 1404224189, "lat": 2.92808, "lon": 45.3002, "tags": {"name": "Maroodile", "pcode": "NA-3807-B07-003", "place": "locality", "source": "UNDP - 2006"}}, {"type": "node", "id": 1404224268, "lat": 2.83281, "lon": 45.218929, "tags": {"fixme": "please, verify position", "name": "Waraaboole", "pcode": "NA-3807-E05-002", "place": "village", "source": "UNDP - 1997"}}, {"type": "node", "id": 1404224319, "lat": 2.8804, "lon": 45.198502, "tags": {"name": "Don Merer", "pcode": "NA-3807-C05-002", "place": "village", "source": "UNDP - 1997"}}, {"type": "node", "id": 1404224380, "lat": 2.81923, "lon": 45.45341, "tags": {"name": "Cel Cad", "pcode": "NA-3807-E10-002", "place": "locality", "source": "FSAU"}}, {"type": "node", "id": 1404224388, "lat": 2.5884378, "lon": 45.1641861, "tags": {"name": "Yarow Qalaay", "pcode": "NA-3807-K04-001", "place": "village", "source": "UNDP - 2006"}}, {"type": "node", "id": 1404224436, "lat": 2.69458, "lon": 45.16116, "tags": {"alt_name": "Boqon Dhow", "name": "Boqondhow", "pcode": "NA-3807-H04-003", "place": "village", "source": "UNDP - 2006"}}, {"type": "node", "id": 1404224444, "lat": 2.71005, "lon": 45.25837, "tags": {"name": "Axmed Miriq", "pcode": "NA-3807-G06-001", "place": "village", "source": "UNDP - 2006"}}, {"type": "node", "id": 1404224448, "lat": 2.7798, "lon": 45.08737, "tags": {"name": "Buulo Golol", "pcode": "NA-3807-F02-003", "place": "village", "source": "UNDP - 2006"}}, {"type": "node", "id": 1404224634, "lat": 2.84746, "lon": 45.3602, "tags": {"name": "Cayrib", "pcode": "NA-3807-D08-003", "place": "locality", "source": "UNDP - 2006"}}, {"type": "node", "id": 1404224665, "lat": 2.79591, "lon": 45.16943, "tags": {"name": "Walburre", "pcode": "NA-3807-E04-002", "place": "village", "source": "UNDP - 1997"}}, {"type": "node", "id": 1404224801, "lat": 2.86973, "lon": 45.18718, "tags": {"name": "Macalin-Nuur", "pcode": "NA-3807-D05-001", "place": "village", "source": "UNDP - 2006"}}, {"type": "node", "id": 1404225020, "lat": 2.93, "lon": 45.419998, "tags": {"name": "Bullo Carey", "pcode": "NA-3807-B10-002", "place": "locality", "source": "UNDP - 1997"}}, {"type": "node", "id": 1404225030, "lat": 2.6703201, "lon": 45.2108663, "tags": {"name": "Reer Mocow", "pcode": "NA-3807-H05-001", "place": "hamlet", "source": "UNDP - 2006"}}, {"type": "node", "id": 1404225042, "lat": 2.80713, "lon": 45.28882, "tags": {"alt_name": "Moro Guwad", "name": "Mooro-Gubad", "pcode": "NA-3807-E07-001", "place": "locality", "source": "UNDP - 2006"}}, {"type": "node", "id": 1404225054, "lat": 2.6224677, "lon": 45.0779454, "tags": {"name": "Bulo Shiiq", "pcode": "NA-3807-K02-005", "place": "village", "source": "UNDP - 2006"}}, {"type": "node", "id": 1404225088, "lat": 2.75521, "lon": 45.135681, "tags": {"name": "Washaaqo", "pcode": "NA-3807-F03-001", "place": "village", "source": "UNDP - 1997"}}, {"type": "node", "id": 1404225117, "lat": 2.8254, "lon": 45.17446, "tags": {"name": "Xaan Dawaco", "pcode": "NA-3807-E04-009", "place": "village", "source": "UNDP - 2006"}}, {"type": "node", "id": 1404225246, "lat": 2.8550274, "lon": 45.3586067, "tags": {"alt_name": "Harub Dher", "name": "Haruub-Dheer", "pcode": "NA-3807-D08-004", "place": "village", "source": "UNDP - 2006"}}, {"type": "node", "id": 1404225258, "lat": 2.6623155, "lon": 45.308933, "tags": {"name": "Malakaroor", "pcode": "NA-3807-J07-003", "place": "village", "source": "UNDP - 1997"}}, {"type": "node", "id": 1404225272, "lat": 2.92083, "lon": 45.21611, "tags": {"name": "Haggi Ali", "pcode": "NA-3807-B05-001", "place": "village", "source": "UNDP - 1997"}}, {"type": "node", "id": 1404225321, "lat": 2.5935284, "lon": 45.1833841, "tags": {"name": "Kabhan", "pcode": "NA-3807-K05-002", "place": "village", "source": "UNDP - 2006"}}, {"type": "node", "id": 1404225351, "lat": 2.78928, "lon": 45.18259, "tags": {"name": "Ubbuli", "pcode": "NA-3807-F05-002", "place": "village", "source": "UNDP - 1997"}}, {"type": "node", "id": 1404225421, "lat": 2.6035324, "lon": 45.1186006, "tags": {"name": "Raamo Shaiif 1", "pcode": "NA-3807-K03-007", "place": "village", "source": "UNDP - 2006"}}, {"type": "node", "id": 1404225486, "lat": 2.95, "lon": 45.309719, "tags": {"name": "Maciye Tuurey", "pcode": "NA-3807-B07-005", "place": "locality", "source": "UNDP - 1997"}}, {"type": "node", "id": 1404225523, "lat": 2.95, "lon": 45.330551, "tags": {"name": "Eyrib", "pcode": "NA-3807-B08-003", "place": "locality", "source": "UNDP - 1997"}}, {"type": "node", "id": 1404225528, "lat": 2.58778, "lon": 45.36949, "tags": {"name": "Qalimow", "pcode": "NA-3807-K09-001", "place": "village", "source": "UNDP - 2006, UNDP - 1997"}}, {"type": "node", "id": 1404225548, "lat": 2.6698669, "lon": 45.1786406, "tags": {"name": "Buurfuule", "pcode": "NA-3807-H04-001", "place": "village", "source": "UNDP - 1997"}}, {"type": "node", "id": 1404225626, "lat": 2.6292917, "lon": 45.2081218, "tags": {"name": "Muumin Weyne", "pcode": "NA-3807-J05-001", "place": "village", "source": "UNDP - 2006"}}, {"type": "node", "id": 1404225630, "lat": 2.6468335, "lon": 45.1852085, "tags": {"name": "Shantakulan", "pcode": "NA-3807-J05-002", "place": "village", "source": "UNDP - 1997"}}, {"type": "node", "id": 1404225699, "lat": 2.8284, "lon": 45.152302, "tags": {"name": "Bulo Garangaro", "pcode": "NA-3807-E04-011", "place": "village", "source": "UNDP - 1997"}}, {"type": "node", "id": 1404225722, "lat": 2.5897259, "lon": 45.1212515, "tags": {"name": "Qalafe", "pcode": "NA-3807-K03-004", "place": "village", "source": "UNDP - 2006"}}, {"type": "node", "id": 1404225723, "lat": 2.88992, "lon": 45.433929, "tags": {"name": "Gumar Gaalo", "pcode": "NA-3807-C10-001", "place": "locality", "source": "UNDP - 1997"}}, {"type": "node", "id": 1404225814, "lat": 2.6041139, "lon": 45.1217576, "tags": {"name": "Garas Buulle", "pcode": "NA-3807-K03-008", "place": "hamlet", "source": "UNDP - 2006"}}, {"type": "node", "id": 1404225897, "lat": 2.910453, "lon": 45.4472784, "tags": {"alt_name": "Alider", "name": "Cali Deer", "pcode": "NA-3807-C10-003", "place": "village", "population": "1100-2000", "source": "UNDP - 2006, UNDP - 1997;UNSOA II: E045N02_02, SPOT5 image based data capture using different Ancillary Sources coming from UNSOA field mission", "source:date": "2006-01-08", "website": "https://calideer.com"}}, {"type": "node", "id": 1404225941, "lat": 2.60139, "lon": 45.36279, "tags": {"alt_name": "Jameegtul Khe", "name": "Xandulow", "pcode": "NA-3807-K08-002", "place": "hamlet", "source": "UNDP - 2006"}}, {"type": "node", "id": 1404225945, "lat": 2.6234836, "lon": 45.0766796, "tags": {"name": "Lulato", "pcode": "NA-3807-K02-006", "place": "village", "source": "UNDP - 2006"}}, {"type": "node", "id": 1404225952, "lat": 2.6948515, "lon": 45.1503222, "tags": {"name": "Doonka Maracadow", "pcode": "NA-3807-H04-002", "place": "village", "source": "UNDP - 2006"}}, {"type": "node", "id": 1404225962, "lat": 2.87058, "lon": 45.166821, "tags": {"name": "Gawaanis", "pcode": "NA-3807-D04-003", "place": "village", "source": "UNDP - 1997"}}, {"type": "node", "id": 1404226124, "lat": 2.7537734, "lon": 45.1601102, "tags": {"name": "Dood", "pcode": "NA-3807-F04-001", "place": "hamlet", "source": "UNDP - 1997"}}, {"type": "node", "id": 1404226151, "lat": 2.6010906, "lon": 45.1281815, "tags": {"name": "Buulo Awsuufi", "pcode": "NA-3807-K03-006", "place": "village", "source": "UNDP - 2006"}}, {"type": "node", "id": 1404226224, "lat": 2.8786, "lon": 45.217499, "tags": {"name": "Caisene", "pcode": "NA-3807-C05-001", "place": "village", "source": "UNDP - 1997"}}, {"type": "node", "id": 1404226274, "lat": 2.6136214, "lon": 45.0936179, "tags": {"name": "Dhumayle", "pcode": "NA-3807-K03-011", "place": "hamlet", "source": "UNDP - 1997"}}, {"type": "node", "id": 1404226560, "lat": 2.85795, "lon": 45.396912, "tags": {"name": "Dacdo", "pcode": "NA-3807-D09-004", "place": "locality", "source": "UNDP - 1997"}}, {"type": "node", "id": 1404226598, "lat": 2.92083, "lon": 45.309719, "tags": {"name": "Qooxle", "pcode": "NA-3807-B07-001", "place": "locality", "source": "UNDP - 1997"}}, {"type": "node", "id": 1404226825, "lat": 2.81111, "lon": 45.327782, "tags": {"name": "Biyo Cadde", "pcode": "NA-3807-E08-001", "place": "isolated_dwelling", "source": "UNDP - 1997"}}, {"type": "node", "id": 1404226871, "lat": 2.84, "lon": 45.340279, "tags": {"name": "Hareruus", "pcode": "NA-3807-D08-002", "place": "locality", "source": "UNDP - 1997"}}, {"type": "node", "id": 1404226967, "lat": 2.81772, "lon": 45.41667, "tags": {"alt_name": "Dlay Gawan", "name": "Dhay-Gawaan", "pcode": "NA-3807-E10-001", "place": "locality", "source": "UNDP - 2006"}}, {"type": "node", "id": 1404227384, "lat": 2.76139, "lon": 45.39444, "tags": {"name": "Moiko", "pcode": "NA-3807-F09-001", "place": "locality", "source": "UNDP - 1997"}}, {"type": "node", "id": 1404227462, "lat": 2.67827, "lon": 45.20642, "tags": {"name": "Maleyle", "pcode": "NA-3807-H05-003", "place": "village", "source": "UNDP - 2006"}}, {"type": "node", "id": 1404228090, "lat": 2.58653, "lon": 45.11921, "tags": {"name": "Jameeco-Mukhtaar", "pcode": "NA-3807-K03-002", "place": "isolated_dwelling", "source": "UNDP - 2006"}}, {"type": "node", "id": 1404228362, "lat": 2.82008, "lon": 45.08465, "tags": {"name": "Qajacley", "pcode": "NA-3807-E02-002", "place": "locality", "source": "UNDP - 2006"}}, {"type": "node", "id": 1404228536, "lat": 2.86849, "lon": 45.40752, "tags": {"name": "Garsaalley", "pcode": "NA-3807-D09-005", "place": "locality", "source": "UNDP - 1997"}}, {"type": "node", "id": 1404228737, "lat": 2.81953, "lon": 45.14249, "tags": {"name": "Cadaley \u0639\u0636\u0644\u0629", "name:ar": "\u0639\u0636\u0644\u0629", "pcode": "NA-3807-E04-008", "place": "village", "source": "UNDP - 1997"}}, {"type": "node", "id": 1404229157, "lat": 2.70314, "lon": 45.2123, "tags": {"alt_name": "Dhal Cadiga", "name": "Dhac Cadiga", "pcode": "NA-3807-H05-004", "place": "village", "source": "UNDP - 2006"}}, {"type": "node", "id": 1404229662, "lat": 2.77543, "lon": 45.1435, "tags": {"name": "Garas Guudle", "pcode": "NA-3807-F04-005", "place": "village", "source": "UNDP - 2006, UNDP - 1997"}}, {"type": "node", "id": 1404229690, "lat": 2.82546, "lon": 45.16575, "tags": {"name": "Faanta Fiidey", "pcode": "NA-3807-E04-010", "place": "village", "source": "UNDP - 2006"}}, {"type": "node", "id": 1404229800, "lat": 2.67429, "lon": 45.084419, "tags": {"name": "Abaayow", "pcode": "NA-3807-H02-003", "place": "locality", "source": "UNDP - 1997"}}, {"type": "node", "id": 1404230018, "lat": 2.7485182, "lon": 45.1461465, "tags": {"name": "Dhaxanley", "place": "hamlet", "source": "UNSOA III: E045N02_05, SPOT5 image based data capture using different Ancillary Sources coming from UNSOA field mission.", "source:date": "2014-02-17"}}, {"type": "node", "id": 1404230030, "lat": 2.92083, "lon": 45.320839, "tags": {"name": "Madax Warabe", "pcode": "NA-3807-B08-001", "place": "locality", "source": "UNDP - 1997"}}, {"type": "node", "id": 1404230035, "lat": 2.6450698, "lon": 45.1483754, "tags": {"name": "Aliyow Baaley", "pcode": "NA-3807-J04-003", "place": "village", "source": "UNDP - 2006"}}, {"type": "node", "id": 1404230036, "lat": 2.926548, "lon": 45.3356981, "tags": {"name": "Duray", "pcode": "NA-3807-B08-002", "place": "locality", "source": "UNDP - 2006"}}, {"type": "node", "id": 1404230137, "lat": 2.6262288, "lon": 45.3617135, "tags": {"name": "Kaboole", "pcode": "NA-3807-J08-001", "place": "village", "source": "UNDP - 2006"}}, {"type": "node", "id": 1404230246, "lat": 2.60135, "lon": 45.20458, "tags": {"name": "Buxow", "pcode": "NA-3807-K05-004", "place": "village", "source": "UNDP - 2006"}}, {"type": "node", "id": 1404230264, "lat": 2.77473, "lon": 45.18808, "tags": {"name": "Deg Wariiri", "pcode": "NA-3807-F05-001", "place": "village", "source": "UNDP - 2006"}}, {"type": "node", "id": 1404230319, "lat": 2.6669239, "lon": 45.2915663, "tags": {"name": "Bulo Casi", "pcode": "NA-3807-H07-002", "place": "village", "source": "FSAU"}}, {"type": "node", "id": 1404230323, "lat": 2.6524086, "lon": 45.2097541, "tags": {"name": "Goricade", "pcode": "NA-3807-J05-004", "place": "hamlet", "source": "UNDP - 2006"}}, {"type": "node", "id": 1404230329, "lat": 2.801349, "lon": 45.1399716, "tags": {"name": "Garascad", "pcode": "NA-3807-E04-005", "place": "village", "source": "UNDP - 1997"}}, {"type": "node", "id": 1404230499, "lat": 2.750344, "lon": 45.1687583, "tags": {"name": "Yarey", "pcode": "NA-3807-G04-002", "place": "hamlet", "source": "UNDP - 1997"}}, {"type": "node", "id": 1404230511, "lat": 2.6157505, "lon": 45.0951255, "tags": {"name": "Buulo Dhumey", "pcode": "NA-3807-K03-013", "place": "hamlet", "source": "UNDP - 2006"}}, {"type": "node", "id": 1404230645, "lat": 2.869149, "lon": 45.3222203, "tags": {"name": "Tarede", "pcode": "NA-3807-D08-006", "place": "hamlet", "source": "UNDP - 1997"}}, {"type": "node", "id": 1404230678, "lat": 2.6065929, "lon": 45.1356589, "tags": {"name": "Bukuraar", "pcode": "NA-3807-K03-009", "place": "village", "source": "UNDP - 2006"}}, {"type": "node", "id": 1404230713, "lat": 2.80982, "lon": 45.15688, "tags": {"alt_name": "Weceel Boore", "name": "Weel Boore", "pcode": "NA-3807-E04-006", "place": "village", "source": "UNDP - 2006"}}, {"type": "node", "id": 1404230723, "lat": 2.6746452, "lon": 45.2206124, "tags": {"name": "Kirshiga", "pcode": "NA-3807-H05-002", "place": "village", "source": "UNDP - 2006"}}, {"type": "node", "id": 1404230813, "lat": 2.5941, "lon": 45.18181, "tags": {"alt_name": "Xaan Shooleey", "name": "Xaanshooleey", "pcode": "NA-3807-K04-002", "place": "locality", "source": "UNDP - 2006"}}, {"type": "node", "id": 1404230830, "lat": 2.66876, "lon": 45.09864, "tags": {"alt_name": "Buulo Aasii 1", "name": "Bulo Asii I", "pcode": "NA-3807-H03-001", "place": "village", "source": "UNDP - 2006"}}, {"type": "node", "id": 1404230863, "lat": 2.85348, "lon": 45.40715, "tags": {"alt_name": "Libahle", "name": "Libaaxle", "pcode": "NA-3807-D09-002", "place": "locality", "source": "UNDP - 2006, UNDP - 1997"}}, {"type": "node", "id": 1404230888, "lat": 2.80678, "lon": 45.12331, "tags": {"alt_name": "Jameeco Mukhtaa", "name": "Mukhtaar", "pcode": "NA-3807-E03-004", "place": "village", "source": "UNDP - 2006, UNDP - 1997"}}, {"type": "node", "id": 1404230904, "lat": 2.93, "lon": 45.43, "tags": {"name": "Dharkeynle", "pcode": "NA-3807-B10-003", "place": "locality", "source": "UNDP - 1997"}}, {"type": "node", "id": 1404230928, "lat": 2.6326361, "lon": 45.3695924, "tags": {"name": "Garsaalo", "pcode": "NA-3807-J09-001", "place": "village", "source": "UNDP - 2006"}}, {"type": "node", "id": 1404231013, "lat": 2.77233, "lon": 45.4203, "tags": {"name": "Khalafow", "pcode": "NA-3807-F10-004", "place": "hamlet", "source": "UNDP - 2006"}}, {"type": "node", "id": 1404231032, "lat": 2.60333, "lon": 45.32598, "tags": {"name": "Doonka", "pcode": "NA-3807-K08-003", "place": "village", "source": "UNDP - 2006"}}, {"type": "node", "id": 1404231103, "lat": 2.79878, "lon": 45.17622, "tags": {"name": "Joofley", "pcode": "NA-3807-E04-004", "place": "village", "source": "UNDP - 1997"}}, {"type": "node", "id": 1404231104, "lat": 2.63666, "lon": 45.09408, "tags": {"alt_name": "Buulo Abow", "name": "Bulo Abow", "pcode": "NA-3807-J03-003", "place": "locality", "source": "UNDP - 2006"}}, {"type": "node", "id": 1404231193, "lat": 2.94881, "lon": 45.25604, "tags": {"name": "Shanta Garas", "pcode": "NA-3807-B06-001", "place": "locality", "source": "UNDP - 2006"}}, {"type": "node", "id": 1404231361, "lat": 2.79028, "lon": 45.36945, "tags": {"name": "Burdhere", "pcode": "NA-3807-F09-005", "place": "isolated_dwelling", "source": "UNDP - 1997"}}, {"type": "node", "id": 1404231397, "lat": 2.81651, "lon": 45.204929, "tags": {"name": "Duddun Dheer", "pcode": "NA-3807-E05-001", "place": "village", "source": "UNDP - 1997"}}, {"type": "node", "id": 1404231457, "lat": 2.6272431, "lon": 45.137651, "tags": {"alt_name": "Buulo Abdiraman Jenow", "name": "Bulo Ataraman Eenow", "pcode": "NA-3807-J04-002", "place": "village", "source": "UNDP - 2006"}}, {"type": "node", "id": 1404231530, "lat": 2.872, "lon": 45.43754, "tags": {"name": "Hariiri-Uus", "pcode": "NA-3807-D10-003", "place": "isolated_dwelling", "source": "UNDP - 2006"}}, {"type": "node", "id": 1404231587, "lat": 2.92106, "lon": 45.30292, "tags": {"name": "Xudili", "pcode": "NA-3807-B07-002", "place": "locality", "source": "UNDP - 2006"}}, {"type": "node", "id": 1404231636, "lat": 2.60452, "lon": 45.32519, "tags": {"alt_name": "Doodheere", "name": "Doondheere", "pcode": "NA-3807-K08-004", "place": "village", "source": "UNDP - 2006, UNDP - 1997"}}, {"type": "node", "id": 1404231696, "lat": 2.6370325, "lon": 45.3274094, "tags": {"name": "Busley", "pcode": "NA-3807-J08-004", "place": "village", "source": "UNDP - 1997"}}, {"type": "node", "id": 1404231700, "lat": 2.5900241, "lon": 45.1843853, "tags": {"name": "Kabxanka", "pcode": "NA-3807-K05-001", "place": "village", "source": "UNDP - 2006"}}, {"type": "node", "id": 1404231878, "lat": 2.7115975, "lon": 45.2332223, "tags": {"name": "Ood Cad", "pcode": "NA-3807-G06-002", "place": "village", "source": "UNDP - 2006"}}, {"type": "node", "id": 1404231891, "lat": 2.77787, "lon": 45.13195, "tags": {"name": "Labamudul", "pcode": "NA-3807-F03-003", "place": "village", "source": "UNDP - 1997"}}, {"type": "node", "id": 1404232207, "lat": 2.77032, "lon": 45.07348, "tags": {"name": "Qurac Burey", "pcode": "NA-3807-F02-002", "place": "village", "source": "UNDP - 2006"}}, {"type": "node", "id": 1404232430, "lat": 2.6038783, "lon": 45.3921295, "tags": {"name": "Buullo Modow", "pcode": "NA-3807-K09-004", "place": "village", "source": "UNDP - 2006"}}, {"type": "node", "id": 1404232438, "lat": 2.91556, "lon": 45.419998, "tags": {"name": "Sangadale", "pcode": "NA-3807-C10-005", "place": "locality", "source": "UNDP - 1997"}}, {"type": "node", "id": 1404232467, "lat": 2.82372, "lon": 45.3595, "tags": {"alt_name": "Armoley", "name": "Carmooley", "pcode": "NA-3807-E08-002", "place": "locality", "source": "UNDP - 2006, UNDP - 1997"}}, {"type": "node", "id": 1404232614, "lat": 2.6249254, "lon": 45.1396299, "tags": {"alt_name": "Lle", "name": "Lle", "pcode": "NA-3807-J04-001", "place": "village", "source": "UNDP - 2006"}}, {"type": "node", "id": 1404232647, "lat": 2.6551397, "lon": 45.1166419, "tags": {"name": "Hawal Borow", "pcode": "NA-3807-J03-005", "place": "village", "source": "UNDP - 2006"}}, {"type": "node", "id": 1404232683, "lat": 2.59685, "lon": 45.3266, "tags": {"alt_name": "Saarsaaray", "name": "Saar-Saare", "pcode": "NA-3807-K08-001", "place": "village", "source": "UNDP - 2006, UNDP - 1997, FSAU"}}, {"type": "node", "id": 1404232710, "lat": 2.7678, "lon": 45.4014, "tags": {"alt_name": "Ali Mo'Alin", "name": "Cali-Macalin", "pcode": "NA-3807-F09-003", "place": "isolated_dwelling", "source": "UNDP - 2006"}}, {"type": "node", "id": 1404232804, "lat": 2.91, "lon": 45.41, "tags": {"name": "Ceel Benka", "pcode": "NA-3807-C10-004", "place": "locality", "source": "UNDP - 1997"}}, {"type": "node", "id": 1404232810, "lat": 2.6264442, "lon": 45.1237428, "tags": {"alt_name": "Buulo Suleman", "name": "Bulo Seleman", "pcode": "NA-3807-J03-001", "place": "village", "source": "UNDP - 2006"}}, {"type": "node", "id": 1404232949, "lat": 2.84889, "lon": 45.13846, "tags": {"alt_name": "Jiyaale", "name": "Jameeco Jilyaale", "pcode": "NA-3807-D04-001", "place": "village", "source": "UNDP - 2006, UNDP - 1997"}}, {"type": "node", "id": 1404232965, "lat": 2.6359409, "lon": 45.3289916, "tags": {"alt_name": "Harajeeran", "name": "Xero Jeeran", "pcode": "NA-3807-J08-003", "place": "village", "source": "UNDP - 2006, UNDP - 1997"}}, {"type": "node", "id": 1404233102, "lat": 2.71838, "lon": 45.33897, "tags": {"name": "Dooncadayga", "pcode": "NA-3807-G08-001", "place": "village", "source": "UNDP - 1997"}}, {"type": "node", "id": 1404233140, "lat": 2.7338439, "lon": 45.4575501, "tags": {"name": "Garasley", "pcode": "NA-3807-G10-003", "place": "village", "source": "UNDP - 2006"}}, {"type": "node", "id": 1404233172, "lat": 2.6124994, "lon": 45.1113762, "tags": {"name": "Qaxarow", "pcode": "NA-3807-K03-012", "place": "village", "source": "UNDP - 2006"}}, {"type": "node", "id": 1404233266, "lat": 2.7755, "lon": 45.267, "tags": {"name": "Raamo", "pcode": "NA-3807-F06-001", "place": "locality", "source": "UNDP - 2006"}}, {"type": "node", "id": 1404233288, "lat": 2.82217, "lon": 45.26912, "tags": {"alt_name": "Bangorio", "name": "Bangoroyo", "pcode": "NA-3807-E06-002", "place": "locality", "source": "UNDP - 2006, UNDP - 1997"}}, {"type": "node", "id": 1404233401, "lat": 2.6511377, "lon": 45.3109593, "tags": {"alt_name": "Calasow", "name": "Calasoow", "pcode": "NA-3807-J07-002", "place": "village", "source": "UNDP - 2006, UNDP - 1997"}}, {"type": "node", "id": 1404233460, "lat": 2.6198628, "lon": 45.3224158, "tags": {"alt_name": "Soohinreeb", "name": "Soodhinreeb", "pcode": "NA-3807-K08-005", "place": "village", "source": "UNDP - 2006, UNDP - 1997"}}, {"type": "node", "id": 1404233476, "lat": 2.7794, "lon": 45.151798, "tags": {"name": "Fantafido", "pcode": "NA-3807-F04-006", "place": "village", "source": "UNDP - 1997"}}, {"type": "node", "id": 1404233533, "lat": 2.6429778, "lon": 45.0792245, "tags": {"name": "Degeelow", "pcode": "NA-3807-J02-004", "place": "village", "source": "UNDP - 1997"}}, {"type": "node", "id": 1404233556, "lat": 2.79723, "lon": 45.1711, "tags": {"name": "Kalax Toox", "pcode": "NA-3807-E04-003", "place": "village", "source": "UNDP - 2006"}}, {"type": "node", "id": 1404233573, "lat": 2.6462925, "lon": 45.1887929, "tags": {"name": "Buulo Raagow", "pcode": "NA-3807-J05-003", "place": "village", "source": "UNDP - 2006"}}, {"type": "node", "id": 1404233579, "lat": 2.59045, "lon": 45.36805, "tags": {"alt_name": "Sh. Ahmed Gabale", "name": "Shiikh-Ahmed Gabale", "pcode": "NA-3807-K09-003", "place": "village", "source": "UNDP - 2006"}}, {"type": "node", "id": 1404233673, "lat": 2.6926781, "lon": 45.3369057, "tags": {"alt_name": "Asarmaal", "name": "Casir-Maal", "pcode": "NA-3807-H08-001", "place": "village", "source": "UNDP - 2006, UNDP - 1997"}}, {"type": "node", "id": 1404233684, "lat": 2.5933932, "lon": 45.1347582, "tags": {"name": "Garsare", "pcode": "NA-3807-K03-005", "place": "village", "source": "UNDP - 2006"}}, {"type": "node", "id": 1404233701, "lat": 2.75543, "lon": 45.4366, "tags": {"alt_name": "Cabdule Cade", "name": "Cabdule-Cadde", "pcode": "NA-3807-F10-001", "place": "isolated_dwelling", "source": "UNDP - 2006"}}, {"type": "node", "id": 1404233734, "lat": 2.77203, "lon": 45.44423, "tags": {"alt_name": "Al Warabey", "name": "Cali Waraabey", "pcode": "NA-3807-F10-003", "place": "locality", "source": "UNDP - 2006"}}, {"type": "node", "id": 1404233833, "lat": 2.7705982, "lon": 45.112871, "tags": {"name": "Jiigley", "pcode": "NA-3807-F03-002", "place": "village", "source": "UNDP - 2006"}}, {"type": "node", "id": 1404233845, "lat": 2.8597, "lon": 45.16489, "tags": {"name": "Tiyeegle", "pcode": "NA-3807-D04-002", "place": "village", "source": "UNDP - 1997"}}, {"type": "node", "id": 1404234084, "lat": 2.60907, "lon": 45.11125, "tags": {"name": "Raamo Shariif 2", "pcode": "NA-3807-K03-010", "place": "hamlet", "source": "UNDP - 2006"}}, {"type": "node", "id": 6315960839, "lat": 2.970069, "lon": 45.4119637, "tags": {"place": "isolated_dwelling", "source": "UNSOA II: E045N02_02, SPOT5 image based data capture using different Ancillary Sources coming from UNSOA field mission", "source:date": "2006-01-08"}}, {"type": "node", "id": 6315960840, "lat": 2.9809313, "lon": 45.3326489, "tags": {"place": "isolated_dwelling", "source": "UNSOA II: E045N02_02, SPOT5 image based data capture using different Ancillary Sources coming from UNSOA field mission", "source:date": "2006-01-08"}}, {"type": "node", "id": 6315960841, "lat": 2.9814881, "lon": 45.3332985, "tags": {"place": "isolated_dwelling", "source": "UNSOA II: E045N02_02, SPOT5 image based data capture using different Ancillary Sources coming from UNSOA field mission", "source:date": "2006-01-08"}}, {"type": "node", "id": 6315961937, "lat": 2.9254232, "lon": 45.3085238, "tags": {"place": "isolated_dwelling"}}, {"type": "node", "id": 6315962139, "lat": 2.8597633, "lon": 45.3604594, "tags": {"place": "isolated_dwelling"}}, {"type": "node", "id": 6315962275, "lat": 2.8829637, "lon": 45.4345008, "tags": {"name": "Gumar Gaalo", "place": "locality", "source": "UNSOA II: E045N02_02, SPOT5 image based data capture using different Ancillary Sources coming from UNSOA field mission", "source:date": "2006-01-08"}}, {"type": "node", "id": 6318479458, "lat": 2.911834, "lon": 45.4545419, "tags": {"place": "hamlet"}}, {"type": "node", "id": 6318555163, "lat": 2.8984509, "lon": 45.3731194, "tags": {"place": "hamlet"}}, {"type": "node", "id": 6318555164, "lat": 2.9005992, "lon": 45.3706813, "tags": {"place": "isolated_dwelling"}}, {"type": "node", "id": 6318555165, "lat": 2.9001921, "lon": 45.3719553, "tags": {"place": "hamlet"}}, {"type": "node", "id": 6318555166, "lat": 2.9051531, "lon": 45.3736371, "tags": {"place": "hamlet"}}, {"type": "node", "id": 6318555167, "lat": 2.9077703, "lon": 45.3715315, "tags": {"place": "hamlet"}}, {"type": "node", "id": 6318555168, "lat": 2.9087534, "lon": 45.3717166, "tags": {"place": "hamlet"}}, {"type": "node", "id": 6318557645, "lat": 2.8206619, "lon": 45.2939701, "tags": {"place": "isolated_dwelling"}}, {"type": "node", "id": 6320553059, "lat": 2.9620948, "lon": 45.3256342, "tags": {"place": "hamlet"}}, {"type": "node", "id": 6323231548, "lat": 2.9242472, "lon": 45.3774834, "tags": {"place": "isolated_dwelling"}}, {"type": "node", "id": 6323231693, "lat": 2.9363978, "lon": 45.3933299, "tags": {"place": "isolated_dwelling"}}, {"type": "node", "id": 6323231694, "lat": 2.9370862, "lon": 45.3936383, "tags": {"place": "isolated_dwelling"}}, {"type": "node", "id": 6323233984, "lat": 2.9347665, "lon": 45.4364839, "tags": {"place": "isolated_dwelling"}}, {"type": "node", "id": 6323234185, "lat": 2.9339977, "lon": 45.436787, "tags": {"place": "isolated_dwelling"}}, {"type": "node", "id": 6323235409, "lat": 2.9272822, "lon": 45.4206857, "tags": {"place": "isolated_dwelling"}}, {"type": "node", "id": 6323236954, "lat": 2.9690425, "lon": 45.430398, "tags": {"place": "hamlet"}}, {"type": "node", "id": 6324977261, "lat": 2.9318976, "lon": 45.2516247, "tags": {"place": "isolated_dwelling"}}, {"type": "node", "id": 6325327470, "lat": 2.809887, "lon": 45.4075778, "tags": {"place": "hamlet"}}, {"type": "node", "id": 6325327471, "lat": 2.8113364, "lon": 45.4090181, "tags": {"place": "hamlet"}}, {"type": "node", "id": 6325427057, "lat": 2.9884461, "lon": 45.2949277, "tags": {"place": "hamlet"}}, {"type": "node", "id": 6325644008, "lat": 2.8980169, "lon": 45.3591545, "tags": {"place": "hamlet"}}, {"type": "node", "id": 6325644555, "lat": 2.8190866, "lon": 45.347165, "tags": {"place": "hamlet"}}, {"type": "node", "id": 6325644567, "lat": 2.8218299, "lon": 45.351128, "tags": {"place": "hamlet"}}, {"type": "node", "id": 6325644763, "lat": 2.8287563, "lon": 45.322022, "tags": {"place": "hamlet"}}, {"type": "node", "id": 6325645571, "lat": 2.8651639, "lon": 45.4468319, "tags": {"place": "isolated_dwelling"}}, {"type": "node", "id": 6330478344, "lat": 2.8218848, "lon": 45.3058255, "tags": {"place": "isolated_dwelling"}}, {"type": "node", "id": 6330478936, "lat": 2.8229336, "lon": 45.3111523, "tags": {"place": "isolated_dwelling"}}, {"type": "node", "id": 6330479300, "lat": 2.8141547, "lon": 45.2730905, "tags": {"place": "isolated_dwelling"}}, {"type": "node", "id": 6330569382, "lat": 2.8831054, "lon": 45.3347866, "tags": {"place": "isolated_dwelling"}}, {"type": "node", "id": 6330983817, "lat": 2.8460273, "lon": 45.3366749, "tags": {"place": "isolated_dwelling"}}, {"type": "node", "id": 6331141463, "lat": 2.7980325, "lon": 45.2916768, "tags": {"place": "isolated_dwelling"}}, {"type": "node", "id": 6331141464, "lat": 2.796267, "lon": 45.3101479, "tags": {"place": "isolated_dwelling"}}, {"type": "node", "id": 6331142891, "lat": 2.8022251, "lon": 45.3134966, "tags": {"place": "isolated_dwelling"}}, {"type": "node", "id": 6332577769, "lat": 2.8287898, "lon": 45.3082958, "tags": {"place": "isolated_dwelling"}}, {"type": "node", "id": 6332577987, "lat": 2.8245142, "lon": 45.3083548, "tags": {"place": "isolated_dwelling"}}, {"type": "node", "id": 6332577988, "lat": 2.8247982, "lon": 45.307298, "tags": {"place": "isolated_dwelling"}}, {"type": "node", "id": 6332578029, "lat": 2.8465604, "lon": 45.2553999, "tags": {"place": "isolated_dwelling"}}, {"type": "node", "id": 6332578030, "lat": 2.8461398, "lon": 45.256682, "tags": {"place": "isolated_dwelling"}}, {"type": "node", "id": 6332578067, "lat": 2.8438467, "lon": 45.2538443, "tags": {"place": "isolated_dwelling"}}, {"type": "node", "id": 6332578517, "lat": 2.7924869, "lon": 45.298668, "tags": {"place": "isolated_dwelling"}}, {"type": "node", "id": 6332784472, "lat": 2.9871095, "lon": 45.4234779, "tags": {"place": "isolated_dwelling"}}, {"type": "node", "id": 6332784924, "lat": 2.813004, "lon": 45.2885386, "tags": {"place": "isolated_dwelling"}}, {"type": "node", "id": 6332982574, "lat": 2.9105549, "lon": 45.4083315, "tags": {"place": "isolated_dwelling"}}, {"type": "node", "id": 6332983970, "lat": 2.9763323, "lon": 45.4491788, "tags": {"place": "isolated_dwelling"}}, {"type": "node", "id": 6333240238, "lat": 2.8004516, "lon": 45.3231311, "tags": {"place": "isolated_dwelling"}}, {"type": "node", "id": 6333241308, "lat": 2.830499, "lon": 45.3705579, "tags": {"place": "isolated_dwelling"}}, {"type": "node", "id": 6333242478, "lat": 2.9149092, "lon": 45.3911278, "tags": {"place": "isolated_dwelling"}}, {"type": "node", "id": 6333396418, "lat": 2.9445758, "lon": 45.3038084, "tags": {"place": "isolated_dwelling"}}, {"type": "node", "id": 6333396441, "lat": 2.9456231, "lon": 45.2972129, "tags": {"place": "isolated_dwelling"}}, {"type": "node", "id": 6333396481, "lat": 2.9620245, "lon": 45.2863714, "tags": {"place": "isolated_dwelling"}}, {"type": "node", "id": 6333455364, "lat": 2.8948452, "lon": 45.3610951, "tags": {"place": "isolated_dwelling"}}, {"type": "node", "id": 6333455486, "lat": 2.8858605, "lon": 45.366033, "tags": {"place": "isolated_dwelling"}}, {"type": "node", "id": 6334966639, "lat": 2.8702082, "lon": 45.4606721, "tags": {"place": "isolated_dwelling"}}, {"type": "node", "id": 6334966806, "lat": 2.7644854, "lon": 45.4205731, "tags": {"place": "isolated_dwelling"}}, {"type": "node", "id": 6335094900, "lat": 2.8596133, "lon": 45.2942893, "tags": {"place": "isolated_dwelling"}}, {"type": "node", "id": 6335095006, "lat": 2.9082364, "lon": 45.3757989, "tags": {"place": "isolated_dwelling"}}, {"type": "node", "id": 6335095314, "lat": 2.9132349, "lon": 45.3684363, "tags": {"place": "isolated_dwelling"}}, {"type": "node", "id": 6335095370, "lat": 2.9185388, "lon": 45.366725, "tags": {"place": "isolated_dwelling"}}, {"type": "node", "id": 6335095371, "lat": 2.9144779, "lon": 45.3733058, "tags": {"place": "hamlet"}}, {"type": "node", "id": 6335095372, "lat": 2.9136153, "lon": 45.3723925, "tags": {"place": "isolated_dwelling"}}, {"type": "node", "id": 6335095528, "lat": 2.8947434, "lon": 45.342164, "tags": {"place": "isolated_dwelling"}}, {"type": "node", "id": 6335096019, "lat": 2.9656701, "lon": 45.327782, "tags": {"place": "isolated_dwelling"}}, {"type": "node", "id": 6335096020, "lat": 2.9653165, "lon": 45.3288656, "tags": {"place": "isolated_dwelling"}}, {"type": "node", "id": 6335172901, "lat": 2.7831076, "lon": 45.2915293, "tags": {"place": "isolated_dwelling"}}, {"type": "node", "id": 6335251793, "lat": 2.8376276, "lon": 45.2922508, "tags": {"place": "isolated_dwelling"}}, {"type": "node", "id": 6335252193, "lat": 2.8591472, "lon": 45.2916715, "tags": {"place": "isolated_dwelling"}}, {"type": "node", "id": 6335252194, "lat": 2.8555173, "lon": 45.292798, "tags": {"place": "isolated_dwelling"}}, {"type": "node", "id": 6335252215, "lat": 2.8373758, "lon": 45.3148752, "tags": {"place": "isolated_dwelling"}}, {"type": "node", "id": 6335252216, "lat": 2.8279299, "lon": 45.3217712, "tags": {"place": "isolated_dwelling"}}, {"type": "node", "id": 6335252677, "lat": 2.9292055, "lon": 45.3316873, "tags": {"place": "hamlet"}}, {"type": "node", "id": 6335292835, "lat": 2.8114917, "lon": 45.3858948, "tags": {"place": "isolated_dwelling"}}, {"type": "node", "id": 6335468763, "lat": 2.8555414, "lon": 45.3245392, "tags": {"place": "isolated_dwelling"}}, {"type": "node", "id": 6335640169, "lat": 2.9611405, "lon": 45.3971145, "tags": {"place": "isolated_dwelling"}}, {"type": "node", "id": 6337132140, "lat": 2.9807935, "lon": 45.4503965, "tags": {"place": "isolated_dwelling"}}, {"type": "node", "id": 6337132141, "lat": 2.9812328, "lon": 45.4484653, "tags": {"place": "isolated_dwelling"}}, {"type": "node", "id": 6337883855, "lat": 2.9754202, "lon": 45.2796122, "tags": {"place": "isolated_dwelling"}}, {"type": "node", "id": 6357736892, "lat": 2.7163332, "lon": 45.1810705, "tags": {"place": "village"}}, {"type": "node", "id": 6357736893, "lat": 2.7388436, "lon": 45.1880658, "tags": {"place": "hamlet"}}, {"type": "node", "id": 6358664159, "lat": 2.7133914, "lon": 45.1870626, "tags": {"place": "hamlet"}}, {"type": "node", "id": 6358664160, "lat": 2.7126653, "lon": 45.1951093, "tags": {"place": "hamlet"}}, {"type": "node", "id": 6358814032, "lat": 2.7152589, "lon": 45.1980731, "tags": {"place": "hamlet"}}, {"type": "node", "id": 6572264397, "lat": 2.6218, "lon": 45.2143, "tags": {"name": "Bardhiile", "place": "locality", "source": "UNSOA III: SPOT5 image based data capture using different Ancillary Sources coming from UNSOA field mission", "source:date": "2014-02-17"}}, {"type": "node", "id": 6572264398, "lat": 2.6476, "lon": 45.2438, "tags": {"name": "Hararta Geeljira", "place": "locality", "source": "UNSOA III: SPOT5 image based data capture using different Ancillary Sources coming from UNSOA field mission", "source:date": "2014-02-17"}}, {"type": "node", "id": 6572264399, "lat": 2.6524, "lon": 45.2149, "tags": {"name": "Muryaale", "place": "locality", "source": "UNSOA III: SPOT5 image based data capture using different Ancillary Sources coming from UNSOA field mission", "source:date": "2014-02-17"}}, {"type": "node", "id": 6572264400, "lat": 2.631, "lon": 45.1861, "tags": {"name": "Shoongale", "place": "locality", "source": "UNSOA III: SPOT5 image based data capture using different Ancillary Sources coming from UNSOA field mission", "source:date": "2014-02-17"}}, {"type": "node", "id": 6572264401, "lat": 2.6518, "lon": 45.1562, "tags": {"name": "Baadiyow", "place": "locality", "source": "UNSOA III: SPOT5 image based data capture using different Ancillary Sources coming from UNSOA field mission", "source:date": "2014-02-17"}}, {"type": "node", "id": 6574636304, "lat": 2.7272866, "lon": 45.0971116, "tags": {"place": "hamlet", "source": "UNSOA III: SPOT5 image based data capture using different Ancillary Sources coming from UNSOA field mission", "source:date": "2014-02-17"}}, {"type": "node", "id": 6574636324, "lat": 2.7468625, "lon": 45.0769195, "tags": {"place": "hamlet", "source": "UNSOA III: SPOT5 image based data capture using different Ancillary Sources coming from UNSOA field mission", "source:date": "2014-02-17"}}, {"type": "node", "id": 6574636325, "lat": 2.7498791, "lon": 45.0746367, "tags": {"place": "hamlet", "source": "UNSOA III: SPOT5 image based data capture using different Ancillary Sources coming from UNSOA field mission", "source:date": "2014-02-17"}}, {"type": "node", "id": 6574636344, "lat": 2.73825, "lon": 45.1985055, "tags": {"place": "hamlet", "source": "UNSOA III: SPOT5 image based data capture using different Ancillary Sources coming from UNSOA field mission", "source:date": "2014-02-17"}}, {"type": "node", "id": 6574636356, "lat": 2.7259588, "lon": 45.0919233, "tags": {"place": "hamlet", "source": "UNSOA III: SPOT5 image based data capture using different Ancillary Sources coming from UNSOA field mission", "source:date": "2014-02-17"}}, {"type": "node", "id": 6574636357, "lat": 2.7299084, "lon": 45.0840074, "tags": {"place": "isolated_dwelling", "source": "UNSOA III: SPOT5 image based data capture using different Ancillary Sources coming from UNSOA field mission", "source:date": "2014-02-17"}}, {"type": "node", "id": 6574636358, "lat": 2.7315169, "lon": 45.0850103, "tags": {"place": "hamlet", "source": "UNSOA III: SPOT5 image based data capture using different Ancillary Sources coming from UNSOA field mission", "source:date": "2014-02-17"}}, {"type": "node", "id": 6574636359, "lat": 2.7314265, "lon": 45.0775449, "tags": {"place": "isolated_dwelling", "source": "UNSOA III: SPOT5 image based data capture using different Ancillary Sources coming from UNSOA field mission", "source:date": "2014-02-17"}}, {"type": "node", "id": 6574694486, "lat": 2.6305964, "lon": 45.0862683, "tags": {"place": "hamlet", "source": "UNSOA III: SPOT5 image based data capture using different Ancillary Sources coming from UNSOA field mission", "source:date": "2014-02-17"}}, {"type": "node", "id": 6574694488, "lat": 2.6421299, "lon": 45.1114324, "tags": {"place": "hamlet", "source": "UNSOA III: SPOT5 image based data capture using different Ancillary Sources coming from UNSOA field mission", "source:date": "2014-02-17"}}, {"type": "node", "id": 6574694489, "lat": 2.6432399, "lon": 45.1126523, "tags": {"place": "hamlet", "source": "UNSOA III: SPOT5 image based data capture using different Ancillary Sources coming from UNSOA field mission", "source:date": "2014-02-17"}}, {"type": "node", "id": 6574694490, "lat": 2.6503833, "lon": 45.1099721, "tags": {"place": "hamlet", "source": "UNSOA III: SPOT5 image based data capture using different Ancillary Sources coming from UNSOA field mission", "source:date": "2014-02-17"}}, {"type": "node", "id": 6574694491, "lat": 2.6211237, "lon": 45.1613021, "tags": {"place": "hamlet", "source": "UNSOA III: SPOT5 image based data capture using different Ancillary Sources coming from UNSOA field mission", "source:date": "2014-02-17"}}, {"type": "node", "id": 6574694492, "lat": 2.6170618, "lon": 45.2226595, "tags": {"place": "hamlet", "source": "UNSOA III: SPOT5 image based data capture using different Ancillary Sources coming from UNSOA field mission", "source:date": "2014-02-17"}}, {"type": "node", "id": 6574694493, "lat": 2.6030057, "lon": 45.2157581, "tags": {"place": "hamlet", "source": "UNSOA III: SPOT5 image based data capture using different Ancillary Sources coming from UNSOA field mission", "source:date": "2014-02-17"}}, {"type": "node", "id": 6574694494, "lat": 2.5979449, "lon": 45.2172864, "tags": {"place": "hamlet", "source": "UNSOA III: SPOT5 image based data capture using different Ancillary Sources coming from UNSOA field mission", "source:date": "2014-02-17"}}, {"type": "node", "id": 6574694542, "lat": 2.6467394, "lon": 45.1252738, "tags": {"place": "village", "source": "UNSOA III: SPOT5 image based data capture using different Ancillary Sources coming from UNSOA field mission", "source:date": "2014-02-17"}}, {"type": "node", "id": 6574694543, "lat": 2.67063, "lon": 45.1428345, "tags": {"place": "hamlet", "source": "UNSOA III: SPOT5 image based data capture using different Ancillary Sources coming from UNSOA field mission", "source:date": "2014-02-17"}}, {"type": "node", "id": 6574694553, "lat": 2.6664083, "lon": 45.1815104, "tags": {"place": "hamlet", "source": "UNSOA III: SPOT5 image based data capture using different Ancillary Sources coming from UNSOA field mission", "source:date": "2014-02-17"}}, {"type": "node", "id": 6574694557, "lat": 2.6906486, "lon": 45.223258, "tags": {"place": "hamlet", "source": "UNSOA III: SPOT5 image based data capture using different Ancillary Sources coming from UNSOA field mission", "source:date": "2014-02-17"}}, {"type": "node", "id": 6574694558, "lat": 2.6925102, "lon": 45.2202712, "tags": {"place": "hamlet", "source": "UNSOA III: SPOT5 image based data capture using different Ancillary Sources coming from UNSOA field mission", "source:date": "2014-02-17"}}, {"type": "node", "id": 6574694559, "lat": 2.6648993, "lon": 45.2020204, "tags": {"place": "hamlet", "source": "UNSOA III: SPOT5 image based data capture using different Ancillary Sources coming from UNSOA field mission", "source:date": "2014-02-17"}}, {"type": "node", "id": 6574694560, "lat": 2.6745075, "lon": 45.2252858, "tags": {"place": "hamlet", "source": "UNSOA III: SPOT5 image based data capture using different Ancillary Sources coming from UNSOA field mission", "source:date": "2014-02-17"}}, {"type": "node", "id": 6574694561, "lat": 2.6870616, "lon": 45.2398359, "tags": {"place": "hamlet", "source": "UNSOA III: SPOT5 image based data capture using different Ancillary Sources coming from UNSOA field mission", "source:date": "2014-02-17"}}, {"type": "node", "id": 6574694567, "lat": 2.6913338, "lon": 45.2472197, "tags": {"place": "hamlet", "source": "UNSOA III: SPOT5 image based data capture using different Ancillary Sources coming from UNSOA field mission", "source:date": "2014-02-17"}}, {"type": "node", "id": 6574694568, "lat": 2.7029493, "lon": 45.2394141, "tags": {"place": "hamlet", "source": "UNSOA III: SPOT5 image based data capture using different Ancillary Sources coming from UNSOA field mission", "source:date": "2014-02-17"}}, {"type": "node", "id": 6574694573, "lat": 2.7203119, "lon": 45.1241268, "tags": {"place": "isolated_dwelling", "source": "UNSOA III: SPOT5 image based data capture using different Ancillary Sources coming from UNSOA field mission", "source:date": "2014-02-17"}}, {"type": "node", "id": 6574694642, "lat": 2.67179, "lon": 45.0995691, "tags": {"place": "hamlet", "source": "UNSOA III: SPOT5 image based data capture using different Ancillary Sources coming from UNSOA field mission", "source:date": "2014-02-17"}}, {"type": "node", "id": 6574694643, "lat": 2.6795911, "lon": 45.1192218, "tags": {"place": "hamlet", "source": "UNSOA III: SPOT5 image based data capture using different Ancillary Sources coming from UNSOA field mission", "source:date": "2014-02-17"}}, {"type": "node", "id": 6574694652, "lat": 2.6917478, "lon": 45.110821, "tags": {"place": "hamlet", "source": "UNSOA III: SPOT5 image based data capture using different Ancillary Sources coming from UNSOA field mission", "source:date": "2014-02-17"}}, {"type": "node", "id": 6574694653, "lat": 2.6898717, "lon": 45.1074813, "tags": {"place": "isolated_dwelling", "source": "UNSOA III: SPOT5 image based data capture using different Ancillary Sources coming from UNSOA field mission", "source:date": "2014-02-17"}}, {"type": "node", "id": 6574694654, "lat": 2.6907057, "lon": 45.1083967, "tags": {"place": "hamlet", "source": "UNSOA III: SPOT5 image based data capture using different Ancillary Sources coming from UNSOA field mission", "source:date": "2014-02-17"}}, {"type": "node", "id": 6574694697, "lat": 2.69594, "lon": 45.1117565, "tags": {"place": "hamlet", "source": "UNSOA III: SPOT5 image based data capture using different Ancillary Sources coming from UNSOA field mission", "source:date": "2014-02-17"}}, {"type": "node", "id": 6574694698, "lat": 2.6961406, "lon": 45.1098993, "tags": {"place": "hamlet", "source": "UNSOA III: SPOT5 image based data capture using different Ancillary Sources coming from UNSOA field mission", "source:date": "2014-02-17"}}, {"type": "node", "id": 6574694830, "lat": 2.7358805, "lon": 45.115335, "tags": {"place": "isolated_dwelling"}}, {"type": "node", "id": 6581215145, "lat": 2.6085069, "lon": 45.1096044, "tags": {"place": "isolated_dwelling"}}, {"type": "node", "id": 6581215179, "lat": 2.5894989, "lon": 45.2148744, "tags": {"place": "isolated_dwelling"}}, {"type": "node", "id": 6581313980, "lat": 2.6186646, "lon": 45.0755605, "tags": {"place": "isolated_dwelling"}}, {"type": "node", "id": 6581424044, "lat": 2.6008049, "lon": 45.074902, "tags": {"place": "isolated_dwelling"}}, {"type": "node", "id": 6583562000, "lat": 2.7244833, "lon": 45.119475, "tags": {"place": "isolated_dwelling"}}, {"type": "node", "id": 6583562078, "lat": 2.7354277, "lon": 45.0970021, "tags": {"place": "isolated_dwelling"}}, {"type": "node", "id": 6583802471, "lat": 2.6971661, "lon": 45.0955403, "tags": {"place": "isolated_dwelling"}}, {"type": "node", "id": 6583802716, "lat": 2.6748599, "lon": 45.0996629, "tags": {"place": "hamlet"}}, {"type": "node", "id": 6584028330, "lat": 2.7379474, "lon": 45.1218165, "tags": {"place": "isolated_dwelling"}}, {"type": "node", "id": 6586167030, "lat": 2.6103651, "lon": 45.1033254, "tags": {"place": "isolated_dwelling"}}, {"type": "node", "id": 6588560302, "lat": 2.6912075, "lon": 45.1539266, "tags": {"place": "isolated_dwelling"}}, {"type": "node", "id": 6588561301, "lat": 2.7442903, "lon": 45.1384422, "tags": {"place": "hamlet"}}, {"type": "node", "id": 6588632859, "lat": 2.7336219, "lon": 45.1599951, "tags": {"place": "isolated_dwelling"}}, {"type": "node", "id": 6588633226, "lat": 2.7264699, "lon": 45.1781054, "tags": {"place": "hamlet"}}, {"type": "node", "id": 6589360890, "lat": 2.6347919, "lon": 45.2433783, "tags": {"place": "hamlet"}}, {"type": "node", "id": 6590450405, "lat": 2.7423265, "lon": 45.192478, "tags": {"place": "hamlet"}}, {"type": "node", "id": 6590505491, "lat": 2.7479553, "lon": 45.2113071, "tags": {"place": "isolated_dwelling"}}, {"type": "node", "id": 6590949419, "lat": 2.6506295, "lon": 45.2477731, "tags": {"place": "hamlet"}}, {"type": "node", "id": 6769068886, "lat": 2.9985396, "lon": 45.3124814, "tags": {"place": "isolated_dwelling"}}, {"type": "node", "id": 6769068967, "lat": 3.0136658, "lon": 45.3115386, "tags": {"place": "isolated_dwelling"}}, {"type": "node", "id": 6769069260, "lat": 3.0200099, "lon": 45.320119, "tags": {"place": "isolated_dwelling"}}, {"type": "node", "id": 6769069264, "lat": 3.0157484, "lon": 45.3198253, "tags": {"place": "isolated_dwelling"}}, {"type": "node", "id": 6769069310, "lat": 3.0177921, "lon": 45.3199165, "tags": {"place": "isolated_dwelling"}}, {"type": "node", "id": 6769335043, "lat": 3.0093387, "lon": 45.294646, "tags": {"place": "isolated_dwelling"}}, {"type": "node", "id": 6769339505, "lat": 3.0199268, "lon": 45.3072149, "tags": {"place": "isolated_dwelling"}}, {"type": "node", "id": 6769339572, "lat": 3.0077182, "lon": 45.310581, "tags": {"place": "isolated_dwelling"}}, {"type": "node", "id": 6769523164, "lat": 3.0004567, "lon": 45.30834, "tags": {"place": "isolated_dwelling"}}, {"type": "node", "id": 6769524209, "lat": 3.0171466, "lon": 45.3200304, "tags": {"place": "isolated_dwelling"}}, {"type": "node", "id": 6931098738, "lat": 2.8975669, "lon": 45.3580213, "tags": {"place": "isolated_dwelling"}}, {"type": "node", "id": 6931098739, "lat": 2.8831335, "lon": 45.3174662, "tags": {"place": "isolated_dwelling"}}, {"type": "node", "id": 6931098740, "lat": 2.892595, "lon": 45.3202128, "tags": {"place": "isolated_dwelling"}}, {"type": "node", "id": 6931098741, "lat": 2.8893483, "lon": 45.3313708, "tags": {"place": "isolated_dwelling"}}, {"type": "node", "id": 6932044853, "lat": 2.839618, "lon": 45.3576565, "tags": {"place": "isolated_dwelling"}}, {"type": "node", "id": 6934426907, "lat": 2.9992809, "lon": 45.3658694, "tags": {"place": "isolated_dwelling"}}, {"type": "node", "id": 6944475641, "lat": 2.8639102, "lon": 45.4436588, "tags": {"place": "isolated_dwelling"}}, {"type": "node", "id": 6979778278, "lat": 2.632366, "lon": 45.2734503, "tags": {"name": "Gabaanis", "place": "locality", "source": "UNSOA II: SPOT5 image based data capture using different Ancillary Sources coming from UNSOA field mission."}}, {"type": "node", "id": 6980043239, "lat": 2.6773945, "lon": 45.4310204, "tags": {"SRC_DATE": "2007-02-12", "SRC_INFO": "UNSOA II: SPOT5 image based data capture using different Ancillary Sources coming from UNSOA field mission.", "name": "Garsaale", "place": "locality"}}, {"type": "node", "id": 7049707169, "lat": 2.6831536, "lon": 45.3359842, "tags": {"place": "isolated_dwelling"}}, {"type": "node", "id": 7049707172, "lat": 2.7194036, "lon": 45.1553321, "tags": {"place": "isolated_dwelling"}}, {"type": "node", "id": 7049707173, "lat": 2.692815, "lon": 45.3285491, "tags": {"place": "isolated_dwelling"}}, {"type": "node", "id": 7049707174, "lat": 2.6997114, "lon": 45.4449302, "tags": {"place": "isolated_dwelling"}}, {"type": "node", "id": 7049707176, "lat": 2.7349535, "lon": 45.4471564, "tags": {"place": "isolated_dwelling"}}, {"type": "node", "id": 7049707177, "lat": 2.7308276, "lon": 45.2935302, "tags": {"place": "isolated_dwelling"}}, {"type": "node", "id": 7051571973, "lat": 2.6386073, "lon": 45.4237997, "tags": {"place": "isolated_dwelling"}}, {"type": "node", "id": 7051571975, "lat": 2.6591324, "lon": 45.4462471, "tags": {"place": "isolated_dwelling"}}, {"type": "node", "id": 7051571980, "lat": 2.672892, "lon": 45.4612005, "tags": {"place": "isolated_dwelling"}}, {"type": "node", "id": 7051571981, "lat": 2.6805976, "lon": 45.436964, "tags": {"place": "isolated_dwelling"}}, {"type": "node", "id": 7051752935, "lat": 2.6627749, "lon": 45.295558, "tags": {"place": "isolated_dwelling"}}, {"type": "node", "id": 7051752936, "lat": 2.6347383, "lon": 45.2433514, "tags": {"place": "isolated_dwelling"}}, {"type": "node", "id": 7051752937, "lat": 2.6634608, "lon": 45.2721262, "tags": {"place": "isolated_dwelling"}}, {"type": "node", "id": 7051752938, "lat": 2.6457772, "lon": 45.0974715, "tags": {"place": "isolated_dwelling"}}, {"type": "node", "id": 7051752939, "lat": 2.6449842, "lon": 45.097729, "tags": {"place": "isolated_dwelling"}}, {"type": "node", "id": 7051752940, "lat": 2.6445735, "lon": 45.0910523, "tags": {"place": "isolated_dwelling"}}, {"type": "node", "id": 7051752964, "lat": 2.6972197, "lon": 45.1087797, "tags": {"place": "isolated_dwelling"}}, {"type": "node", "id": 7051752965, "lat": 2.7204967, "lon": 45.1668334, "tags": {"place": "isolated_dwelling"}}, {"type": "node", "id": 7051752966, "lat": 2.7166494, "lon": 45.165782, "tags": {"place": "isolated_dwelling"}}, {"type": "node", "id": 7051752967, "lat": 2.7215255, "lon": 45.1799869, "tags": {"place": "isolated_dwelling"}}, {"type": "node", "id": 7051782704, "lat": 2.6126172, "lon": 45.2637362, "tags": {"place": "isolated_dwelling"}}, {"type": "node", "id": 7051782705, "lat": 2.6053506, "lon": 45.2064657, "tags": {"place": "isolated_dwelling"}}, {"type": "node", "id": 7051782706, "lat": 2.5908387, "lon": 45.1982045, "tags": {"place": "isolated_dwelling"}}, {"type": "node", "id": 7051782708, "lat": 2.5922534, "lon": 45.1066232, "tags": {"place": "isolated_dwelling"}}, {"type": "node", "id": 7051806407, "lat": 2.5958975, "lon": 45.3879118, "tags": {"place": "isolated_dwelling"}}, {"type": "node", "id": 7052141068, "lat": 2.5972801, "lon": 45.4361379, "tags": {"place": "isolated_dwelling"}}, {"type": "node", "id": 7052141069, "lat": 2.6032231, "lon": 45.4292822, "tags": {"place": "isolated_dwelling"}}, {"type": "node", "id": 7655456464, "lat": 2.9543582, "lon": 45.2633876, "tags": {"name": "Loole", "pcode": "NA-3807-B06-002", "place": "village", "source": "UNDP - 2006"}}, {"type": "node", "id": 7655456465, "lat": 2.964004, "lon": 45.2722281, "tags": {"place": "hamlet"}}, {"type": "node", "id": 7655456466, "lat": 2.7824111, "lon": 45.2661502, "tags": {"place": "village", "source": "UNSOA II: E045N02_02, SPOT5 image based data capture using different Ancillary Sources coming from UNSOA field mission", "source:date": "2006-01-08"}}, {"type": "node", "id": 7655489281, "lat": 2.8190706, "lon": 45.2750257, "tags": {"place": "hamlet"}}, {"type": "node", "id": 7655489282, "lat": 2.827745, "lon": 45.2747038, "tags": {"place": "hamlet"}}, {"type": "node", "id": 7655493086, "lat": 2.8250446, "lon": 45.2699858, "tags": {"place": "village", "source": "UNSOA II: E045N02_02, SPOT5 image based data capture using different Ancillary Sources coming from UNSOA field mission", "source:date": "2006-01-08"}}, {"type": "node", "id": 7655493089, "lat": 2.9839488, "lon": 45.2812296, "tags": {"name": "Islow Abuukar", "pcode": "NA-3807-A07-001", "place": "village", "source": "UNDP - 2006", "source:date": "2006-01-08"}}, {"type": "node", "id": 7655493794, "lat": 2.8042397, "lon": 45.2819109, "tags": {"place": "village"}}, {"type": "node", "id": 7655493795, "lat": 2.798504, "lon": 45.2720538, "tags": {"name": "Raama Jirow", "pcode": "NA-3807-E06-001", "place": "village", "source": "UNSOA II: E045N02_02, SPOT5 image based data capture using different Ancillary Sources coming from UNSOA field mission", "source:date": "2006-01-08"}}, {"type": "node", "id": 7655493796, "lat": 2.7849709, "lon": 45.253509, "tags": {"place": "hamlet"}}, {"type": "node", "id": 7655493799, "lat": 2.7924414, "lon": 45.2521545, "tags": {"place": "village", "source": "UNSOA II: E045N02_02, SPOT5 image based data capture using different Ancillary Sources coming from UNSOA field mission", "source:date": "2006-01-08"}}, {"type": "node", "id": 7655493800, "lat": 2.8087029, "lon": 45.2558318, "tags": {"place": "hamlet"}}, {"type": "node", "id": 7655557429, "lat": 2.7999051, "lon": 45.3837329, "tags": {"place": "hamlet"}}, {"type": "node", "id": 7655557434, "lat": 2.7873217, "lon": 45.3903902, "tags": {"place": "hamlet"}}, {"type": "node", "id": 7655557439, "lat": 2.7921574, "lon": 45.3746509, "tags": {"place": "village"}}, {"type": "node", "id": 7655560201, "lat": 2.78651, "lon": 45.3594938, "tags": {"place": "village"}}, {"type": "node", "id": 7655560216, "lat": 2.8132893, "lon": 45.3530699, "tags": {"place": "hamlet"}}, {"type": "node", "id": 7655560220, "lat": 2.8161237, "lon": 45.3380066, "tags": {"place": "village"}}, {"type": "node", "id": 7655572263, "lat": 2.7756813, "lon": 45.4320314, "tags": {"place": "hamlet"}}, {"type": "node", "id": 7655577425, "lat": 2.7772405, "lon": 45.4239124, "tags": {"place": "village", "source": "UNSOA II: E045N02_02, SPOT5 image based data capture using different Ancillary Sources coming from UNSOA field mission", "source:date": "2006-01-08"}}, {"type": "node", "id": 7655577431, "lat": 2.7756973, "lon": 45.4193312, "tags": {"place": "hamlet"}}, {"type": "node", "id": 7655577437, "lat": 2.784557, "lon": 45.4163566, "tags": {"place": "hamlet"}}, {"type": "node", "id": 7655577438, "lat": 2.802852, "lon": 45.417982, "tags": {"place": "hamlet"}}, {"type": "node", "id": 7655577891, "lat": 2.8110671, "lon": 45.4220939, "tags": {"place": "hamlet"}}, {"type": "node", "id": 7655578308, "lat": 2.8108769, "lon": 45.4081383, "tags": {"place": "isolated_dwelling"}}, {"type": "node", "id": 7655578345, "lat": 2.815754, "lon": 45.3924447, "tags": {"place": "village"}}, {"type": "node", "id": 7655610340, "lat": 2.7491917, "lon": 45.4265973, "tags": {"place": "hamlet"}}, {"type": "node", "id": 7655610341, "lat": 2.7664599, "lon": 45.4338098, "tags": {"alt_name": "Moryan Keynan", "name": "Maryam Keynaan", "pcode": "NA-3807-F10-002", "place": "village"}}, {"type": "node", "id": 7655639957, "lat": 2.8016572, "lon": 45.4510456, "tags": {"place": "village"}}, {"type": "node", "id": 7655639973, "lat": 2.799013, "lon": 45.4475158, "tags": {"place": "village"}}, {"type": "node", "id": 7655639974, "lat": 2.7965885, "lon": 45.4349309, "tags": {"place": "hamlet"}}, {"type": "node", "id": 7655639975, "lat": 2.7973252, "lon": 45.4339452, "tags": {"place": "hamlet"}}, {"type": "node", "id": 7655651226, "lat": 2.8191027, "lon": 45.4495034, "tags": {"place": "village"}}, {"type": "node", "id": 7655651231, "lat": 2.8142913, "lon": 45.4488462, "tags": {"place": "hamlet"}}, {"type": "node", "id": 7655685914, "lat": 3.0017933, "lon": 45.3538531, "tags": {"place": "hamlet"}}, {"type": "node", "id": 7655685929, "lat": 2.8274369, "lon": 45.4610771, "tags": {"place": "hamlet"}}, {"type": "node", "id": 7655698457, "lat": 2.9051853, "lon": 45.4394531, "tags": {"alt_name": "Dabeyley", "name": "Dabeylley", "pcode": "NA-3807-C10-002", "place": "village", "source": "UNSOA II: E045N02_02, SPOT5 image based data capture using different Ancillary Sources coming from UNSOA field mission", "source:date": "2006-01-08"}}, {"type": "node", "id": 7655776733, "lat": 2.8629565, "lon": 45.4577672, "tags": {"place": "hamlet"}}, {"type": "node", "id": 7655776734, "lat": 2.8650353, "lon": 45.4589528, "tags": {"place": "hamlet"}}, {"type": "node", "id": 7655776737, "lat": 2.8961069, "lon": 45.453575, "tags": {"name": "Abaayle Beerdhagax, Cali deer", "place": "hamlet"}}, {"type": "node", "id": 7655776741, "lat": 2.9097191, "lon": 45.4446459, "tags": {"place": "hamlet"}}, {"type": "node", "id": 7655805939, "lat": 2.8374213, "lon": 45.3957117, "tags": {"place": "hamlet"}}, {"type": "node", "id": 7655805942, "lat": 2.8312357, "lon": 45.3861469, "tags": {"place": "hamlet"}}, {"type": "node", "id": 7655805943, "lat": 2.8715824, "lon": 45.4108983, "tags": {"place": "village"}}, {"type": "node", "id": 7656110096, "lat": 2.836181, "lon": 45.3913745, "tags": {"alt_name": "Barako; Barrki", "name": "Baraki", "pcode": "NA-3807-D09-001", "place": "village", "source": "UNSOA II: E045N02_02, SPOT5 image based data capture using different Ancillary Sources coming from UNSOA field mission", "source:date": "2006-01-08"}}, {"type": "node", "id": 7656110097, "lat": 2.8342227, "lon": 45.409112, "tags": {"name": "Baraki", "pcode": "NA-3807-D10-001", "place": "village", "source": "FSAU"}}, {"type": "node", "id": 7656110105, "lat": 2.83538, "lon": 45.4148734, "tags": {"alt_name": "Dumaley; Dhumaley", "name": "Qalimow", "pcode": "NA-3807-D10-002", "place": "village", "source": "UNSOA II: E045N02_02, SPOT5 image based data capture using different Ancillary Sources coming from UNSOA field mission", "source:date": "2006-01-08"}}, {"type": "node", "id": 7656110106, "lat": 2.8354389, "lon": 45.4196477, "tags": {"place": "hamlet"}}, {"type": "node", "id": 7656110109, "lat": 2.8391787, "lon": 45.4026023, "tags": {"place": "village"}}, {"type": "node", "id": 7656138604, "lat": 2.8336373, "lon": 45.3645913, "tags": {"place": "hamlet"}}, {"type": "node", "id": 7656138605, "lat": 2.825204, "lon": 45.3683491, "tags": {"name": "Carmoole", "place": "hamlet"}}, {"type": "node", "id": 7656174973, "lat": 2.905796, "lon": 45.380356, "tags": {"alt_name": "Jariirow", "name": "Gariirow", "pcode": "NA-3807-C09-001", "place": "village", "source": "UNSOA II: E045N02_02, SPOT5 image based data capture using different Ancillary Sources coming from UNSOA field mission", "source:date": "2006-01-08"}}, {"type": "node", "id": 7656175314, "lat": 2.8793215, "lon": 45.3643164, "tags": {"place": "hamlet"}}, {"type": "node", "id": 7656175318, "lat": 2.8683544, "lon": 45.3567472, "tags": {"name": "Qumbure", "pcode": "NA-3807-D08-005", "place": "hamlet", "source": "UNSOA II: E045N02_02, SPOT5 image based data capture using different Ancillary Sources coming from UNSOA field mission", "source:date": "2006-01-08"}}, {"type": "node", "id": 7656175319, "lat": 2.8629967, "lon": 45.3547892, "tags": {"place": "hamlet"}}, {"type": "node", "id": 7656187707, "lat": 2.9676389, "lon": 45.3336534, "tags": {"place": "isolated_dwelling"}}, {"type": "node", "id": 7656187708, "lat": 2.9625669, "lon": 45.3318965, "tags": {"place": "hamlet"}}, {"type": "node", "id": 7656187709, "lat": 2.9604026, "lon": 45.331926, "tags": {"place": "isolated_dwelling"}}, {"type": "node", "id": 7656187710, "lat": 2.960266, "lon": 45.324448, "tags": {"place": "hamlet"}}, {"type": "node", "id": 7656191905, "lat": 2.96087, "lon": 45.3223962, "tags": {"place": "hamlet"}}, {"type": "node", "id": 7656191907, "lat": 2.9003448, "lon": 45.2822274, "tags": {"place": "hamlet"}}, {"type": "node", "id": 7656303643, "lat": 2.8894073, "lon": 45.3656146, "tags": {"place": "hamlet"}}, {"type": "node", "id": 7656303648, "lat": 2.8856248, "lon": 45.3430223, "tags": {"place": "hamlet", "source": "UNSOA II: E045N02_02, SPOT5 image based data capture using different Ancillary Sources coming from UNSOA field mission", "source:date": "2006-01-08"}}, {"type": "node", "id": 7656348630, "lat": 2.8084712, "lon": 45.3010619, "tags": {"place": "hamlet"}}, {"type": "node", "id": 7663199488, "lat": 2.7846025, "lon": 45.2958101, "tags": {"place": "hamlet"}}, {"type": "node", "id": 7663199498, "lat": 2.797644, "lon": 45.4056519, "tags": {"place": "hamlet"}}, {"type": "node", "id": 7663199500, "lat": 2.9873453, "lon": 45.4406909, "tags": {"place": "hamlet"}}, {"type": "node", "id": 7663199501, "lat": 2.9481103, "lon": 45.405727, "tags": {"place": "isolated_dwelling"}}, {"type": "node", "id": 7663214164, "lat": 2.7909947, "lon": 45.2978244, "tags": {"place": "hamlet"}}, {"type": "node", "id": 7663226583, "lat": 2.9237369, "lon": 45.2933773, "tags": {"place": "hamlet"}}, {"type": "node", "id": 7663239288, "lat": 2.8283129, "lon": 45.3659847, "tags": {"place": "hamlet"}}, {"type": "node", "id": 7663239289, "lat": 2.8406199, "lon": 45.3184587, "tags": {"place": "hamlet"}}, {"type": "node", "id": 7663336831, "lat": 2.9510126, "lon": 45.3918815, "tags": {"alt_name": "Garas-Dheere", "name": "Garas Dhere", "pcode": "NA-3807-B09-001", "place": "village", "source": "UNSOA II: E045N02_02, SPOT5 image based data capture using different Ancillary Sources coming from UNSOA field mission", "source:date": "2006-01-08"}}, {"type": "node", "id": 7663387831, "lat": 2.9941702, "lon": 45.3826654, "tags": {"place": "hamlet"}}, {"type": "node", "id": 7663387832, "lat": 2.9938662, "lon": 45.3823476, "tags": {"place": "hamlet"}}, {"type": "node", "id": 7663387846, "lat": 2.9945452, "lon": 45.3819828, "tags": {"place": "hamlet"}}, {"type": "node", "id": 7663419150, "lat": 2.7528179, "lon": 45.3475928, "tags": {"alt_name": "Maarajiido", "name": "Moorajiido", "pcode": "NA-3807-F08-001", "place": "village", "source": "UNDP - 2006, UNDP - 1997, FSAU"}}, {"type": "node", "id": 7663419154, "lat": 2.7676575, "lon": 45.3781137, "tags": {"alt_name": "Gumarey 1", "name": "Gumarrey", "pcode": "NA-3807-F09-002", "place": "village", "source": "UNDP - 2006, UNDP - 1997"}}, {"type": "node", "id": 7663419168, "lat": 2.8353626, "lon": 45.3398533, "tags": {"name": "Bannaan", "place": "hamlet", "source": "UNSOA II: E045N02_02, SPOT5 image based data capture using different Ancillary Sources coming from UNSOA field mission", "source:date": "2006-01-08"}}, {"type": "node", "id": 7679863171, "lat": 2.9629017, "lon": 45.4356806, "tags": {"place": "hamlet"}}, {"type": "node", "id": 7687134979, "lat": 2.8159482, "lon": 45.4003774, "tags": {"place": "hamlet"}}, {"type": "node", "id": 7687729777, "lat": 2.8570951, "lon": 45.4114187, "tags": {"name": "Libaaxle", "place": "hamlet", "source": "UNSOA II: E045N02_02, SPOT5 image based data capture using different Ancillary Sources coming from UNSOA field mission", "source:date": "2006-01-08"}}, {"type": "node", "id": 7690782743, "lat": 2.7969595, "lon": 45.3125337, "tags": {"place": "hamlet"}}, {"type": "node", "id": 7690833304, "lat": 2.8591472, "lon": 45.4022992, "tags": {"name": "Qacdo", "place": "hamlet", "source": "UNSOA II: E045N02_02, SPOT5 image based data capture using different Ancillary Sources coming from UNSOA field mission", "source:date": "2006-01-08"}}, {"type": "node", "id": 7690869177, "lat": 2.8786184, "lon": 45.4014382, "tags": {"place": "hamlet"}}, {"type": "node", "id": 7691358123, "lat": 2.8802498, "lon": 45.4061696, "tags": {"place": "hamlet"}}, {"type": "node", "id": 7698628770, "lat": 2.8248919, "lon": 45.3788942, "tags": {"place": "hamlet"}}, {"type": "node", "id": 7716481835, "lat": 2.5923123, "lon": 45.4099193, "tags": {"place": "hamlet"}}, {"type": "node", "id": 7717130104, "lat": 2.6059722, "lon": 45.3570932, "tags": {"place": "hamlet"}}, {"type": "node", "id": 7719840264, "lat": 2.6375221, "lon": 45.2944717, "tags": {"place": "village"}}, {"type": "node", "id": 7719981648, "lat": 2.6212985, "lon": 45.2957672, "tags": {"place": "hamlet"}}, {"type": "node", "id": 7720666427, "lat": 2.6746496, "lon": 45.2953085, "tags": {"place": "hamlet"}}, {"type": "node", "id": 7720666900, "lat": 2.6821221, "lon": 45.2529404, "tags": {"place": "hamlet"}}, {"type": "node", "id": 7721140154, "lat": 2.6376266, "lon": 45.3738302, "tags": {"place": "hamlet"}}, {"type": "node", "id": 7721284412, "lat": 2.6381571, "lon": 45.3704989, "tags": {"place": "hamlet"}}, {"type": "node", "id": 7723719157, "lat": 2.6352152, "lon": 45.4372162, "tags": {"place": "hamlet"}}, {"type": "node", "id": 7723719158, "lat": 2.6364799, "lon": 45.4419583, "tags": {"place": "hamlet"}}, {"type": "node", "id": 7724507723, "lat": 2.9525796, "lon": 45.2645275, "tags": {"place": "hamlet"}}, {"type": "node", "id": 7724661531, "lat": 2.6768412, "lon": 45.4483956, "tags": {"place": "hamlet"}}, {"type": "node", "id": 7730763265, "lat": 2.7080598, "lon": 45.4149967, "tags": {"place": "hamlet"}}, {"type": "node", "id": 7730763266, "lat": 2.7112642, "lon": 45.4086292, "tags": {"place": "hamlet"}}, {"type": "node", "id": 7730777345, "lat": 2.7397786, "lon": 45.4475547, "tags": {"place": "farm"}}, {"type": "node", "id": 7731021884, "lat": 2.7128342, "lon": 45.4022777, "tags": {"place": "hamlet"}}, {"type": "node", "id": 7731458429, "lat": 2.9989166, "lon": 45.2764821, "tags": {"place": "isolated_dwelling"}}, {"type": "node", "id": 7731458430, "lat": 2.9933827, "lon": 45.2773002, "tags": {"place": "hamlet"}}, {"type": "node", "id": 7731458431, "lat": 2.9947782, "lon": 45.2768147, "tags": {"place": "isolated_dwelling"}}, {"type": "node", "id": 7731658137, "lat": 2.7273822, "lon": 45.335142, "tags": {"name": "Jameeco", "pcode": "NA-3807-G08-002", "place": "village", "source": "UNDP - 1997"}}, {"type": "node", "id": 7731659210, "lat": 2.741646, "lon": 45.3379154, "tags": {"name": "Gaabaney", "place": "village", "source": "UNDP - 2006, UNDP - 1997, FSAU"}}, {"type": "node", "id": 7733269377, "lat": 2.7259943, "lon": 45.3099883, "tags": {"place": "village"}}, {"type": "node", "id": 7733320784, "lat": 2.9471848, "lon": 45.2947506, "tags": {"place": "hamlet"}}, {"type": "node", "id": 7733444543, "lat": 2.7019673, "lon": 45.3084969, "tags": {"alt_name": "Gololley", "name": "Gololey", "pcode": "NA-3807-H07-004", "place": "village", "source": "UNDP - 2006, UNDP - 1997, FSAU"}}, {"type": "node", "id": 7733652873, "lat": 2.9247039, "lon": 45.3666459, "tags": {"place": "hamlet"}}, {"type": "node", "id": 7733875728, "lat": 2.9069171, "lon": 45.364594, "tags": {"place": "isolated_dwelling"}}, {"type": "node", "id": 7733966771, "lat": 2.6871136, "lon": 45.2588546, "tags": {"place": "hamlet"}}, {"type": "node", "id": 7733966772, "lat": 2.6870171, "lon": 45.2541983, "tags": {"place": "hamlet"}}, {"type": "node", "id": 7734018015, "lat": 2.7053243, "lon": 45.2505264, "tags": {"place": "hamlet"}}, {"type": "node", "id": 7734067400, "lat": 2.7070256, "lon": 45.2448884, "tags": {"place": "hamlet"}}, {"type": "node", "id": 7734067401, "lat": 2.7064228, "lon": 45.2451619, "tags": {"place": "hamlet"}}, {"type": "node", "id": 7736493529, "lat": 2.8339133, "lon": 45.327727, "tags": {"place": "isolated_dwelling"}}, {"type": "node", "id": 7736542582, "lat": 2.9283322, "lon": 45.3963339, "tags": {"place": "hamlet"}}, {"type": "node", "id": 7737388365, "lat": 2.7317224, "lon": 45.0754076, "tags": {"place": "isolated_dwelling", "source": "UNSOA III: SPOT5 image based data capture using different Ancillary Sources coming from UNSOA field mission", "source:date": "2014-02-17"}}, {"type": "node", "id": 7737422946, "lat": 2.7510926, "lon": 45.1251975, "tags": {"place": "hamlet"}}, {"type": "node", "id": 7737422953, "lat": 2.7495039, "lon": 45.1263052, "tags": {"place": "hamlet"}}, {"type": "node", "id": 7737457578, "lat": 2.7457665, "lon": 45.1153994, "tags": {"place": "hamlet"}}, {"type": "node", "id": 7737457579, "lat": 2.7487082, "lon": 45.1136023, "tags": {"place": "hamlet"}}, {"type": "node", "id": 7741163209, "lat": 2.733571, "lon": 45.1164079, "tags": {"place": "hamlet"}}, {"type": "node", "id": 7741163210, "lat": 2.7380613, "lon": 45.1146483, "tags": {"place": "hamlet"}}, {"type": "node", "id": 7741163211, "lat": 2.7312482, "lon": 45.1260531, "tags": {"place": "hamlet"}}, {"type": "node", "id": 7741163212, "lat": 2.7310151, "lon": 45.1309589, "tags": {"place": "hamlet"}}, {"type": "node", "id": 7743441742, "lat": 2.7207592, "lon": 45.1302588, "tags": {"place": "hamlet"}}, {"type": "node", "id": 7755994167, "lat": 2.7395938, "lon": 45.210135, "tags": {"place": "hamlet"}}, {"type": "node", "id": 7755994179, "lat": 2.7385355, "lon": 45.2273574, "tags": {"place": "hamlet"}}, {"type": "node", "id": 7756093339, "lat": 2.7260533, "lon": 45.1900238, "tags": {"place": "hamlet"}}, {"type": "node", "id": 7756093340, "lat": 2.7198965, "lon": 45.1793539, "tags": {"place": "hamlet"}}, {"type": "node", "id": 7756210184, "lat": 2.6906019, "lon": 45.2127796, "tags": {"place": "hamlet"}}, {"type": "node", "id": 7756255853, "lat": 2.6919201, "lon": 45.2293798, "tags": {"place": "hamlet"}}, {"type": "node", "id": 7756255854, "lat": 2.6925364, "lon": 45.2309677, "tags": {"place": "hamlet"}}, {"type": "node", "id": 7756255855, "lat": 2.6946047, "lon": 45.2295917, "tags": {"place": "hamlet"}}, {"type": "node", "id": 7756255856, "lat": 2.6954139, "lon": 45.2315283, "tags": {"place": "village"}}, {"type": "node", "id": 7756255857, "lat": 2.6967428, "lon": 45.235852, "tags": {"place": "village"}}, {"type": "node", "id": 7756255858, "lat": 2.6981145, "lon": 45.2341247, "tags": {"place": "hamlet"}}, {"type": "node", "id": 7756325320, "lat": 2.7160171, "lon": 45.2464172, "tags": {"place": "hamlet"}}, {"type": "node", "id": 7756462087, "lat": 2.681889, "lon": 45.2204508, "tags": {"place": "hamlet"}}, {"type": "node", "id": 7756819946, "lat": 2.6858302, "lon": 45.1910645, "tags": {"place": "hamlet"}}, {"type": "node", "id": 7760643963, "lat": 2.6937956, "lon": 45.1468784, "tags": {"place": "hamlet"}}, {"type": "node", "id": 7760643989, "lat": 2.6998935, "lon": 45.1474095, "tags": {"place": "hamlet"}}, {"type": "node", "id": 7761170017, "lat": 2.6881183, "lon": 45.0721514, "tags": {"place": "hamlet"}}, {"type": "node", "id": 7761170018, "lat": 2.6899911, "lon": 45.0736481, "tags": {"place": "hamlet"}}, {"type": "node", "id": 7769406217, "lat": 2.6566527, "lon": 45.097104, "tags": {"place": "hamlet"}}, {"type": "node", "id": 7769406271, "lat": 2.6580941, "lon": 45.0886255, "tags": {"place": "hamlet"}}, {"type": "node", "id": 7769406272, "lat": 2.6544958, "lon": 45.0961035, "tags": {"place": "hamlet"}}, {"type": "node", "id": 7769503262, "lat": 2.6741727, "lon": 45.097045, "tags": {"place": "hamlet"}}, {"type": "node", "id": 7769575714, "lat": 2.6540564, "lon": 45.0704133, "tags": {"place": "hamlet"}}, {"type": "node", "id": 7769575715, "lat": 2.6517629, "lon": 45.0729856, "tags": {"place": "hamlet"}}, {"type": "node", "id": 7769575952, "lat": 2.6517522, "lon": 45.0749731, "tags": {"place": "hamlet"}}, {"type": "node", "id": 7769575982, "lat": 2.6504018, "lon": 45.0839062, "tags": {"place": "hamlet"}}, {"type": "node", "id": 7769576028, "lat": 2.6554443, "lon": 45.0808927, "tags": {"place": "hamlet"}}, {"type": "node", "id": 7769576029, "lat": 2.6555776, "lon": 45.0794625, "tags": {"place": "hamlet"}}, {"type": "node", "id": 7769822928, "lat": 2.6502223, "lon": 45.1069732, "tags": {"place": "village"}}, {"type": "node", "id": 7769858955, "lat": 2.6786739, "lon": 45.11655, "tags": {"place": "hamlet"}}, {"type": "node", "id": 7770049501, "lat": 2.6647924, "lon": 45.1538998, "tags": {"place": "hamlet"}}, {"type": "node", "id": 7770049502, "lat": 2.665556, "lon": 45.1529315, "tags": {"place": "hamlet"}}, {"type": "node", "id": 7770049503, "lat": 2.668932, "lon": 45.1591623, "tags": {"place": "hamlet"}}, {"type": "node", "id": 7770169068, "lat": 2.6484646, "lon": 45.14485, "tags": {"place": "hamlet"}}, {"type": "node", "id": 7770169069, "lat": 2.6476956, "lon": 45.1419774, "tags": {"place": "hamlet"}}, {"type": "node", "id": 7770169080, "lat": 2.64537, "lon": 45.1395527, "tags": {"place": "hamlet"}}, {"type": "node", "id": 7770169081, "lat": 2.6465971, "lon": 45.137946, "tags": {"place": "hamlet"}}, {"type": "node", "id": 7770177538, "lat": 2.6457183, "lon": 45.1297545, "tags": {"place": "hamlet"}}, {"type": "node", "id": 7770178090, "lat": 2.6546097, "lon": 45.1555487, "tags": {"place": "hamlet"}}, {"type": "node", "id": 7770178091, "lat": 2.6566246, "lon": 45.1514805, "tags": {"place": "hamlet"}}, {"type": "node", "id": 7770178092, "lat": 2.659614, "lon": 45.147897, "tags": {"place": "hamlet"}}, {"type": "node", "id": 7770178188, "lat": 2.6572032, "lon": 45.1482082, "tags": {"name": "Xawaal Miiney", "pcode": "NA-3807-J04-004", "place": "hamlet", "source": "UNDP - 2006"}}, {"type": "node", "id": 7770178395, "lat": 2.6670209, "lon": 45.1349861, "tags": {"place": "hamlet"}}, {"type": "node", "id": 7770229073, "lat": 2.6425834, "lon": 45.1586553, "tags": {"place": "hamlet"}}, {"type": "node", "id": 7770229074, "lat": 2.6461738, "lon": 45.1616085, "tags": {"place": "hamlet"}}, {"type": "node", "id": 7770249911, "lat": 2.6424334, "lon": 45.1287299, "tags": {"name": "Tugarka Xarbiga", "pcode": "NA-3807-J03-004", "place": "village", "source": "UNDP - 2006"}}, {"type": "node", "id": 7780382092, "lat": 2.6435293, "lon": 45.1680699, "tags": {"place": "hamlet"}}, {"type": "node", "id": 7780387575, "lat": 2.6458335, "lon": 45.1698616, "tags": {"place": "hamlet"}}, {"type": "node", "id": 7780387576, "lat": 2.645449, "lon": 45.173842, "tags": {"place": "hamlet"}}, {"type": "node", "id": 7780387577, "lat": 2.651018, "lon": 45.1631588, "tags": {"place": "hamlet"}}, {"type": "node", "id": 7780387578, "lat": 2.6599938, "lon": 45.1697811, "tags": {"place": "hamlet"}}, {"type": "node", "id": 7780387579, "lat": 2.6604198, "lon": 45.1723212, "tags": {"place": "hamlet"}}, {"type": "node", "id": 7780387580, "lat": 2.6630375, "lon": 45.1687807, "tags": {"place": "hamlet"}}, {"type": "node", "id": 7780388935, "lat": 2.6647643, "lon": 45.1883716, "tags": {"place": "hamlet"}}, {"type": "node", "id": 7780388936, "lat": 2.6665635, "lon": 45.1908767, "tags": {"place": "hamlet"}}, {"type": "node", "id": 7780388937, "lat": 2.6777147, "lon": 45.1892245, "tags": {"place": "hamlet"}}, {"type": "node", "id": 7780388938, "lat": 2.6746335, "lon": 45.1755291, "tags": {"place": "hamlet"}}, {"type": "node", "id": 7780467937, "lat": 2.6499704, "lon": 45.179311, "tags": {"name": "Shantakulan", "place": "hamlet", "source": "UNSOA III: SPOT5 image based data capture using different Ancillary Sources coming from UNSOA field mission", "source:date": "2014-02-17"}}, {"type": "node", "id": 7780511066, "lat": 2.6754373, "lon": 45.2139544, "tags": {"place": "hamlet"}}, {"type": "node", "id": 7780511067, "lat": 2.6770127, "lon": 45.2131069, "tags": {"place": "hamlet"}}, {"type": "node", "id": 7780637514, "lat": 2.6660785, "lon": 45.2257991, "tags": {"place": "hamlet"}}, {"type": "node", "id": 7780712876, "lat": 2.6507153, "lon": 45.2152982, "tags": {"place": "hamlet"}}, {"type": "node", "id": 7780730700, "lat": 2.6444268, "lon": 45.1988858, "tags": {"place": "hamlet"}}, {"type": "node", "id": 7780730701, "lat": 2.6491505, "lon": 45.2042958, "tags": {"place": "hamlet"}}, {"type": "node", "id": 7780731318, "lat": 2.6678174, "lon": 45.2026677, "tags": {"place": "hamlet"}}, {"type": "node", "id": 7780810602, "lat": 2.6333959, "lon": 45.2161512, "tags": {"place": "hamlet"}}, {"type": "node", "id": 7780810603, "lat": 2.634607, "lon": 45.2229103, "tags": {"place": "hamlet"}}, {"type": "node", "id": 7780810604, "lat": 2.6323509, "lon": 45.2246082, "tags": {"place": "hamlet"}}, {"type": "node", "id": 7780811292, "lat": 2.6429961, "lon": 45.2277464, "tags": {"place": "hamlet"}}, {"type": "node", "id": 7780811293, "lat": 2.6506912, "lon": 45.2253324, "tags": {"place": "hamlet"}}, {"type": "node", "id": 7780811334, "lat": 2.6544529, "lon": 45.2255738, "tags": {"place": "hamlet"}}, {"type": "node", "id": 7780811335, "lat": 2.659608, "lon": 45.2235488, "tags": {"place": "hamlet"}}, {"type": "node", "id": 7781338711, "lat": 2.6227989, "lon": 45.2135253, "tags": {"place": "hamlet"}}, {"type": "node", "id": 7781338712, "lat": 2.6191603, "lon": 45.2180797, "tags": {"place": "village"}}, {"type": "node", "id": 7783948319, "lat": 2.6159718, "lon": 45.1716185, "tags": {"name": "Labi Saar", "pcode": "NA-3807-K04-006", "place": "hamlet", "source": "UNDP - 2006"}}, {"type": "node", "id": 7783948356, "lat": 2.6218933, "lon": 45.1722461, "tags": {"place": "hamlet"}}, {"type": "node", "id": 7783948357, "lat": 2.6293956, "lon": 45.1639473, "tags": {"place": "hamlet"}}, {"type": "node", "id": 7783961052, "lat": 2.6185333, "lon": 45.1534545, "tags": {"alt_name": "Buulo Cabdullahi Maamow", "name": "Bulo Cabdullahi Mamow", "pcode": "NA-3807-K04-008", "place": "village", "source": "UNDP - 2006"}}, {"type": "node", "id": 7783961053, "lat": 2.6186458, "lon": 45.1484978, "tags": {"alt_name": "Tortorow", "name": "Tor Torow", "pcode": "NA-3807-K04-007", "place": "village", "source": "UNDP - 2006"}}, {"type": "node", "id": 7783961054, "lat": 2.6172686, "lon": 45.1431388, "tags": {"alt_name": "Buulo Danooda", "name": "Bulo Danooda", "pcode": "NA-3807-K04-005", "place": "village", "source": "UNDP - 2006"}}, {"type": "node", "id": 7783961055, "lat": 2.6154466, "lon": 45.1410413, "tags": {"name": "Hawal Shire", "pcode": "NA-3807-K04-003", "place": "hamlet", "source": "UNDP - 2006"}}, {"type": "node", "id": 7783961056, "lat": 2.6062401, "lon": 45.1502144, "tags": {"place": "hamlet"}}, {"type": "node", "id": 7783961057, "lat": 2.6034535, "lon": 45.1456654, "tags": {"place": "hamlet"}}, {"type": "node", "id": 7783961058, "lat": 2.6123063, "lon": 45.138005, "tags": {"place": "hamlet"}}, {"type": "node", "id": 7783961059, "lat": 2.6045333, "lon": 45.1159278, "tags": {"place": "hamlet"}}, {"type": "node", "id": 7784184475, "lat": 2.5954607, "lon": 45.1839244, "tags": {"place": "hamlet"}}, {"type": "node", "id": 7784184476, "lat": 2.5942951, "lon": 45.1853192, "tags": {"place": "hamlet"}}, {"type": "node", "id": 7784249880, "lat": 2.6021272, "lon": 45.1771974, "tags": {"place": "hamlet"}}, {"type": "node", "id": 7784249911, "lat": 2.6182359, "lon": 45.1779619, "tags": {"place": "hamlet"}}, {"type": "node", "id": 7784249944, "lat": 2.6248728, "lon": 45.1856679, "tags": {"name": "Baadiyow", "pcode": "NA-3807-K05-005", "place": "hamlet", "source": "UNDP - 2006"}}, {"type": "node", "id": 7784249945, "lat": 2.6250175, "lon": 45.1951897, "tags": {"place": "hamlet"}}, {"type": "node", "id": 7784249966, "lat": 2.6322223, "lon": 45.1810303, "tags": {"place": "hamlet"}}, {"type": "node", "id": 7784411628, "lat": 2.6218102, "lon": 45.2001733, "tags": {"place": "hamlet"}}, {"type": "node", "id": 7784411754, "lat": 2.6278683, "lon": 45.201804, "tags": {"place": "village"}}, {"type": "node", "id": 7784442800, "lat": 2.6093429, "lon": 45.2040785, "tags": {"place": "hamlet"}}, {"type": "node", "id": 7784442801, "lat": 2.6091125, "lon": 45.2025121, "tags": {"place": "hamlet"}}, {"type": "node", "id": 7786790312, "lat": 2.5864711, "lon": 45.1292288, "tags": {"place": "hamlet"}}, {"type": "node", "id": 7786790368, "lat": 2.5939093, "lon": 45.1681155, "tags": {"place": "hamlet"}}, {"type": "node", "id": 7786967344, "lat": 2.5895471, "lon": 45.1828784, "tags": {"place": "hamlet"}}, {"type": "node", "id": 7787296088, "lat": 2.6332002, "lon": 45.0934498, "tags": {"place": "hamlet"}}, {"type": "node", "id": 7787520127, "lat": 2.6153877, "lon": 45.0786906, "tags": {"place": "hamlet"}}, {"type": "node", "id": 7787520128, "lat": 2.6104147, "lon": 45.0774917, "tags": {"place": "hamlet"}}, {"type": "node", "id": 7787535525, "lat": 2.6184811, "lon": 45.0716177, "tags": {"place": "hamlet"}}, {"type": "node", "id": 7787544407, "lat": 2.5983518, "lon": 45.1015592, "tags": {"place": "hamlet"}}, {"type": "node", "id": 7787565787, "lat": 2.5971488, "lon": 45.074556, "tags": {"place": "hamlet"}}, {"type": "node", "id": 7787566043, "lat": 2.6023657, "lon": 45.0764188, "tags": {"place": "hamlet"}}, {"type": "node", "id": 7787617746, "lat": 2.6090562, "lon": 45.1100913, "tags": {"place": "hamlet"}}, {"type": "node", "id": 7787617747, "lat": 2.6103959, "lon": 45.1103193, "tags": {"place": "hamlet"}}, {"type": "node", "id": 7787617748, "lat": 2.6113498, "lon": 45.1106116, "tags": {"place": "hamlet"}}, {"type": "node", "id": 7787670639, "lat": 2.5859124, "lon": 45.1031658, "tags": {"place": "hamlet"}}, {"type": "node", "id": 7787670640, "lat": 2.5857342, "lon": 45.1075807, "tags": {"place": "hamlet"}}, {"type": "node", "id": 7787695532, "lat": 2.5866962, "lon": 45.0795034, "tags": {"place": "hamlet"}}, {"type": "node", "id": 7787695533, "lat": 2.5875992, "lon": 45.0806326, "tags": {"place": "hamlet"}}, {"type": "node", "id": 7787703530, "lat": 2.5883307, "lon": 45.0737916, "tags": {"place": "hamlet"}}, {"type": "node", "id": 7787739237, "lat": 2.5909217, "lon": 45.1117998, "tags": {"place": "hamlet"}}, {"type": "node", "id": 7800525036, "lat": 2.6528775, "lon": 45.4511422, "tags": {"place": "isolated_dwelling"}}, {"type": "node", "id": 7800525102, "lat": 2.6194068, "lon": 45.2937609, "tags": {"place": "isolated_dwelling"}}, {"type": "node", "id": 7800691859, "lat": 2.7480545, "lon": 45.2986908, "tags": {"place": "isolated_dwelling"}}, {"type": "node", "id": 8935229238, "lat": 3.019142, "lon": 45.3344795, "tags": {"place": "hamlet"}}, {"type": "node", "id": 8935229278, "lat": 3.0062075, "lon": 45.3844597, "tags": {"place": "hamlet"}}, {"type": "node", "id": 8935229287, "lat": 3.0201893, "lon": 45.2966576, "tags": {"place": "hamlet"}}, {"type": "node", "id": 8942392376, "lat": 3.0200982, "lon": 45.3265482, "tags": {"place": "isolated_dwelling"}}, {"type": "node", "id": 8942392377, "lat": 3.0205964, "lon": 45.3270686, "tags": {"place": "isolated_dwelling"}}, {"type": "node", "id": 8942392441, "lat": 3.0171813, "lon": 45.3162807, "tags": {"place": "isolated_dwelling"}}, {"type": "node", "id": 8942553671, "lat": 3.0203956, "lon": 45.2790999, "tags": {"place": "isolated_dwelling"}}, {"type": "node", "id": 8942553672, "lat": 3.0200741, "lon": 45.280036, "tags": {"place": "isolated_dwelling"}}, {"type": "node", "id": 8942553673, "lat": 3.0203018, "lon": 45.280087, "tags": {"place": "isolated_dwelling"}}, {"type": "node", "id": 8942553674, "lat": 3.0198813, "lon": 45.2818626, "tags": {"place": "isolated_dwelling"}}, {"type": "node", "id": 8942553675, "lat": 3.0205697, "lon": 45.2816105, "tags": {"place": "isolated_dwelling"}}, {"type": "node", "id": 8942553676, "lat": 3.0201759, "lon": 45.2815998, "tags": {"place": "isolated_dwelling"}}, {"type": "node", "id": 8942553677, "lat": 3.0203125, "lon": 45.2819404, "tags": {"place": "isolated_dwelling"}}, {"type": "node", "id": 8942553678, "lat": 3.0205107, "lon": 45.2818117, "tags": {"place": "isolated_dwelling"}}, {"type": "node", "id": 8942553679, "lat": 3.0210009, "lon": 45.2807468, "tags": {"place": "isolated_dwelling"}}, {"type": "node", "id": 8942553680, "lat": 3.0210411, "lon": 45.2810124, "tags": {"place": "isolated_dwelling"}}, {"type": "node", "id": 8942553681, "lat": 3.0211857, "lon": 45.2809104, "tags": {"place": "isolated_dwelling"}}, {"type": "node", "id": 8942553781, "lat": 3.0098878, "lon": 45.2902043, "tags": {"place": "isolated_dwelling"}}, {"type": "node", "id": 8942553782, "lat": 3.0103217, "lon": 45.290156, "tags": {"place": "isolated_dwelling"}}, {"type": "node", "id": 8942553783, "lat": 3.0103325, "lon": 45.2904618, "tags": {"place": "isolated_dwelling"}}, {"type": "node", "id": 8942553784, "lat": 3.0094539, "lon": 45.2885896, "tags": {"place": "isolated_dwelling"}}, {"type": "node", "id": 8942553785, "lat": 3.008945, "lon": 45.2886593, "tags": {"place": "isolated_dwelling"}}, {"type": "node", "id": 8942553786, "lat": 3.0084254, "lon": 45.2899951, "tags": {"place": "isolated_dwelling"}}, {"type": "node", "id": 8942553788, "lat": 3.0074182, "lon": 45.290789, "tags": {"place": "isolated_dwelling"}}, {"type": "node", "id": 8942553789, "lat": 3.0072736, "lon": 45.2907193, "tags": {"place": "isolated_dwelling"}}, {"type": "node", "id": 8942553790, "lat": 3.0075468, "lon": 45.2888793, "tags": {"place": "isolated_dwelling"}}, {"type": "node", "id": 8942553791, "lat": 3.0075361, "lon": 45.288713, "tags": {"place": "isolated_dwelling"}}, {"type": "node", "id": 8942553792, "lat": 3.0078682, "lon": 45.288713, "tags": {"place": "isolated_dwelling"}}, {"type": "node", "id": 8942553793, "lat": 3.0081093, "lon": 45.2887505, "tags": {"place": "isolated_dwelling"}}, {"type": "node", "id": 8942553794, "lat": 3.0082218, "lon": 45.2897215, "tags": {"place": "isolated_dwelling"}}, {"type": "node", "id": 8942553795, "lat": 3.0084414, "lon": 45.2897322, "tags": {"place": "isolated_dwelling"}}, {"type": "node", "id": 8942553936, "lat": 3.0121217, "lon": 45.2938279, "tags": {"place": "isolated_dwelling"}}, {"type": "node", "id": 8942553937, "lat": 3.0127565, "lon": 45.2931789, "tags": {"place": "isolated_dwelling"}}, {"type": "node", "id": 8942553998, "lat": 3.0204947, "lon": 45.2995276, "tags": {"place": "isolated_dwelling"}}, {"type": "node", "id": 8942553999, "lat": 3.0205188, "lon": 45.2993935, "tags": {"place": "isolated_dwelling"}}, {"type": "node", "id": 8942554000, "lat": 3.0204063, "lon": 45.2985701, "tags": {"place": "isolated_dwelling"}}, {"type": "node", "id": 8942554001, "lat": 3.0203125, "lon": 45.298385, "tags": {"place": "isolated_dwelling"}}, {"type": "node", "id": 8942554002, "lat": 3.0206768, "lon": 45.2967408, "tags": {"place": "isolated_dwelling"}}, {"type": "node", "id": 8942554003, "lat": 3.0207652, "lon": 45.2968374, "tags": {"place": "isolated_dwelling"}}, {"type": "node", "id": 8942554004, "lat": 3.0204277, "lon": 45.2973309, "tags": {"place": "isolated_dwelling"}}, {"type": "node", "id": 8942554005, "lat": 3.0204598, "lon": 45.2971137, "tags": {"place": "isolated_dwelling"}}, {"type": "node", "id": 8942554065, "lat": 3.0207143, "lon": 45.3330338, "tags": {"place": "isolated_dwelling"}}, {"type": "node", "id": 8942554066, "lat": 3.0208911, "lon": 45.3329936, "tags": {"place": "isolated_dwelling"}}, {"type": "node", "id": 8942554067, "lat": 3.0211402, "lon": 45.333192, "tags": {"place": "isolated_dwelling"}}, {"type": "node", "id": 8942554084, "lat": 3.0178349, "lon": 45.3457367, "tags": {"place": "isolated_dwelling"}}, {"type": "node", "id": 8942554085, "lat": 3.018376, "lon": 45.3461149, "tags": {"place": "isolated_dwelling"}}, {"type": "node", "id": 8942554087, "lat": 3.0175992, "lon": 45.3457984, "tags": {"place": "isolated_dwelling"}}, {"type": "node", "id": 8948432571, "lat": 3.002763, "lon": 45.3602421, "tags": {"place": "isolated_dwelling"}}, {"type": "node", "id": 8957084968, "lat": 3.0096401, "lon": 45.2748165, "tags": {"place": "isolated_dwelling"}}, {"type": "node", "id": 8960137962, "lat": 3.0189894, "lon": 45.3059864, "tags": {"place": "isolated_dwelling"}}, {"type": "node", "id": 8960137963, "lat": 3.0191608, "lon": 45.3058255, "tags": {"place": "isolated_dwelling"}}, {"type": "node", "id": 8960137984, "lat": 3.0182072, "lon": 45.2973121, "tags": {"place": "isolated_dwelling"}}, {"type": "node", "id": 8960137985, "lat": 3.0184376, "lon": 45.2969849, "tags": {"place": "isolated_dwelling"}}, {"type": "node", "id": 8979576251, "lat": 3.0137877, "lon": 45.2983582, "tags": {"place": "isolated_dwelling"}}, {"type": "node", "id": 8979576252, "lat": 3.0136056, "lon": 45.2981919, "tags": {"place": "isolated_dwelling"}}, {"type": "node", "id": 8979576253, "lat": 3.0135627, "lon": 45.2983475, "tags": {"place": "isolated_dwelling"}}, {"type": "node", "id": 8979576254, "lat": 3.0162466, "lon": 45.3364027, "tags": {"place": "isolated_dwelling"}}, {"type": "node", "id": 8982631186, "lat": 3.0170608, "lon": 45.2957886, "tags": {"place": "hamlet"}}, {"type": "node", "id": 8982631187, "lat": 3.0172001, "lon": 45.297001, "tags": {"place": "hamlet"}}, {"type": "node", "id": 8982631188, "lat": 3.019209, "lon": 45.2991575, "tags": {"place": "hamlet"}}, {"type": "node", "id": 8982631189, "lat": 3.02065, "lon": 45.2961051, "tags": {"place": "hamlet"}}, {"type": "node", "id": 8982631200, "lat": 3.0167769, "lon": 45.3837704, "tags": {"place": "hamlet"}}, {"type": "node", "id": 8982631202, "lat": 3.0207304, "lon": 45.3257275, "tags": {"place": "hamlet"}}, {"type": "node", "id": 8998967631, "lat": 3.0156653, "lon": 45.3888318, "tags": {"place": "hamlet"}}, {"type": "node", "id": 8998967645, "lat": 3.0167983, "lon": 45.3655261, "tags": {"place": "isolated_dwelling"}}, {"type": "node", "id": 8998983304, "lat": 3.0023665, "lon": 45.3658989, "tags": {"place": "isolated_dwelling"}}, {"type": "node", "id": 9013376334, "lat": 2.7276688, "lon": 45.206915, "tags": {"place": "hamlet"}}, {"type": "node", "id": 9016355572, "lat": 2.7327191, "lon": 45.2078497, "tags": {"place": "hamlet"}}]}