{"version": 0.6, "generator": "Overpass API 0.7.62.1 084b4234", "osm3s": {"timestamp_osm_base": "2024-09-30T21:33:56Z", "copyright": "The data included in this document is from www.openstreetmap.org. The data is made available under ODbL."}, "elements": [{"type": "node", "id": 1150880788, "lat": 14.13333, "lon": 40.73333, "tags": {"is_in:country_code": "ET", "is_in:county": "Ethiopia", "name": "Cududli", "place": "locality", "source": "GeoDatabase"}}, {"type": "node", "id": 1150885698, "lat": 14.16667, "lon": 40.6, "tags": {"is_in:country_code": "ET", "is_in:county": "Ethiopia", "name": "Odar", "place": "locality", "source": "GeoDatabase"}}, {"type": "node", "id": 1150889524, "lat": 14.10016, "lon": 40.64185, "tags": {"is_in:country_code": "ET", "is_in:county": "Ethiopia", "name": "Chibu", "place": "locality", "source": "GeoDatabase"}}, {"type": "node", "id": 1150909033, "lat": 14.11889, "lon": 40.72361, "tags": {"is_in:country_code": "ET", "is_in:county": "Ethiopia", "name": "Santa Yedur Bota", "place": "locality", "source": "GeoDatabase"}}, {"type": "node", "id": 1150925175, "lat": 14.10597, "lon": 40.61153, "tags": {"is_in:country_code": "ET", "is_in:county": "Ethiopia", "name": "Veyma", "place": "locality", "source": "GeoDatabase"}}, {"type": "node", "id": 1150944815, "lat": 14.08333, "lon": 40.75, "tags": {"is_in:country_code": "ET", "is_in:county": "Ethiopia", "name": "Cassali", "place": "locality", "source": "GeoDatabase"}}, {"type": "node", "id": 1150960253, "lat": 14.1, "lon": 40.83333, "tags": {"is_in:country_code": "ET", "is_in:county": "Ethiopia", "name": "Magaheuma", "place": "locality", "source": "GeoDatabase"}}, {"type": "node", "id": 1150969490, "lat": 14.07942, "lon": 40.63313, "tags": {"is_in:country_code": "ET", "is_in:county": "Ethiopia", "name": "Chibu", "place": "locality", "source": "GeoDatabase"}}]}