{"version": 0.6, "generator": "Overpass API 0.7.62.1 084b4234", "osm3s": {"timestamp_osm_base": "2024-09-30T18:32:00Z", "copyright": "The data included in this document is from www.openstreetmap.org. The data is made available under ODbL."}, "elements": [{"type": "node", "id": 44914613, "lat": 0.0333, "lon": 36.3666, "tags": {"ele": "2303", "name": "Nyahururu", "place": "town", "wikidata": "Q948344", "wikipedia": "en:Nyahururu"}}, {"type": "node", "id": 44915457, "lat": 0.05, "lon": 36.2833, "tags": {"name": "Shamenei", "place": "village"}}, {"type": "node", "id": 44915459, "lat": 0.1, "lon": 36.3166, "tags": {"name": "Shamenek", "place": "village"}}, {"type": "node", "id": 44930863, "lat": 0.0631217, "lon": 36.3528967, "tags": {"name": "Maina", "place": "village"}}, {"type": "node", "id": 44931898, "lat": 0.0833, "lon": 36.3333, "tags": {"name": "Kirima", "place": "village"}}, {"type": "node", "id": 45002775, "lat": -0.2, "lon": 36.2666, "tags": {"alt_name": "Dondori", "name": "Dundori", "place": "village", "wikidata": "Q5314902"}}, {"type": "node", "id": 1628914990, "lat": 0.0010302, "lon": 36.228061, "tags": {"name": "Subukia", "place": "village"}}, {"type": "node", "id": 1628931171, "lat": 0.1215364, "lon": 36.3890793, "tags": {"name": "Maeli Saba", "place": "village"}}, {"type": "node", "id": 2612825836, "lat": -0.0724724, "lon": 36.3639193, "tags": {"name": "Ol Joro Orok", "place": "village"}}, {"type": "node", "id": 2612825839, "lat": 0.0278916, "lon": 36.4085673, "tags": {"name": "mairo inya", "place": "village"}}, {"type": "node", "id": 5611434350, "lat": -0.137294, "lon": 36.206949, "tags": {"name": "Kendurumu", "place": "village", "source:name": "GNS"}}, {"type": "node", "id": 6352093078, "lat": 0.0526208, "lon": 36.3624218}, {"type": "node", "id": 6352093079, "lat": 0.0445527, "lon": 36.3469079}, {"type": "node", "id": 6352093080, "lat": 0.0295324, "lon": 36.3429597}, {"type": "node", "id": 6352093081, "lat": 0.0307769, "lon": 36.3486245}, {"type": "node", "id": 6352093082, "lat": 0.0184817, "lon": 36.3531521}, {"type": "node", "id": 6352093083, "lat": 0.0196833, "lon": 36.3647392}, {"type": "node", "id": 6352093084, "lat": 0.0246829, "lon": 36.3786009}, {"type": "node", "id": 6352093085, "lat": 0.028717, "lon": 36.3881281}, {"type": "node", "id": 6352093086, "lat": 0.0327296, "lon": 36.3913682}, {"type": "node", "id": 6352093087, "lat": 0.0300474, "lon": 36.3976339}, {"type": "node", "id": 6352093088, "lat": 0.0352401, "lon": 36.3931921}, {"type": "node", "id": 6352093089, "lat": 0.0382227, "lon": 36.3906172}, {"type": "node", "id": 6352093090, "lat": 0.0418276, "lon": 36.3811544}, {"type": "node", "id": 6352093091, "lat": 0.0433082, "lon": 36.3745025}, {"type": "node", "id": 6352093092, "lat": 0.0473851, "lon": 36.3707903}, {"type": "node", "id": 6352093093, "lat": 0.0523204, "lon": 36.3675717}, {"type": "node", "id": 6352093094, "lat": 0.0218827, "lon": 36.3717988}, {"type": "node", "id": 7927342574, "lat": -0.1983137, "lon": 36.3812972, "tags": {"alt_name": "Rurii", "name": "Rurie", "place": "village"}}, {"type": "node", "id": 7927342575, "lat": -0.1320151, "lon": 36.3788351, "tags": {"alt_name": "Kasuku", "name": "Kasuku", "place": "village"}}, {"type": "node", "id": 8988367473, "lat": -0.17871, "lon": 36.2392736, "tags": {"fixme": "Exact outline unknown.", "name": "Mirangine", "place": "neighbourhood"}}, {"type": "node", "id": 9566094719, "lat": 0.1159033, "lon": 36.2252025, "tags": {"name": "Kiboronjo", "place": "village"}}, {"type": "node", "id": 9566094819, "lat": 0.1124889, "lon": 36.2115625, "tags": {"name": "Giastaff", "place": "village"}}, {"type": "node", "id": 9566094919, "lat": 0.1311869, "lon": 36.229115, "tags": {"name": "Nairobi", "place": "village"}}, {"type": "node", "id": 9566094920, "lat": 0.1306795, "lon": 36.2345675, "tags": {"name": "Kanga", "place": "village"}}, {"type": "node", "id": 9566095018, "lat": 0.123655, "lon": 36.2125943, "tags": {"name": "Squarter", "place": "village"}}, {"type": "node", "id": 9566095117, "lat": 0.1091931, "lon": 36.225793, "tags": {"name": "Nursery", "place": "village"}}, {"type": "node", "id": 9566095217, "lat": 0.107647, "lon": 36.2200453, "tags": {"name": "Kianyororo", "place": "village"}}, {"type": "node", "id": 9566095317, "lat": 0.1058374, "lon": 36.2103063, "tags": {"name": "Kianugu", "place": "village"}}, {"type": "node", "id": 9784065177, "lat": -0.0374841, "lon": 36.2021732, "tags": {"name": "Muchatha", "place": "village"}}, {"type": "node", "id": 9784065182, "lat": 0.001349, "lon": 36.2083015, "tags": {"name": "Githima", "place": "village"}}, {"type": "node", "id": 9784065187, "lat": 0.0095045, "lon": 36.238363, "tags": {"name": "Mwangaza", "place": "village"}}, {"type": "node", "id": 9784065188, "lat": -0.0124219, "lon": 36.2076683, "tags": {"name": "Mutarakwa", "place": "village"}}, {"type": "node", "id": 9784065189, "lat": -0.035417, "lon": 36.2445172, "tags": {"name": "Taribo", "place": "village"}}, {"type": "node", "id": 9784065190, "lat": 0.0367055, "lon": 36.2066235, "tags": {"name": "Kiambogo", "place": "village"}}, {"type": "node", "id": 9784065192, "lat": 0.0133972, "lon": 36.2102369, "tags": {"name": "Ngomongo", "place": "village"}}, {"type": "node", "id": 9784065194, "lat": -0.0209339, "lon": 36.2388529, "tags": {"name": "Dairy", "place": "village"}}, {"type": "node", "id": 9784065195, "lat": -0.0087509, "lon": 36.2298085, "tags": {"name": "Springi", "place": "village"}}, {"type": "node", "id": 9784065196, "lat": -0.0210221, "lon": 36.2344774, "tags": {"name": "Nairobi", "place": "village"}}, {"type": "node", "id": 9784065197, "lat": -0.0159212, "lon": 36.2284868, "tags": {"name": "Karung'o", "place": "village"}}, {"type": "node", "id": 9784065198, "lat": -0.030081, "lon": 36.2137002, "tags": {"name": "Mesopotamia B", "place": "village"}}, {"type": "node", "id": 9784065199, "lat": -0.0401719, "lon": 36.2320558, "tags": {"name": "Huho-Ini", "place": "village"}}, {"type": "node", "id": 9784065200, "lat": -0.0316365, "lon": 36.2244487, "tags": {"name": "Umoja B", "place": "village"}}, {"type": "node", "id": 9784065201, "lat": -0.0246705, "lon": 36.2497793, "tags": {"name": "Mutamaiyo", "place": "village"}}, {"type": "node", "id": 9784065202, "lat": -0.0156199, "lon": 36.244026, "tags": {"name": "Kasarani", "place": "village"}}, {"type": "node", "id": 9784065203, "lat": -0.0095239, "lon": 36.2352789, "tags": {"name": "Makutano", "place": "village"}}, {"type": "node", "id": 9784065204, "lat": -0.0339927, "lon": 36.2085538, "tags": {"name": "Rumathi", "place": "village"}}, {"type": "node", "id": 9784065205, "lat": -0.0528367, "lon": 36.2340433, "tags": {"name": "Ngomongo", "place": "village"}}, {"type": "node", "id": 9784065206, "lat": -0.0234956, "lon": 36.2286467, "tags": {"name": "Mutitu", "place": "village"}}, {"type": "node", "id": 9784065207, "lat": -0.0128452, "lon": 36.2253813, "tags": {"name": "Greenview", "place": "village"}}, {"type": "node", "id": 9784065208, "lat": -0.014984, "lon": 36.2144881, "tags": {"name": "Kariuwa", "place": "village"}}, {"type": "node", "id": 9784065209, "lat": -0.0461943, "lon": 36.2246979, "tags": {"name": "Buruburu", "place": "village"}}, {"type": "node", "id": 9784065210, "lat": -0.0095146, "lon": 36.2209695, "tags": {"name": "Githima A", "place": "village"}}, {"type": "node", "id": 9784065211, "lat": -0.0196262, "lon": 36.2314583, "tags": {"name": "Andu Ikumi", "place": "village"}}, {"type": "node", "id": 9784065212, "lat": -0.0354894, "lon": 36.2172393, "tags": {"name": "Mesopotamia A", "place": "village"}}, {"type": "node", "id": 9784065213, "lat": -0.0398013, "lon": 36.2235779, "tags": {"name": "Umoja A", "place": "village"}}, {"type": "node", "id": 9784065214, "lat": -0.0224627, "lon": 36.2164196, "tags": {"name": "Gatundu", "place": "village"}}, {"type": "node", "id": 9784065215, "lat": -0.0226631, "lon": 36.2227526, "tags": {"name": "Mumoi", "place": "village"}}, {"type": "node", "id": 9784065216, "lat": -0.0062166, "lon": 36.2100175, "tags": {"name": "Githima B", "place": "village"}}, {"type": "node", "id": 9784070875, "lat": -0.0617917, "lon": 36.2118385, "tags": {"name": "Tosha", "place": "village"}}, {"type": "node", "id": 9784070876, "lat": -0.0916119, "lon": 36.2242087, "tags": {"name": "Sawmill", "place": "village"}}, {"type": "node", "id": 9784110017, "lat": -0.0202327, "lon": 36.2072469, "tags": {"name": "Rami", "place": "village"}}, {"type": "node", "id": 9784110018, "lat": -0.016002, "lon": 36.2195883, "tags": {"name": "Mukima", "place": "village"}}, {"type": "node", "id": 9784110019, "lat": -0.0425007, "lon": 36.2065595, "tags": {"name": "Kwa Wairimu", "place": "village"}}, {"type": "node", "id": 9784110020, "lat": -0.0528908, "lon": 36.2026642, "tags": {"name": "Glogon", "place": "village"}}, {"type": "node", "id": 9784110021, "lat": -0.0045086, "lon": 36.2295448, "tags": {"name": "Kagogo", "place": "village"}}, {"type": "node", "id": 9784110022, "lat": 0.0034909, "lon": 36.2368973, "tags": {"name": "Kinyona", "place": "village"}}, {"type": "node", "id": 9784110023, "lat": 0.0121327, "lon": 36.2251804, "tags": {"name": "Morro A", "place": "village"}}, {"type": "node", "id": 9784110024, "lat": 0.0047748, "lon": 36.21692, "tags": {"name": "Morrohill 2", "place": "village"}}, {"type": "node", "id": 9784110025, "lat": -0.0033769, "lon": 36.2323184, "tags": {"name": "Mutundu", "place": "village"}}, {"type": "node", "id": 9784110026, "lat": -0.0002356, "lon": 36.2292185, "tags": {"name": "Nguba 1", "place": "village"}}, {"type": "node", "id": 9784110027, "lat": 0.0014295, "lon": 36.2272726, "tags": {"name": "Police Line", "place": "village"}}, {"type": "node", "id": 9784110028, "lat": -0.0027229, "lon": 36.2372529, "tags": {"name": "Muthaiga", "place": "village"}}, {"type": "node", "id": 9784110029, "lat": -0.0051517, "lon": 36.2374226, "tags": {"name": "Teachers", "place": "village"}}, {"type": "node", "id": 9784110030, "lat": 0.0004514, "lon": 36.2369935, "tags": {"name": "Kware", "place": "village"}}, {"type": "node", "id": 9784110031, "lat": 0.0029547, "lon": 36.2318355, "tags": {"name": "Cereals", "place": "village"}}, {"type": "node", "id": 9784110032, "lat": 0.0104606, "lon": 36.2297278, "tags": {"name": "Posta", "place": "village"}}, {"type": "node", "id": 9784110033, "lat": 0.0046418, "lon": 36.2232032, "tags": {"name": "Morro Kahawa", "place": "village"}}, {"type": "node", "id": 9784110034, "lat": 0.0063198, "lon": 36.2348969, "tags": {"name": "Kanu", "place": "village"}}, {"type": "node", "id": 9784110035, "lat": -0.0025129, "lon": 36.2213027, "tags": {"name": "Lokichogio", "place": "village"}}, {"type": "node", "id": 9784110036, "lat": 0.0039047, "lon": 36.2291072, "tags": {"name": "Sokoni", "place": "village"}}, {"type": "node", "id": 9784110037, "lat": 0.0024264, "lon": 36.2301796, "tags": {"name": "Vineyard Hospital", "place": "village"}}, {"type": "node", "id": 9784110038, "lat": 0.0080516, "lon": 36.2321405, "tags": {"name": "Matano", "place": "village"}}, {"type": "node", "id": 9784110039, "lat": -0.0028729, "lon": 36.2263678, "tags": {"name": "Nguba", "place": "village"}}, {"type": "node", "id": 9784110040, "lat": -0.004606, "lon": 36.2270938, "tags": {"name": "Komothai", "place": "village"}}, {"type": "node", "id": 9784119800, "lat": 0.0883226, "lon": 36.2023223, "tags": {"name": "Ngara A", "place": "village"}}, {"type": "node", "id": 9784119801, "lat": 0.1303764, "lon": 36.2448812, "tags": {"name": "Akuisi Block 5", "place": "village"}}, {"type": "node", "id": 9784119802, "lat": 0.1253416, "lon": 36.2408757, "tags": {"name": "Akuisi Block 4", "place": "village"}}, {"type": "node", "id": 9784119803, "lat": 0.1200289, "lon": 36.2374111, "tags": {"name": "Akuisi Block 3", "place": "village"}}, {"type": "node", "id": 9784119804, "lat": 0.1126097, "lon": 36.2347165, "tags": {"name": "Akuisi Block 2", "place": "village"}}, {"type": "node", "id": 9784119805, "lat": 0.1051598, "lon": 36.2299415, "tags": {"name": "Akuisi Block 1", "place": "village"}}, {"type": "node", "id": 9784119806, "lat": 0.0754717, "lon": 36.2366578, "tags": {"name": "Munanda", "place": "village"}}, {"type": "node", "id": 9784119808, "lat": 0.0776158, "lon": 36.2213086, "tags": {"name": "Chamka A", "place": "village"}}, {"type": "node", "id": 9784119811, "lat": 0.0695292, "lon": 36.2030135, "tags": {"name": "Mogoiywet", "place": "village"}}, {"type": "node", "id": 9784119813, "lat": 0.064708, "lon": 36.2131151, "tags": {"name": "Chamka B", "place": "village"}}, {"type": "node", "id": 9784119814, "lat": 0.0607605, "lon": 36.2036046, "tags": {"name": "Senetwet", "place": "village"}}, {"type": "node", "id": 9784135819, "lat": 0.1047673, "lon": 36.2578715, "tags": {"name": "Mirema", "place": "village"}}, {"type": "node", "id": 9784135821, "lat": 0.1350097, "lon": 36.2620841, "tags": {"name": "Lower Kanyotu", "place": "village"}}, {"type": "node", "id": 9784135823, "lat": 0.078003, "lon": 36.2615126, "tags": {"name": "Kinoru", "place": "village"}}, {"type": "node", "id": 9784135825, "lat": 0.1123921, "lon": 36.2806016, "tags": {"name": "Aden", "place": "village"}}, {"type": "node", "id": 9784135826, "lat": 0.1302849, "lon": 36.2800942, "tags": {"name": "Mericho", "place": "village"}}, {"type": "node", "id": 9784135827, "lat": 0.0939896, "lon": 36.2617042, "tags": {"name": "Manyatta", "place": "village"}}, {"type": "node", "id": 9784135828, "lat": 0.1100076, "lon": 36.2669951, "tags": {"name": "Kaharangware", "place": "village"}}, {"type": "node", "id": 9784135829, "lat": 0.1253859, "lon": 36.2685445, "tags": {"name": "Kanyotu Centre", "place": "village"}}, {"type": "node", "id": 9784135830, "lat": 0.1162446, "lon": 36.2701763, "tags": {"name": "Shamba Maguta", "place": "village"}}, {"type": "node", "id": 9784135831, "lat": 0.058376, "lon": 36.2444487, "tags": {"name": "Ndatho Idp", "place": "village"}}, {"type": "node", "id": 9784135832, "lat": 0.1070245, "lon": 36.2449721, "tags": {"name": "Rhodesia", "place": "village"}}, {"type": "node", "id": 9784135833, "lat": 0.046608, "lon": 36.2087922, "tags": {"name": "Milimani B", "place": "village"}}, {"type": "node", "id": 9784135835, "lat": -0.0125231, "lon": 36.2499158, "tags": {"name": "Dr. Karo", "place": "village"}}, {"type": "node", "id": 9784135836, "lat": 0.0759118, "lon": 36.2137092, "tags": {"name": "Ndururu", "place": "village"}}, {"type": "node", "id": 9784135837, "lat": 0.1281891, "lon": 36.2568415, "tags": {"name": "Communist", "place": "village"}}, {"type": "node", "id": 9784135838, "lat": 0.1214799, "lon": 36.2615626, "tags": {"name": "Pambazuko", "place": "village"}}, {"type": "node", "id": 9784135839, "lat": 0.0576376, "lon": 36.2168886, "tags": {"name": "Sinendet A", "place": "village"}}, {"type": "node", "id": 9784135840, "lat": 0.098652, "lon": 36.233865, "tags": {"name": "Subukia", "place": "village"}}, {"type": "node", "id": 9784135841, "lat": 0.1194936, "lon": 36.2520445, "tags": {"name": "Milima", "place": "village"}}, {"type": "node", "id": 9784135842, "lat": 0.0493216, "lon": 36.2220025, "tags": {"name": "Wei Centre", "place": "village"}}, {"type": "node", "id": 9784135843, "lat": 0.0583741, "lon": 36.2258946, "tags": {"name": "Kipoino", "place": "village"}}, {"type": "node", "id": 9784135844, "lat": 0.1355089, "lon": 36.2492892, "tags": {"name": "Akuisi Block 6", "place": "village"}}, {"type": "node", "id": 9784135845, "lat": 0.0381577, "lon": 36.2158417, "tags": {"name": "Gichomo", "place": "village"}}, {"type": "node", "id": 9784135846, "lat": 0.0572489, "lon": 36.211615, "tags": {"name": "Sinendet B", "place": "village"}}, {"type": "node", "id": 9784135847, "lat": 0.0089211, "lon": 36.2615287, "tags": {"name": "Gloryland", "place": "village"}}, {"type": "node", "id": 9784135848, "lat": 0.0522434, "lon": 36.2114105, "tags": {"name": "Milimani A", "place": "village"}}, {"type": "node", "id": 9784135849, "lat": 0.0917258, "lon": 36.239731, "tags": {"name": "Kapkures", "place": "village"}}, {"type": "node", "id": 9784135850, "lat": 0.0887026, "lon": 36.2286524, "tags": {"name": "Nairobi", "place": "village"}}, {"type": "node", "id": 9784135851, "lat": 0.0863455, "lon": 36.2474524, "tags": {"name": "Shamba Nugu", "place": "village"}}, {"type": "node", "id": 9784135853, "lat": 0.0829528, "lon": 36.2375923, "tags": {"name": "Ngure", "place": "village"}}, {"type": "node", "id": 9784135854, "lat": 0.0685089, "lon": 36.2263598, "tags": {"name": "Kaptarakwa Central", "place": "village"}}, {"type": "node", "id": 9784135855, "lat": 0.0496687, "lon": 36.2570201, "tags": {"name": "Igana", "place": "village"}}, {"type": "node", "id": 9784135856, "lat": 0.0306763, "lon": 36.2354497, "tags": {"name": "South Corner", "place": "village"}}, {"type": "node", "id": 9784135857, "lat": 0.0402383, "lon": 36.2408937, "tags": {"name": "Nyaigi", "place": "village"}}, {"type": "node", "id": 9784135858, "lat": 0.0665562, "lon": 36.2409464, "tags": {"name": "Kericho", "place": "village"}}, {"type": "node", "id": 9784135859, "lat": 0.0791832, "lon": 36.2530343, "tags": {"name": "Kapkeyo", "place": "village"}}, {"type": "node", "id": 9784135860, "lat": 0.0760497, "lon": 36.2439463, "tags": {"name": "Kaptembwa", "place": "village"}}, {"type": "node", "id": 9784135861, "lat": 0.0326251, "lon": 36.2122929, "tags": {"name": "Kagochi", "place": "village"}}, {"type": "node", "id": 9784135862, "lat": 0.0665634, "lon": 36.2365947, "tags": {"name": "Ngeny", "place": "village"}}, {"type": "node", "id": 9784135863, "lat": 0.0513587, "lon": 36.2299872, "tags": {"name": "Shadrick", "place": "village"}}, {"type": "node", "id": 9784135864, "lat": 0.0709928, "lon": 36.2544159, "tags": {"name": "Leshau", "place": "village"}}, {"type": "node", "id": 9784135865, "lat": 0.094267, "lon": 36.2474546, "tags": {"name": "Olmanyatta", "place": "village"}}, {"type": "node", "id": 9784135866, "lat": 0.0819339, "lon": 36.2080925, "tags": {"name": "Kahawa", "place": "village"}}, {"type": "node", "id": 9784135867, "lat": 0.0394042, "lon": 36.2341691, "tags": {"name": "Mugumo", "place": "village"}}, {"type": "node", "id": 9784135868, "lat": 0.0864483, "lon": 36.2180203, "tags": {"name": "Giaitore", "place": "village"}}, {"type": "node", "id": 9784135869, "lat": 0.0649456, "lon": 36.2510047, "tags": {"name": "Kabarak", "place": "village"}}, {"type": "node", "id": 9784135870, "lat": 0.0479776, "lon": 36.2466545, "tags": {"name": "Ndeiya", "place": "village"}}, {"type": "node", "id": 9784135871, "lat": 0.0976062, "lon": 36.2052869, "tags": {"name": "Ngara B", "place": "village"}}, {"type": "node", "id": 9784135872, "lat": 0.0961879, "lon": 36.2129361, "tags": {"name": "Headquarter", "place": "village"}}, {"type": "node", "id": 9784135873, "lat": 0.096199, "lon": 36.2214656, "tags": {"name": "Pombo", "place": "village"}}, {"type": "node", "id": 9784135874, "lat": 0.0193113, "lon": 36.2483531, "tags": {"name": "Gaston", "place": "village"}}, {"type": "node", "id": 9784135875, "lat": 0.0120578, "lon": 36.2470839, "tags": {"name": "Thithinda", "place": "village"}}, {"type": "node", "id": 9784135876, "lat": 0.0153886, "lon": 36.2362291, "tags": {"name": "Looremeta", "place": "village"}}, {"type": "node", "id": 9784135877, "lat": 0.0224578, "lon": 36.2224088, "tags": {"name": "Gituamba", "place": "village", "wikidata": "Q5565164"}}, {"type": "node", "id": 9784135878, "lat": 0.0200913, "lon": 36.258057, "tags": {"name": "Ngano-Ini", "place": "village"}}, {"type": "node", "id": 9784135879, "lat": -0.0040199, "lon": 36.2521088, "tags": {"name": "Kianoe Kirima", "place": "village"}}, {"type": "node", "id": 9784135880, "lat": 0.0362222, "lon": 36.2301603, "tags": {"name": "Kagumo Riverside", "place": "village"}}, {"type": "node", "id": 9784135881, "lat": 0.0305369, "lon": 36.2474632, "tags": {"name": "Kware", "place": "village"}}, {"type": "node", "id": 9784135882, "lat": 0.0315644, "lon": 36.2402981, "tags": {"name": "Kahuti", "place": "village"}}, {"type": "node", "id": 9784135883, "lat": 0.0227815, "lon": 36.2401825, "tags": {"name": "Ngamini", "place": "village"}}, {"type": "node", "id": 9784135884, "lat": 0.0355813, "lon": 36.2235028, "tags": {"name": "Kagumo Highland", "place": "village"}}, {"type": "node", "id": 9784135885, "lat": 0.0299717, "lon": 36.253048, "tags": {"name": "Gathi-Ini", "place": "village"}}, {"type": "node", "id": 9784135886, "lat": 0.0478754, "lon": 36.2355953, "tags": {"name": "Mawe Mbili", "place": "village"}}, {"type": "node", "id": 9784135887, "lat": 0.011069, "lon": 36.2564178, "tags": {"name": "Kigen", "place": "village"}}, {"type": "node", "id": 9784135888, "lat": 0.0310514, "lon": 36.2594781, "tags": {"name": "Githioro", "place": "village"}}, {"type": "node", "id": 9784135889, "lat": 0.0004311, "lon": 36.2420442, "tags": {"name": "Kwa Wanyoike", "place": "village"}}, {"type": "node", "id": 9784135890, "lat": -0.0024245, "lon": 36.2460259, "tags": {"name": "Kianoe Gatagati", "place": "village"}}, {"type": "node", "id": 9784135891, "lat": 0.0010723, "lon": 36.2562531, "tags": {"name": "Kihoto", "place": "village"}}, {"type": "node", "id": 12149287748, "lat": -0.1603372, "lon": 36.2846751, "tags": {"name": "Charagita", "place": "village"}}, {"type": "node", "id": 12149296159, "lat": -0.1097496, "lon": 36.3372206, "tags": {"name": "Kangui", "place": "village"}}, {"type": "node", "id": 12149313806, "lat": -0.1398085, "lon": 36.3143792, "tags": {"name": "Gichaka", "place": "village"}}, {"type": "way", "id": 678386496, "nodes": [6352093078, 6352093079, 6352093080, 6352093081, 6352093082, 6352093083, 6352093094, 6352093084, 6352093085, 6352093086, 6352093087, 6352093088, 6352093089, 6352093090, 6352093091, 6352093092, 6352093093, 6352093078], "tags": {"name": "Nyahururu", "place": "town", "wikidata": "Q948344", "wikipedia": "en:Nyahururu"}}]}