{"version": 0.6, "generator": "Overpass API 0.7.62.1 084b4234", "osm3s": {"timestamp_osm_base": "2024-09-30T20:25:30Z", "copyright": "The data included in this document is from www.openstreetmap.org. The data is made available under ODbL."}, "elements": [{"type": "node", "id": 1404221543, "lat": 6.769095, "lon": 47.08954, "tags": {"name": "Xasasalo", "pcode": "NB-3808-F13-001", "place": "village", "source": "UNDP - 2006"}}, {"type": "node", "id": 1404221618, "lat": 6.6692, "lon": 47.3274, "tags": {"name": "Gelgaris", "pcode": "NB-3808-H19-001", "place": "hamlet", "source": "UNDP - 1997"}}, {"type": "node", "id": 1404222044, "lat": 6.524539, "lon": 47.2362174, "tags": {"name": "Karin", "pcode": "NB-3808-M17-001", "place": "locality", "source": "UNDP - 2006"}}, {"type": "node", "id": 1404222943, "lat": 6.664266, "lon": 47.175442, "tags": {"name": "Kala Foge", "pcode": "NB-3808-J15-001", "place": "village", "source": "INGO - 2010", "verified": "no"}}, {"type": "node", "id": 1404223442, "lat": 6.6271717, "lon": 47.3347475, "tags": {"name": "Xaaran", "pcode": "NB-3808-K19-001", "place": "village", "source": "INGO - 2010", "verified": "no"}}, {"type": "node", "id": 1404223683, "lat": 6.6935022, "lon": 47.3802731, "tags": {"name": "Cel Akhwan", "pcode": "NB-3808-H20-002", "place": "village", "source": "UNDP - 2006"}}, {"type": "node", "id": 1404223799, "lat": 6.708073, "lon": 47.130221, "tags": {"name": "Bulaley", "pcode": "NB-3808-H14-001", "place": "locality", "source": "UNDP - 2006"}}, {"type": "node", "id": 1404224650, "lat": 6.4988591, "lon": 47.1016525, "tags": {"alt_name": "Sadder Higle", "name": "Sadax-Higlo", "pcode": "NB-3808-N14-001", "place": "village", "source": "UNDP - 2006, UNDP - 1997"}}, {"type": "node", "id": 1404224744, "lat": 6.556931, "lon": 47.139267, "tags": {"name": "Shanbarrin", "pcode": "NB-3808-L15-001", "place": "hamlet", "source": "INGO - 2010", "verified": "no"}}, {"type": "node", "id": 1404224794, "lat": 6.705022, "lon": 47.322438, "tags": {"name": "Qoqoorayn", "pcode": "NB-3808-H19-002", "place": "village", "source": "UNDP - 2006"}}, {"type": "node", "id": 1404225004, "lat": 6.679735, "lon": 47.3139, "tags": {"name": "Ber Wabax", "pcode": "NB-3808-H18-001", "place": "locality", "source": "INGO - 2010", "verified": "no"}}, {"type": "node", "id": 1404225847, "lat": 6.61557, "lon": 47.07072, "tags": {"name": "Gowlalo", "pcode": "NB-3808-K13-001", "place": "village", "source": "UNDP - 2006, UNDP - 1997"}}, {"type": "node", "id": 1404226144, "lat": 6.515893, "lon": 47.166009, "tags": {"name": "Karin", "pcode": "NB-3808-M15-001", "place": "hamlet", "source": "INGO - 2010", "verified": "no"}}, {"type": "node", "id": 1404226595, "lat": 6.6452607, "lon": 47.346922, "tags": {"name": "Barag Mire", "pcode": "NB-3808-J19-001", "place": "hamlet", "source": "INGO - 2010", "verified": "no"}}, {"type": "node", "id": 1404226956, "lat": 6.677691, "lon": 47.33528, "tags": {"name": "Qorosaynrc", "pcode": "NB-3808-H19-003", "place": "hamlet", "source": "INGO - 2010", "verified": "no"}}, {"type": "node", "id": 1404227234, "lat": 6.749218, "lon": 47.241973, "tags": {"name": "Khalifcabd", "pcode": "NB-3808-G17-001", "place": "village", "source": "INGO - 2010", "verified": "no"}}, {"type": "node", "id": 1404227252, "lat": 6.702988, "lon": 47.227855, "tags": {"name": "Queydar Dhuunta", "pcode": "NB-3808-H17-001", "place": "village", "source": "UNDP - 2006"}}, {"type": "node", "id": 1404228587, "lat": 6.4502, "lon": 47.301498, "tags": {"name": "Surio", "pcode": "NB-3808-P18-001", "place": "village", "source": "UNDP - 1997"}}, {"type": "node", "id": 1404229295, "lat": 6.6383431, "lon": 47.3650211, "tags": {"name": "Gaarcad", "pcode": "NB-3808-J20-001", "place": "isolated_dwelling", "source": "INGO - 2010", "verified": "no"}}, {"type": "node", "id": 1404229578, "lat": 6.65392, "lon": 47.00984, "tags": {"name": "Dhardhar", "pcode": "NB-3808-J12-001", "place": "village", "source": "UNDP - 2006"}}, {"type": "node", "id": 1404229795, "lat": 6.579548, "lon": 47.139355, "tags": {"name": "Ugabiye", "pcode": "NB-3808-L15-002", "place": "hamlet", "source": "INGO - 2010", "verified": "no"}}, {"type": "node", "id": 1404229860, "lat": 6.693459, "lon": 47.176619, "tags": {"name": "Baraagta Higleyga Iyo", "pcode": "NB-3808-H15-001", "place": "hamlet", "source": "INGO - 2010", "verified": "no"}}, {"type": "node", "id": 1404229896, "lat": 6.6363621, "lon": 47.3414451, "tags": {"name": "Bayle", "pcode": "NB-3808-J19-002", "place": "hamlet", "source": "INGO - 2010", "verified": "no"}}, {"type": "node", "id": 1404230152, "lat": 6.8246478, "lon": 47.16244, "tags": {"name": "Saaxqurun", "pcode": "NB-3808-E15-001", "place": "village", "source": "UNDP - 2006", "wikidata": "Q19901261"}}, {"type": "node", "id": 1404230286, "lat": 6.701247, "lon": 47.183869, "tags": {"name": "Wadad Yare", "pcode": "NB-3808-H16-001", "place": "village", "source": "INGO - 2010", "verified": "no"}}, {"type": "node", "id": 1404231028, "lat": 6.687049, "lon": 47.305752, "tags": {"name": "Sh Ali", "pcode": "NB-3808-H18-003", "place": "locality", "source": "INGO - 2010", "verified": "no"}}, {"type": "node", "id": 1404231356, "lat": 6.695938, "lon": 47.276031, "tags": {"name": "Galmaygagb", "pcode": "NB-3808-H18-002", "place": "hamlet", "source": "INGO - 2010", "verified": "no"}}, {"type": "node", "id": 1404232946, "lat": 6.5533389, "lon": 47.2833027, "tags": {"name": "Dagaari", "pcode": "NB-3808-L18-001", "place": "village", "source": "UNDP - 2006, UNDP - 1997"}}, {"type": "node", "id": 1404233250, "lat": 6.651578, "lon": 47.22737, "tags": {"name": "Farcad", "pcode": "NB-3808-J17-001", "place": "village", "source": "INGO - 2010", "verified": "no"}}, {"type": "node", "id": 1404233333, "lat": 6.70197, "lon": 47.3958, "tags": {"name": "Sangadud", "pcode": "NB-3808-H20-001", "place": "locality", "source": "UNDP - 2006"}}, {"type": "node", "id": 4333469474, "lat": 6.6389744, "lon": 47.3658661}, {"type": "node", "id": 4333469475, "lat": 6.6386813, "lon": 47.3659842}, {"type": "node", "id": 4333469476, "lat": 6.638223, "lon": 47.3654906}, {"type": "node", "id": 4333469477, "lat": 6.6380579, "lon": 47.3649596}, {"type": "node", "id": 4333469478, "lat": 6.6383509, "lon": 47.3646109}, {"type": "node", "id": 4333469479, "lat": 6.6387719, "lon": 47.3644821}, {"type": "way", "id": 435424457, "nodes": [4333469474, 4333469475, 4333469476, 4333469477, 4333469478, 4333469479, 4333469474], "tags": {"name": "Gaarcad", "place": "isolated_dwelling"}}]}