{"version": 0.6, "generator": "Overpass API 0.7.62.1 084b4234", "osm3s": {"timestamp_osm_base": "2024-10-01T00:05:11Z", "copyright": "The data included in this document is from www.openstreetmap.org. The data is made available under ODbL."}, "elements": [{"type": "node", "id": 323331079, "lat": 10.0554338, "lon": 42.0619983, "tags": {"name": "Mello", "place": "village", "wikidata": "Q6860274"}}, {"type": "node", "id": 1150697814, "lat": 9.98528, "lon": 42.21639, "tags": {"is_in:country": "Ethiopia", "is_in:country_code": "ET", "name": "Goua", "place": "locality", "source": "GeoDatabase"}}, {"type": "node", "id": 1150883393, "lat": 9.79972, "lon": 42.30472, "tags": {"is_in:country": "Ethiopia", "is_in:country_code": "ET", "name": "Mitti", "place": "locality", "source": "GeoDatabase"}}, {"type": "node", "id": 1150883690, "lat": 10.17028, "lon": 42.05528, "tags": {"is_in:country": "Ethiopia", "is_in:country_code": "ET", "name": "Kulen Shet'", "place": "locality", "source": "GeoDatabase"}}, {"type": "node", "id": 1150885636, "lat": 9.81833, "lon": 42.41583, "tags": {"is_in:country": "Ethiopia", "is_in:country_code": "ET", "name": "Geror", "place": "locality", "source": "GeoDatabase"}}, {"type": "node", "id": 1150885941, "lat": 10.06361, "lon": 42.49167, "tags": {"is_in:country": "Ethiopia", "is_in:country_code": "ET", "name": "Biyo Anod", "place": "locality", "source": "GeoDatabase"}}, {"type": "node", "id": 1150886327, "lat": 9.74861, "lon": 42.2225, "tags": {"is_in:country": "Ethiopia", "is_in:country_code": "ET", "name": "Amara Terara", "place": "locality", "source": "GeoDatabase"}}, {"type": "node", "id": 1150887182, "lat": 9.82944, "lon": 42.21916, "tags": {"is_in:country": "Ethiopia", "is_in:country_code": "ET", "name": "Jewa Shet'", "place": "locality", "source": "GeoDatabase", "wikidata": "Q23961480"}}, {"type": "node", "id": 1150894544, "lat": 9.86278, "lon": 42.07861, "tags": {"is_in:country": "Ethiopia", "is_in:country_code": "ET", "name": "Amare Wenz", "place": "locality", "source": "GeoDatabase", "wikidata": "Q23962872"}}, {"type": "node", "id": 1150894698, "lat": 10.03361, "lon": 42.25222, "tags": {"is_in:country": "Ethiopia", "is_in:country_code": "ET", "name": "Doba", "place": "locality", "source": "GeoDatabase"}}, {"type": "node", "id": 1150903214, "lat": 9.8375, "lon": 42.2825, "tags": {"is_in:country": "Ethiopia", "is_in:country_code": "ET", "name": "Gobara", "place": "locality", "source": "GeoDatabase"}}, {"type": "node", "id": 1150903488, "lat": 10.1472489, "lon": 42.1253705, "tags": {"is_in:country": "Ethiopia", "is_in:country_code": "ET", "name": "Arido Beyd", "place": "village", "source": "GeoDatabase"}}, {"type": "node", "id": 1150904173, "lat": 10.01389, "lon": 42.42778, "tags": {"is_in:country": "Ethiopia", "is_in:country_code": "ET", "name": "Dadi", "place": "locality", "source": "GeoDatabase"}}, {"type": "node", "id": 1150908701, "lat": 9.85361, "lon": 42.39889, "tags": {"is_in:country": "Ethiopia", "is_in:country_code": "ET", "name": "Goflol", "place": "locality", "source": "GeoDatabase"}}, {"type": "node", "id": 1150909522, "lat": 10.185, "lon": 42.38694, "tags": {"is_in:country": "Ethiopia", "is_in:country_code": "ET", "name": "Gamburo Ado Bota", "place": "locality", "source": "GeoDatabase"}}, {"type": "node", "id": 1150911777, "lat": 10.03333, "lon": 42.38333, "tags": {"is_in:country": "Ethiopia", "is_in:country_code": "ET", "name": "Biye Denan Shet'", "place": "locality", "source": "GeoDatabase"}}, {"type": "node", "id": 1150912253, "lat": 9.83667, "lon": 42.21556, "tags": {"is_in:country": "Ethiopia", "is_in:country_code": "ET", "name": "Salala", "place": "locality", "source": "GeoDatabase", "wikidata": "Q24026333"}}, {"type": "node", "id": 1150917769, "lat": 9.77722, "lon": 42.36694, "tags": {"is_in:country": "Ethiopia", "is_in:country_code": "ET", "name": "Biyehun Shet'", "place": "locality", "source": "GeoDatabase", "wikidata": "Q23962668"}}, {"type": "node", "id": 1150918546, "lat": 9.96667, "lon": 42.21667, "tags": {"is_in:country": "Ethiopia", "is_in:country_code": "ET", "name": "Bussa", "place": "locality", "source": "GeoDatabase"}}, {"type": "node", "id": 1150925624, "lat": 9.8271562, "lon": 42.1470251, "tags": {"is_in:country": "Ethiopia", "is_in:country_code": "ET", "name": "Gudessa", "place": "locality", "source": "GeoDatabase"}}, {"type": "node", "id": 1150926005, "lat": 10.03333, "lon": 42.3, "tags": {"is_in:country": "Ethiopia", "is_in:country_code": "ET", "name": "Dabassa", "place": "locality", "source": "GeoDatabase"}}, {"type": "node", "id": 1150930666, "lat": 10.06667, "lon": 42.11667, "tags": {"is_in:country": "Ethiopia", "is_in:country_code": "ET", "name": "Goba", "place": "locality", "source": "GeoDatabase", "wikidata": "Q24029499"}}, {"type": "node", "id": 1150934960, "lat": 9.74972, "lon": 42.17833, "tags": {"is_in:country": "Ethiopia", "is_in:country_code": "ET", "name": "Okete Shet'", "place": "locality", "source": "GeoDatabase"}}, {"type": "node", "id": 1150937487, "lat": 10.08889, "lon": 42.19305, "tags": {"is_in:country": "Ethiopia", "is_in:country_code": "ET", "name": "Eles Bota", "place": "locality", "source": "GeoDatabase"}}, {"type": "node", "id": 1150948539, "lat": 9.78639, "lon": 42.46556, "tags": {"is_in:country": "Ethiopia", "is_in:country_code": "ET", "name": "Muremedew Bota", "place": "locality", "source": "GeoDatabase"}}, {"type": "node", "id": 1150955413, "lat": 9.82167, "lon": 42.24639, "tags": {"is_in:country": "Ethiopia", "is_in:country_code": "ET", "name": "Hida Shet'", "place": "locality", "source": "GeoDatabase", "wikidata": "Q23961640"}}, {"type": "node", "id": 1150956118, "lat": 9.74917, "lon": 42.47778, "tags": {"is_in:country": "Ethiopia", "is_in:country_code": "ET", "name": "Duleti", "place": "locality", "source": "GeoDatabase"}}, {"type": "node", "id": 1150959819, "lat": 9.77556, "lon": 42.41806, "tags": {"is_in:country": "Ethiopia", "is_in:country_code": "ET", "name": "Semekab Shet'", "place": "locality", "source": "GeoDatabase", "wikidata": "Q23961187"}}, {"type": "node", "id": 1150966808, "lat": 9.82667, "lon": 42.16528, "tags": {"is_in:country": "Ethiopia", "is_in:country_code": "ET", "name": "Ule K'Elo Shet'", "place": "locality", "source": "GeoDatabase", "wikidata": "Q23961088"}}, {"type": "node", "id": 1150967562, "lat": 9.77639, "lon": 42.15778, "tags": {"is_in:country": "Ethiopia", "is_in:country_code": "ET", "name": "K'Ere Jeldesa Shet'", "place": "locality", "source": "GeoDatabase", "wikidata": "Q24027846"}}, {"type": "node", "id": 1150970443, "lat": 10.11667, "lon": 42.33333, "tags": {"is_in:country": "Ethiopia", "is_in:country_code": "ET", "name": "Dallei Malle", "place": "locality", "source": "GeoDatabase"}}, {"type": "node", "id": 1150971963, "lat": 10.18333, "lon": 42.13333, "tags": {"is_in:country": "Ethiopia", "is_in:country_code": "ET", "name": "Arabi", "place": "locality", "source": "GeoDatabase"}}, {"type": "node", "id": 1150978321, "lat": 9.75056, "lon": 42.17833, "tags": {"is_in:country": "Ethiopia", "is_in:country_code": "ET", "name": "Khama-Shet", "place": "locality", "source": "GeoDatabase"}}, {"type": "node", "id": 1150981070, "lat": 9.83417, "lon": 42.13306, "tags": {"is_in:country": "Ethiopia", "is_in:country_code": "ET", "name": "Garasleh", "place": "locality", "source": "GeoDatabase"}}, {"type": "node", "id": 1150981458, "lat": 9.98694, "lon": 42.26778, "tags": {"is_in:country": "Ethiopia", "is_in:country_code": "ET", "name": "Doba Terara", "place": "locality", "source": "GeoDatabase", "wikidata": "Q24030930"}}, {"type": "node", "id": 1151004290, "lat": 9.9603297, "lon": 42.0958467, "tags": {"is_in:country": "Ethiopia", "is_in:country_code": "ET", "name": "Busa Shet'", "place": "locality", "source": "GeoDatabase"}}]}