{"version": 0.6, "generator": "Overpass API 0.7.62.1 084b4234", "osm3s": {"timestamp_osm_base": "2024-09-30T23:39:44Z", "copyright": "The data included in this document is from www.openstreetmap.org. The data is made available under ODbL."}, "elements": [{"type": "node", "id": 1150882849, "lat": 7.25, "lon": 45.8, "tags": {"is_in:country_code": "ET", "is_in:county": "Ethiopia", "name": "Rio Gudut", "place": "locality", "source": "GeoDatabase"}}, {"type": "node", "id": 1150887080, "lat": 6.88417, "lon": 45.71639, "tags": {"is_in:country_code": "ET", "is_in:county": "Ethiopia", "name": "Agar Uen", "place": "locality", "source": "GeoDatabase"}}, {"type": "node", "id": 1150901847, "lat": 7.07, "lon": 45.69667, "tags": {"is_in:country_code": "ET", "is_in:county": "Ethiopia", "name": "Sibsibali", "place": "locality", "source": "GeoDatabase"}}, {"type": "node", "id": 1150902173, "lat": 7.15, "lon": 45.88333, "tags": {"is_in:country_code": "ET", "is_in:county": "Ethiopia", "name": "Haggri", "place": "locality", "source": "GeoDatabase"}}, {"type": "node", "id": 1150916774, "lat": 6.9046361, "lon": 45.8466287, "tags": {"GNS:id": "-617532", "alt_name": "Mirefatag", "name": "Mirefaratag", "place": "hamlet"}}, {"type": "node", "id": 1150920484, "lat": 7.0021036, "lon": 45.847085, "tags": {"name": "Diilincaano", "place": "hamlet", "source": "GeoDatabase"}}, {"type": "node", "id": 1150953125, "lat": 7.01667, "lon": 45.83333, "tags": {"name": "Bananuein", "place": "locality", "source": "GeoDatabase"}}, {"type": "node", "id": 1150968688, "lat": 6.93, "lon": 45.80861, "tags": {"name": "Bur Agar Uen", "place": "locality", "source": "GeoDatabase"}}, {"type": "node", "id": 1151001814, "lat": 6.885, "lon": 45.71639, "tags": {"is_in:country_code": "ET", "is_in:county": "Ethiopia", "name": "Bur Agar Uen", "place": "locality", "source": "GeoDatabase"}}, {"type": "node", "id": 3128005413, "lat": 6.8865499, "lon": 45.5674475, "tags": {"place": "village"}}, {"type": "node", "id": 3128118704, "lat": 7.1819572, "lon": 45.672324, "tags": {"place": "village"}}, {"type": "node", "id": 7204360089, "lat": 7.2875803, "lon": 45.5670564, "tags": {"name": "Kurtunle", "place": "village"}}, {"type": "node", "id": 7325017534, "lat": 7.2787902, "lon": 45.6871181}, {"type": "node", "id": 7325017535, "lat": 7.2667009, "lon": 45.6898635}, {"type": "node", "id": 7325017536, "lat": 7.2666203, "lon": 45.7024616}, {"type": "node", "id": 7325017537, "lat": 7.2749066, "lon": 45.7062007}, {"type": "node", "id": 7325017538, "lat": 7.2802536, "lon": 45.7068329}, {"type": "node", "id": 7325017539, "lat": 7.2925668, "lon": 45.6922171}, {"type": "node", "id": 12023754969, "lat": 7.2696731, "lon": 45.6971168, "tags": {"place": "town"}}, {"type": "node", "id": 12023755301, "lat": 7.2696944, "lon": 45.6974602, "tags": {"place": "village"}}, {"type": "node", "id": 12023755313, "lat": 7.2673424, "lon": 45.6460369, "tags": {"place": "hamlet"}}, {"type": "way", "id": 784161788, "nodes": [7325017534, 7325017535, 7325017536, 7325017537, 7325017538, 7325017539, 7325017534], "tags": {"name": "Mire", "place": "village"}}]}