{"version": 0.6, "generator": "Overpass API 0.7.62.1 084b4234", "osm3s": {"timestamp_osm_base": "2024-10-01T00:27:28Z", "copyright": "The data included in this document is from www.openstreetmap.org. The data is made available under ODbL."}, "elements": [{"type": "node", "id": 318177823, "lat": 6.9110391, "lon": 37.4038172, "tags": {"name": "Zima", "place": "village", "source": "landsat"}}, {"type": "node", "id": 1150881589, "lat": 7.05, "lon": 37.5, "tags": {"is_in:country": "Ethiopia", "is_in:country_code": "ET", "name": "Mole Bota", "place": "locality", "source": "GeoDatabase"}}, {"type": "node", "id": 1150886914, "lat": 6.93333, "lon": 37.43333, "tags": {"is_in:country": "Ethiopia", "is_in:country_code": "ET", "name": "Gamo Shet'", "place": "locality", "source": "GeoDatabase", "wikidata": "Q23962185"}}, {"type": "node", "id": 1150887104, "lat": 6.91667, "lon": 37.43333, "tags": {"is_in:country": "Ethiopia", "is_in:country_code": "ET", "name": "Dimayo Shet'", "place": "locality", "source": "GeoDatabase", "wikidata": "Q23962321"}}, {"type": "node", "id": 1150887956, "lat": 7.06667, "lon": 37.33333, "tags": {"is_in:country": "Ethiopia", "is_in:country_code": "ET", "name": "Mareca", "place": "locality", "source": "GeoDatabase"}}, {"type": "node", "id": 1150890254, "lat": 7.18333, "lon": 37.28333, "tags": {"is_in:country": "Ethiopia", "is_in:country_code": "ET", "name": "Bodollo", "place": "locality", "source": "GeoDatabase"}}, {"type": "node", "id": 1150892865, "lat": 6.9239333, "lon": 37.2324618, "tags": {"is_in:country": "Ethiopia", "is_in:country_code": "ET", "name": "Bale", "place": "locality", "source": "GeoDatabase"}}, {"type": "node", "id": 1150901251, "lat": 6.86667, "lon": 37.31666, "tags": {"is_in:country": "Ethiopia", "is_in:country_code": "ET", "name": "Burca", "place": "locality", "source": "GeoDatabase"}}, {"type": "node", "id": 1150923333, "lat": 6.91667, "lon": 37.26667, "tags": {"is_in:country": "Ethiopia", "is_in:country_code": "ET", "name": "Dodi", "place": "locality", "source": "GeoDatabase"}}, {"type": "node", "id": 1150926228, "lat": 7.0, "lon": 37.28333, "tags": {"is_in:country": "Ethiopia", "is_in:country_code": "ET", "name": "Halano", "place": "locality", "source": "GeoDatabase"}}, {"type": "node", "id": 1150927851, "lat": 7.11667, "lon": 37.23333, "tags": {"is_in:country": "Ethiopia", "is_in:country_code": "ET", "name": "Cacia", "place": "locality", "source": "GeoDatabase"}}, {"type": "node", "id": 1150929261, "lat": 7.0406498, "lon": 37.2917549, "tags": {"is_in:country": "Ethiopia", "is_in:country_code": "ET", "name": "Bosa", "place": "locality", "source": "GeoDatabase"}}, {"type": "node", "id": 1150933077, "lat": 7.16667, "lon": 37.41667, "tags": {"is_in:country": "Ethiopia", "is_in:country_code": "ET", "name": "Gena", "place": "locality", "source": "GeoDatabase"}}, {"type": "node", "id": 1150937582, "lat": 6.9, "lon": 37.3, "tags": {"is_in:country": "Ethiopia", "is_in:country_code": "ET", "name": "Bobbe", "place": "locality", "source": "GeoDatabase"}}, {"type": "node", "id": 1150939728, "lat": 7.08333, "lon": 37.41667, "tags": {"is_in:country": "Ethiopia", "is_in:country_code": "ET", "name": "Tulema", "place": "locality", "source": "GeoDatabase"}}, {"type": "node", "id": 1150947458, "lat": 7.03333, "lon": 37.48333, "tags": {"is_in:country": "Ethiopia", "is_in:country_code": "ET", "name": "Moliya Muso", "place": "locality", "source": "GeoDatabase"}}, {"type": "node", "id": 1150968939, "lat": 7.0, "lon": 37.35, "tags": {"is_in:country": "Ethiopia", "is_in:country_code": "ET", "name": "Buro (1)", "place": "locality", "source": "GeoDatabase"}}, {"type": "node", "id": 1150981591, "lat": 6.8722276, "lon": 37.3662268, "tags": {"is_in:country": "Ethiopia", "is_in:country_code": "ET", "name": "Loma", "place": "locality", "source": "GeoDatabase"}}, {"type": "node", "id": 2290441961, "lat": 7.0123922, "lon": 37.274054, "tags": {"name": "Gasachare", "place": "town"}}, {"type": "node", "id": 2302423477, "lat": 6.955671, "lon": 37.3401726, "tags": {"name": "Jalo", "name:en": "Yalo", "place": "village", "tourism": "viewpoint"}}, {"type": "node", "id": 2428592114, "lat": 7.0600967, "lon": 37.3360943, "tags": {"name": "Bossa", "place": "village"}}, {"type": "node", "id": 3227077619, "lat": 6.923363, "lon": 37.232001, "tags": {"place": "village"}}, {"type": "node", "id": 3703200476, "lat": 6.874127, "lon": 37.2282198, "tags": {"place": "village"}}, {"type": "node", "id": 11740375124, "lat": 6.8578246, "lon": 37.5027351, "tags": {"name": "Hanaze", "name:wal": "Hanazze", "place": "town"}}, {"type": "node", "id": 11927889201, "lat": 6.9142003, "lon": 37.4356588}, {"type": "node", "id": 11927889202, "lat": 6.9141499, "lon": 37.4362686}, {"type": "node", "id": 11927889203, "lat": 6.9136329, "lon": 37.436548}, {"type": "node", "id": 11927889204, "lat": 6.9133428, "lon": 37.4373864}, {"type": "node", "id": 11927889205, "lat": 6.9133554, "lon": 37.4376405}, {"type": "node", "id": 11927889206, "lat": 6.9129897, "lon": 37.4377294}, {"type": "node", "id": 11927889207, "lat": 6.912561, "lon": 37.4376151}, {"type": "node", "id": 11927889208, "lat": 6.9124349, "lon": 37.4375897}, {"type": "node", "id": 11927889209, "lat": 6.9125231, "lon": 37.4374499}, {"type": "node", "id": 11927889210, "lat": 6.9120439, "lon": 37.4375389}, {"type": "node", "id": 11927889211, "lat": 6.9116278, "lon": 37.4375135}, {"type": "node", "id": 11927889212, "lat": 6.9114764, "lon": 37.4374245}, {"type": "node", "id": 11927889213, "lat": 6.9111107, "lon": 37.437488}, {"type": "node", "id": 11927889214, "lat": 6.9105937, "lon": 37.437018}, {"type": "node", "id": 11927889215, "lat": 6.9110477, "lon": 37.4368148}, {"type": "node", "id": 11927889216, "lat": 6.9113756, "lon": 37.4360272}, {"type": "node", "id": 11927889217, "lat": 6.9122079, "lon": 37.4352269}, {"type": "node", "id": 11927889218, "lat": 6.9130906, "lon": 37.4347696}, {"type": "node", "id": 11927889219, "lat": 6.9138977, "lon": 37.4349348}, {"type": "node", "id": 11927889220, "lat": 6.9142256, "lon": 37.4351888}, {"type": "way", "id": 1285881345, "nodes": [11927889201, 11927889202, 11927889203, 11927889204, 11927889205, 11927889206, 11927889207, 11927889208, 11927889209, 11927889210, 11927889211, 11927889212, 11927889213, 11927889214, 11927889215, 11927889216, 11927889217, 11927889218, 11927889219, 11927889220, 11927889201], "tags": {"place": "island"}}]}