{"version": 0.6, "generator": "Overpass API 0.7.62.1 084b4234", "osm3s": {"timestamp_osm_base": "2024-09-30T21:33:56Z", "copyright": "The data included in this document is from www.openstreetmap.org. The data is made available under ODbL."}, "elements": [{"type": "node", "id": 1150698120, "lat": 13.5292, "lon": 40.95531, "tags": {"is_in:country_code": "ET", "is_in:county": "Ethiopia", "name": "Dalalian Maru", "place": "locality", "source": "GeoDatabase"}}, {"type": "node", "id": 1150880810, "lat": 13.25, "lon": 40.63333, "tags": {"is_in:country_code": "ET", "is_in:county": "Ethiopia", "name": "Rorom Chila", "place": "locality", "source": "GeoDatabase"}}, {"type": "node", "id": 1150881005, "lat": 13.45165, "lon": 40.68561, "tags": {"is_in:country_code": "ET", "is_in:county": "Ethiopia", "name": "Gerekiby", "place": "locality", "source": "GeoDatabase"}}, {"type": "node", "id": 1150886455, "lat": 13.42718, "lon": 40.83774, "tags": {"name": "Adayto Elo", "place": "locality"}}, {"type": "node", "id": 1150887191, "lat": 13.31667, "lon": 40.96667, "tags": {"is_in:country_code": "ET", "is_in:county": "Ethiopia", "name": "Macolle", "place": "locality", "source": "GeoDatabase"}}, {"type": "node", "id": 1150887349, "lat": 13.18333, "lon": 40.95, "tags": {"name": "Ingalta", "place": "locality"}}, {"type": "node", "id": 1150890536, "lat": 13.58333, "lon": 40.75, "tags": {"is_in:country_code": "ET", "is_in:county": "Ethiopia", "name": "Lave Di Ali Bogo", "place": "locality", "source": "GeoDatabase"}}, {"type": "node", "id": 1150892055, "lat": 13.4, "lon": 40.65, "tags": {"is_in:country_code": "ET", "is_in:county": "Ethiopia", "name": "Gherechibu", "place": "locality", "source": "GeoDatabase"}}, {"type": "node", "id": 1150892360, "lat": 13.58333, "lon": 40.83333, "tags": {"is_in:country_code": "ET", "is_in:county": "Ethiopia", "name": "Kobar", "place": "locality", "source": "GeoDatabase"}}, {"type": "node", "id": 1150898404, "lat": 13.35123, "lon": 40.69218, "tags": {"name": "Bulga", "place": "locality"}}, {"type": "node", "id": 1150902026, "lat": 13.33333, "lon": 40.83333, "tags": {"name": "Rorom Plain", "place": "locality"}}, {"type": "node", "id": 1150903276, "lat": 13.23333, "lon": 41.0, "tags": {"is_in:country_code": "ET", "is_in:county": "Ethiopia", "name": "Algandi Coma", "place": "locality", "source": "GeoDatabase"}}, {"type": "node", "id": 1150904175, "lat": 13.21667, "lon": 40.56666, "tags": {"is_in:country_code": "ET", "is_in:county": "Ethiopia", "name": "Sereba", "place": "locality", "source": "GeoDatabase"}}, {"type": "node", "id": 1150905221, "lat": 13.38874, "lon": 40.89679, "tags": {"name": "Adoeio", "place": "locality"}}, {"type": "node", "id": 1150907060, "lat": 13.58461, "lon": 40.86472, "tags": {"is_in:country_code": "ET", "is_in:county": "Ethiopia", "name": "Kobar Sink", "place": "locality", "source": "GeoDatabase"}}, {"type": "node", "id": 1150912451, "lat": 13.232538, "lon": 40.9030595, "tags": {"is_in:country_code": "ET", "is_in:county": "Ethiopia", "name": "Franchetti Island", "place": "locality", "source": "GeoDatabase"}}, {"type": "node", "id": 1150918202, "lat": 13.40964, "lon": 40.95651, "tags": {"is_in:country_code": "ET", "is_in:county": "Ethiopia", "name": "Ada Ela", "place": "locality", "source": "GeoDatabase"}}, {"type": "node", "id": 1150919808, "lat": 13.45948, "lon": 40.72531, "tags": {"is_in:country_code": "ET", "is_in:county": "Ethiopia", "name": "Gorroble", "place": "locality", "source": "GeoDatabase"}}, {"type": "node", "id": 1150923717, "lat": 13.35, "lon": 40.91667, "tags": {"is_in:country_code": "ET", "is_in:county": "Ethiopia", "name": "Urgarra", "place": "locality", "source": "GeoDatabase"}}, {"type": "node", "id": 1150938100, "lat": 13.41528, "lon": 40.69778, "tags": {"is_in:country_code": "ET", "is_in:county": "Ethiopia", "name": "At'Iyu Bota", "place": "locality", "source": "GeoDatabase"}}, {"type": "node", "id": 1150944875, "lat": 13.16056, "lon": 40.6675, "tags": {"is_in:country_code": "ET", "is_in:county": "Ethiopia", "name": "Agule Lava Area", "place": "locality", "source": "GeoDatabase"}}, {"type": "node", "id": 1150950151, "lat": 13.33333, "lon": 40.63333, "tags": {"is_in:country_code": "ET", "is_in:county": "Ethiopia", "name": "Secher", "place": "locality", "source": "GeoDatabase"}}, {"type": "node", "id": 1150955984, "lat": 13.2681303, "lon": 40.8370809, "tags": {"is_in:country_code": "ET", "is_in:county": "Ethiopia", "name": "Alo", "place": "locality", "source": "GeoDatabase"}}, {"type": "node", "id": 1150963397, "lat": 13.50908, "lon": 40.6316, "tags": {"is_in:country_code": "ET", "is_in:county": "Ethiopia", "name": "Vulcano Ummuna", "place": "locality", "source": "GeoDatabase"}}, {"type": "node", "id": 1150967085, "lat": 13.35, "lon": 40.65, "tags": {"is_in:country_code": "ET", "is_in:county": "Ethiopia", "name": "Chila", "place": "locality", "source": "GeoDatabase"}}, {"type": "node", "id": 1150967272, "lat": 13.2072866, "lon": 40.860443, "tags": {"name": "Afrera", "name:es": "Afdera", "place": "village"}}, {"type": "node", "id": 9271785112, "lat": 13.5730797, "lon": 40.5945012, "tags": {"place": "hamlet"}}]}