{"version": 0.6, "generator": "Overpass API 0.7.62.1 084b4234", "osm3s": {"timestamp_osm_base": "2024-09-30T23:34:41Z", "copyright": "The data included in this document is from www.openstreetmap.org. The data is made available under ODbL."}, "elements": [{"type": "node", "id": 1150889191, "lat": 7.06667, "lon": 45.03333, "tags": {"is_in:country_code": "ET", "is_in:county": "Ethiopia", "name": "Surio", "place": "locality", "source": "GeoDatabase"}}, {"type": "node", "id": 1150891047, "lat": 7.33333, "lon": 44.83333, "tags": {"is_in:country_code": "ET", "is_in:county": "Ethiopia", "name": "Darinda", "place": "locality", "source": "GeoDatabase"}}, {"type": "node", "id": 1150896264, "lat": 7.23333, "lon": 45.13333, "tags": {"is_in:country_code": "ET", "is_in:county": "Ethiopia", "name": "Fortino Gheldidis", "place": "locality", "source": "GeoDatabase"}}, {"type": "node", "id": 1150922925, "lat": 7.38611, "lon": 45.02694, "tags": {"is_in:country_code": "ET", "is_in:county": "Ethiopia", "name": "Gorite", "place": "locality", "source": "GeoDatabase"}}, {"type": "node", "id": 1150948927, "lat": 7.44139, "lon": 45.06666, "tags": {"is_in:country_code": "ET", "is_in:county": "Ethiopia", "name": "Donfarre", "place": "locality", "source": "GeoDatabase"}}, {"type": "node", "id": 4361712591, "lat": 7.2678366, "lon": 45.1966005, "tags": {"is_in:country_code": "ET", "is_in:county": "Ethiopia", "name": "Ado", "place": "village", "source": "GeoDatabase"}}, {"type": "node", "id": 12013440567, "lat": 7.1458615, "lon": 44.9125814, "tags": {"place": "hamlet"}}]}