{"version": 0.6, "generator": "Overpass API 0.7.62.1 084b4234", "osm3s": {"timestamp_osm_base": "2024-09-30T22:35:15Z", "copyright": "The data included in this document is from www.openstreetmap.org. The data is made available under ODbL."}, "elements": [{"type": "node", "id": 1150890671, "lat": 4.68333, "lon": 39.51667, "tags": {"is_in:country": "Ethiopia", "is_in:country_code": "ET", "name": "Gebel Sororo", "place": "locality", "source": "GeoDatabase"}}, {"type": "node", "id": 1150894210, "lat": 4.63333, "lon": 39.4, "tags": {"is_in:country": "Ethiopia", "is_in:country_code": "ET", "name": "Ualena", "place": "locality", "source": "GeoDatabase"}}, {"type": "node", "id": 1150899209, "lat": 4.8, "lon": 39.63333, "tags": {"is_in:country": "Ethiopia", "is_in:country_code": "ET", "name": "Gebel Eluddoro", "place": "locality", "source": "GeoDatabase"}}, {"type": "node", "id": 1150900137, "lat": 4.63333, "lon": 39.36667, "tags": {"is_in:country": "Ethiopia", "is_in:country_code": "ET", "name": "Gebel Illadu", "place": "locality", "source": "GeoDatabase"}}, {"type": "node", "id": 1150914743, "lat": 4.51667, "lon": 39.56666, "tags": {"is_in:country": "Ethiopia", "is_in:country_code": "ET", "name": "Salole", "place": "locality", "source": "GeoDatabase"}}, {"type": "node", "id": 1150920210, "lat": 4.7, "lon": 39.53333, "tags": {"is_in:country": "Ethiopia", "is_in:country_code": "ET", "name": "Malca Sororo", "place": "locality", "source": "GeoDatabase"}}, {"type": "node", "id": 1150925136, "lat": 4.8, "lon": 39.35, "tags": {"is_in:country": "Ethiopia", "is_in:country_code": "ET", "name": "Hindi", "place": "locality", "source": "GeoDatabase"}}, {"type": "node", "id": 1150928832, "lat": 4.7, "lon": 39.46667, "tags": {"is_in:country": "Ethiopia", "is_in:country_code": "ET", "name": "Bisik'A Bota", "place": "locality", "source": "GeoDatabase"}}, {"type": "node", "id": 1150935255, "lat": 4.75, "lon": 39.68333, "tags": {"is_in:country": "Ethiopia", "is_in:country_code": "ET", "name": "Odo", "place": "locality", "source": "GeoDatabase"}}, {"type": "node", "id": 1150936531, "lat": 4.48333, "lon": 39.41667, "tags": {"is_in:country": "Ethiopia", "is_in:country_code": "ET", "name": "Jebel Okoto", "place": "locality", "source": "GeoDatabase"}}, {"type": "node", "id": 1150962306, "lat": 4.68333, "lon": 39.65, "tags": {"is_in:country": "Ethiopia", "is_in:country_code": "ET", "name": "Aloi", "place": "locality", "source": "GeoDatabase"}}, {"type": "node", "id": 1150969394, "lat": 4.78333, "lon": 39.36667, "tags": {"is_in:country": "Ethiopia", "is_in:country_code": "ET", "name": "Fuduthi", "name:it": "Malca Guba", "place": "locality", "source": "GeoDatabase"}}, {"type": "node", "id": 1150973109, "lat": 4.71667, "lon": 39.5, "tags": {"is_in:country": "Ethiopia", "is_in:country_code": "ET", "name": "Hencho", "place": "locality", "source": "GeoDatabase"}}, {"type": "node", "id": 1150980329, "lat": 4.58333, "lon": 39.4, "tags": {"is_in:country": "Ethiopia", "is_in:country_code": "ET", "name": "Ualena", "place": "locality", "source": "GeoDatabase"}}, {"type": "node", "id": 2083404951, "lat": 4.7933759, "lon": 39.322224, "tags": {"place": "village"}}, {"type": "node", "id": 2083625947, "lat": 4.4775447, "lon": 39.5931456, "tags": {"place": "village"}}, {"type": "node", "id": 2083626323, "lat": 4.6127226, "lon": 39.3168483, "tags": {"place": "village"}}, {"type": "node", "id": 2083626756, "lat": 4.7022061, "lon": 39.4377204, "tags": {"place": "village"}}, {"type": "node", "id": 2083627103, "lat": 4.5128971, "lon": 39.5080801, "tags": {"place": "village"}}, {"type": "node", "id": 2083627312, "lat": 4.5351542, "lon": 39.3717268, "tags": {"place": "village"}}, {"type": "node", "id": 2083937775, "lat": 4.4735567, "lon": 39.6209682, "tags": {"place": "village"}}]}