{"version": 0.6, "generator": "Overpass API 0.7.62.1 084b4234", "osm3s": {"timestamp_osm_base": "2024-09-30T19:09:15Z", "copyright": "The data included in this document is from www.openstreetmap.org. The data is made available under ODbL."}, "elements": [{"type": "node", "id": 44915330, "lat": 0.7166, "lon": 35.5166, "tags": {"name": "Singore", "name:en": "Singore", "place": "village"}}, {"type": "node", "id": 44927078, "lat": 0.8166, "lon": 35.3833, "tags": {"alt_name": "Moyben", "is_in": "Uasin gishu,Kenya", "name": "Moiben", "place": "village", "wikidata": "Q6894566"}}, {"type": "node", "id": 44996724, "lat": 0.7333, "lon": 35.45, "tags": {"name": "Karuna", "place": "village"}}, {"type": "node", "id": 45003024, "lat": 0.85, "lon": 35.5, "tags": {"is_in": "Uasin gishu,Kenya", "name": "Chebiemit", "place": "village", "wikidata": "Q5088979"}}, {"type": "node", "id": 45003042, "lat": 0.8833, "lon": 35.5, "tags": {"is_in": "E. marakwet,Kenya", "name": "Chebara", "place": "village", "wikidata": "Q5088965"}}, {"type": "node", "id": 2094085354, "lat": 0.6730702, "lon": 35.5102633, "tags": {"name": "Iten", "place": "town", "population": "42312"}}, {"type": "node", "id": 2145024170, "lat": 0.8464333, "lon": 35.2545271, "tags": {"place": "village"}}, {"type": "node", "id": 2556950745, "lat": 0.8840388, "lon": 35.3715323, "tags": {"name": "Tuikoen", "place": "village"}}, {"type": "node", "id": 3070243906, "lat": 0.941473, "lon": 35.514541, "tags": {"is_in": "E. marakwet,Kenya", "name": "Cheptonge", "place": "village", "wikidata": "Q5091742"}}, {"type": "node", "id": 4401184942, "lat": 0.915414, "lon": 35.5087153, "tags": {"name": "Nerkwo", "place": "hamlet"}}, {"type": "node", "id": 4549350045, "lat": 0.6377961, "lon": 35.5199868, "tags": {"name": "Kibeymok", "place": "village"}}, {"type": "node", "id": 8223957941, "lat": 0.6727285, "lon": 35.5166808}, {"type": "node", "id": 8223957942, "lat": 0.6773588, "lon": 35.4998751}, {"type": "node", "id": 8223957943, "lat": 0.6686497, "lon": 35.4988022}, {"type": "node", "id": 8223957944, "lat": 0.6764147, "lon": 35.5150672}, {"type": "node", "id": 8223957945, "lat": 0.6640581, "lon": 35.5085011}, {"type": "node", "id": 8223957946, "lat": 0.6648305, "lon": 35.5158396}, {"type": "way", "id": 884307806, "nodes": [8223957944, 8223957942, 8223957943, 8223957945, 8223957946, 8223957941, 8223957944], "tags": {"name": "Iten", "place": "town"}}]}