{"version": 0.6, "generator": "Overpass API 0.7.62.1 084b4234", "osm3s": {"timestamp_osm_base": "2024-09-30T21:16:29Z", "copyright": "The data included in this document is from www.openstreetmap.org. The data is made available under ODbL."}, "elements": [{"type": "node", "id": 1404222086, "lat": 1.1286, "lon": 41.1474, "tags": {"name": "Uar Gallo", "pcode": "NA-3712-W15-001", "place": "village", "source": "UNDP - 1997"}}, {"type": "node", "id": 1404229275, "lat": 0.9208, "lon": 41.131699, "tags": {"name": "Weel Mereed", "pcode": "NA-3716-B14-001", "place": "village", "source": "UNDP - 1997"}}, {"type": "node", "id": 1404230191, "lat": 0.9176, "lon": 41.1814, "tags": {"name": "Uar Dalado", "pcode": "NA-3716-B15-001", "place": "village", "source": "UNDP - 1997"}}, {"type": "node", "id": 1404231893, "lat": 1.0323, "lon": 41.0173, "tags": {"fixme": "place", "name": "Ghelghel Bur Foli", "pcode": "NA-3712-Z12-001", "place": "village", "source": "UNDP - 1997"}}, {"type": "node", "id": 1404232319, "lat": 1.2702, "lon": 41.382, "tags": {"name": "Uar Esgudud", "pcode": "NA-3712-T20-001", "place": "village", "source": "UNDP - 1997", "wikidata": "Q7876353"}}]}