{"version": 0.6, "generator": "Overpass API 0.7.62.1 084b4234", "osm3s": {"timestamp_osm_base": "2024-09-30T22:18:58Z", "copyright": "The data included in this document is from www.openstreetmap.org. The data is made available under ODbL."}, "elements": [{"type": "node", "id": 458746783, "lat": 7.268909, "lon": 39.8227789, "tags": {"name": "Agarfa", "place": "town", "source": "landsat"}}, {"type": "node", "id": 1150881161, "lat": 7.5, "lon": 39.5, "tags": {"is_in:country": "Ethiopia", "is_in:country_code": "ET", "name": "Arssi Administrative Region", "place": "locality", "source": "GeoDatabase"}}, {"type": "node", "id": 1150884574, "lat": 7.16667, "lon": 39.53333, "tags": {"is_in:country": "Ethiopia", "is_in:country_code": "ET", "name": "Haco", "place": "locality", "source": "GeoDatabase"}}, {"type": "node", "id": 1150884828, "lat": 7.53333, "lon": 39.5, "tags": {"is_in:country": "Ethiopia", "is_in:country_code": "ET", "name": "Ido", "place": "locality", "source": "GeoDatabase"}}, {"type": "node", "id": 1150886619, "lat": 7.2, "lon": 39.63333, "tags": {"is_in:country": "Ethiopia", "is_in:country_code": "ET", "name": "Lajo", "place": "locality", "source": "GeoDatabase"}}, {"type": "node", "id": 1150889190, "lat": 7.46667, "lon": 39.51667, "tags": {"is_in:country": "Ethiopia", "is_in:country_code": "ET", "name": "Gemoji", "place": "locality", "source": "GeoDatabase"}}, {"type": "node", "id": 1150889194, "lat": 7.45, "lon": 39.5, "tags": {"is_in:country": "Ethiopia", "is_in:country_code": "ET", "name": "Memunye Shet'", "place": "locality", "source": "GeoDatabase"}}, {"type": "node", "id": 1150893711, "lat": 7.16667, "lon": 39.88333, "tags": {"is_in:country": "Ethiopia", "is_in:country_code": "ET", "name": "Manso", "place": "locality", "source": "GeoDatabase"}}, {"type": "node", "id": 1150894653, "lat": 7.53333, "lon": 39.81666, "tags": {"is_in:country": "Ethiopia", "is_in:country_code": "ET", "name": "Dima", "place": "locality", "source": "GeoDatabase"}}, {"type": "node", "id": 1150924493, "lat": 7.25, "lon": 39.75, "tags": {"is_in:country": "Ethiopia", "is_in:country_code": "ET", "name": "Hora Yeterara Senselet", "place": "locality", "source": "GeoDatabase"}}, {"type": "node", "id": 1150957818, "lat": 7.5, "lon": 39.66667, "tags": {"is_in:country": "Ethiopia", "is_in:country_code": "ET", "name": "Bidu Bala", "place": "locality", "source": "GeoDatabase"}}, {"type": "node", "id": 1150968813, "lat": 7.31667, "lon": 39.71667, "tags": {"is_in:country": "Ethiopia", "is_in:country_code": "ET", "name": "Barsakime", "place": "locality", "source": "GeoDatabase"}}, {"type": "node", "id": 1150970335, "lat": 7.56667, "lon": 39.9, "tags": {"is_in:country": "Ethiopia", "is_in:country_code": "ET", "name": "Indetu", "place": "locality", "source": "GeoDatabase"}}, {"type": "node", "id": 1150973791, "lat": 7.56667, "lon": 39.88333, "tags": {"is_in:country": "Ethiopia", "is_in:country_code": "ET", "name": "Sibe Bota", "place": "locality", "source": "GeoDatabase"}}, {"type": "node", "id": 1911743899, "lat": 7.5472497, "lon": 39.6143901, "tags": {"name": "Chole", "place": "village"}}, {"type": "node", "id": 1953309553, "lat": 7.2965426, "lon": 39.5753288, "tags": {"place": "village"}}, {"type": "node", "id": 1953311673, "lat": 7.2724262, "lon": 39.5339584, "tags": {"place": "village"}}, {"type": "node", "id": 1959385686, "lat": 7.1597431, "lon": 39.5388928, "tags": {"place": "town"}}, {"type": "node", "id": 1961140418, "lat": 7.5699259, "lon": 39.8684737, "tags": {"place": "village"}}]}