{"version": 0.6, "generator": "Overpass API 0.7.62.1 084b4234", "osm3s": {"timestamp_osm_base": "2024-10-01T00:04:01Z", "copyright": "The data included in this document is from www.openstreetmap.org. The data is made available under ODbL."}, "elements": [{"type": "node", "id": 1150882706, "lat": 10.91667, "lon": 40.76667, "tags": {"is_in:country": "Ethiopia", "is_in:country_code": "ET", "name": "Lerome", "place": "locality", "source": "GeoDatabase"}}, {"type": "node", "id": 1150886452, "lat": 11.03333, "lon": 41.01667, "tags": {"is_in:country": "Ethiopia", "is_in:country_code": "ET", "name": "Sanessa", "place": "locality", "source": "GeoDatabase"}}, {"type": "node", "id": 1150910905, "lat": 10.65, "lon": 40.81666, "tags": {"is_in:country": "Ethiopia", "is_in:country_code": "ET", "name": "Barri", "place": "locality", "source": "GeoDatabase"}}, {"type": "node", "id": 1150927351, "lat": 10.66667, "lon": 41.08333, "tags": {"is_in:country": "Ethiopia", "is_in:country_code": "ET", "name": "Barri", "place": "locality", "source": "GeoDatabase"}}, {"type": "node", "id": 1150938894, "lat": 10.98333, "lon": 40.86667, "tags": {"is_in:country": "Ethiopia", "is_in:country_code": "ET", "name": "Gonna", "place": "locality", "source": "GeoDatabase"}}, {"type": "node", "id": 1150953914, "lat": 11.06667, "lon": 40.7, "tags": {"is_in:country": "Ethiopia", "is_in:country_code": "ET", "name": "Teo", "place": "locality", "source": "GeoDatabase"}}]}