{"version": 0.6, "generator": "Overpass API 0.7.62.1 084b4234", "osm3s": {"timestamp_osm_base": "2024-09-30T18:15:30Z", "copyright": "The data included in this document is from www.openstreetmap.org. The data is made available under ODbL."}, "elements": [{"type": "node", "id": 647950070, "lat": 4.2610008, "lon": 37.7015292, "tags": {"name": "Dillo", "place": "village"}}, {"type": "node", "id": 1150882233, "lat": 4.3, "lon": 37.75, "tags": {"is_in:country": "Ethiopia", "is_in:country_code": "ET", "name": "Dilo Bota", "place": "locality", "source": "GeoDatabase"}}, {"type": "node", "id": 1150886044, "lat": 4.266832, "lon": 37.7036479, "tags": {"is_in:country": "Ethiopia", "is_in:country_code": "ET", "name": "Dilo Ye'Isate Gemora Af", "place": "locality", "source": "GeoDatabase"}}, {"type": "node", "id": 1150890090, "lat": 4.13333, "lon": 37.63333, "tags": {"is_in:country": "Ethiopia", "is_in:country_code": "ET", "name": "Garea", "place": "locality", "source": "GeoDatabase"}}, {"type": "node", "id": 1150898629, "lat": 4.3, "lon": 37.55, "tags": {"is_in:country": "Ethiopia", "is_in:country_code": "ET", "name": "Umori", "place": "locality", "source": "GeoDatabase"}}, {"type": "node", "id": 1150927706, "lat": 4.25, "lon": 37.53333, "tags": {"name": "Gebel Soi", "place": "locality", "source": "GeoDatabase"}}, {"type": "node", "id": 1150933363, "lat": 4.23333, "lon": 37.7, "tags": {"is_in:country": "Ethiopia", "is_in:country_code": "ET", "name": "Bate Yeisate Gemora Af", "place": "locality", "source": "GeoDatabase"}}, {"type": "node", "id": 1150972491, "lat": 4.2, "lon": 37.58333, "tags": {"is_in:country": "Ethiopia", "is_in:country_code": "ET", "name": "Gara Gori", "place": "locality", "source": "GeoDatabase"}}, {"type": "node", "id": 1150978580, "lat": 4.16667, "lon": 37.5, "tags": {"is_in:country": "Ethiopia", "is_in:country_code": "ET", "name": "Ienia", "place": "locality", "source": "GeoDatabase"}}, {"type": "node", "id": 1150982781, "lat": 4.08333, "lon": 37.68333, "tags": {"is_in:country": "Ethiopia", "is_in:country_code": "ET", "name": "Saritti", "place": "locality", "source": "GeoDatabase"}}, {"type": "node", "id": 10855388434, "lat": 4.4052505, "lon": 37.5161996, "tags": {"place": "hamlet"}}, {"type": "node", "id": 10857127744, "lat": 4.3995035, "lon": 37.5167093, "tags": {"place": "locality"}}, {"type": "node", "id": 10857206482, "lat": 4.4102367, "lon": 37.5267836, "tags": {"place": "isolated_dwelling"}}, {"type": "node", "id": 10857386622, "lat": 4.4283485, "lon": 37.5348337, "tags": {"place": "hamlet"}}, {"type": "node", "id": 10857386623, "lat": 4.4215619, "lon": 37.5288452, "tags": {"place": "hamlet"}}, {"type": "node", "id": 10857386624, "lat": 4.4177762, "lon": 37.529417, "tags": {"place": "hamlet"}}, {"type": "node", "id": 10857831769, "lat": 4.3957554, "lon": 37.5261319, "tags": {"place": "isolated_dwelling"}}]}