{"version": 0.6, "generator": "Overpass API 0.7.62.1 084b4234", "osm3s": {"timestamp_osm_base": "2024-09-30T18:20:35Z", "copyright": "The data included in this document is from www.openstreetmap.org. The data is made available under ODbL."}, "elements": [{"type": "node", "id": 44926967, "lat": 0.2166, "lon": 37.8, "tags": {"name": "Muthara", "place": "village", "wikidata": "Q6943825"}}, {"type": "node", "id": 44927332, "lat": 0.1, "lon": 37.5333, "tags": {"name": "Muchiene", "place": "village", "wikidata": "Q15045706"}}, {"type": "node", "id": 44927794, "lat": 0.123276, "lon": 37.834493, "tags": {"is_in": "Meru,Kenya", "name": "Mikinduri", "place": "village", "wikidata": "Q6849887"}}, {"type": "node", "id": 44927953, "lat": 0.1, "lon": 37.7833, "tags": {"name": "Mitungugu", "place": "village"}}, {"type": "node", "id": 44927965, "lat": 0.1, "lon": 37.7833, "tags": {"name": "Mitunguu", "place": "village"}}, {"type": "node", "id": 44929227, "lat": 0.0499786, "lon": 37.6500063, "tags": {"name": "Meru", "name:ar": "\u0645\u0631\u0648", "name:de": "Meru", "name:en": "Meru", "name:ru": "\u041c\u0435\u0440\u0443", "name:uk": "\u041c\u0435\u0440\u0443", "name:zh": "\u6885\u9c81", "place": "city", "population": "1833000", "source:population": "French Wikipedia", "wikidata": "Q934149", "wikipedia": "en:Meru, Kenya"}}, {"type": "node", "id": 44996165, "lat": 0.1666, "lon": 37.75, "tags": {"created_by": "JOSM", "is_in": "Meru,Kenya", "name": "Kianjai", "place": "village"}}, {"type": "node", "id": 44996175, "lat": 0.1666, "lon": 37.75, "tags": {"created_by": "JOSM", "is_in": "Meru,Kenya", "name": "Kianiai", "place": "village"}}, {"type": "node", "id": 44997806, "lat": 0.1166, "lon": 37.6666, "tags": {"alt_name": "Kanyekini", "is_in": "Meru,Kenya", "name": "Kanyekine", "place": "village"}}, {"type": "node", "id": 44997924, "lat": 0.0333, "lon": 37.7166, "tags": {"name": "Kaongo", "place": "village"}}, {"type": "node", "id": 44998647, "lat": 0.0666, "lon": 37.65, "tags": {"name": "Kaaga", "place": "village", "wikidata": "Q15045682"}}, {"type": "node", "id": 1814694400, "lat": -0.0395158, "lon": 37.6604837, "tags": {"name": "Kariene", "place": "village"}}, {"type": "node", "id": 2127561874, "lat": -0.1083875, "lon": 37.7808302, "tags": {"name": "Mitunguu", "place": "town"}}, {"type": "node", "id": 2127561875, "lat": -0.0662965, "lon": 37.6642253, "tags": {"name": "Nkubu", "place": "town", "wikidata": "Q7042647"}}, {"type": "node", "id": 2187769642, "lat": 0.1705378, "lon": 37.9214774, "tags": {"name": "Athi", "place": "village"}}, {"type": "node", "id": 2193132483, "lat": 0.1519903, "lon": 37.6573268, "tags": {"name": "Ruiri", "place": "village"}}, {"type": "node", "id": 2193150320, "lat": 0.1334053, "lon": 37.8708859, "tags": {"name": "Ankamia", "place": "village"}}, {"type": "node", "id": 2193168821, "lat": 0.1473527, "lon": 37.8559709, "tags": {"name": "Kigochwa", "place": "village"}}, {"type": "node", "id": 2193169890, "lat": 0.1115614, "lon": 37.8682447, "tags": {"name": "Akaiga", "place": "village"}}, {"type": "node", "id": 2193170920, "lat": 0.105682, "lon": 37.8945947, "tags": {"name": "Kaathi", "place": "village"}}, {"type": "node", "id": 2193211619, "lat": -0.1879993, "lon": 37.6808458, "tags": {"name": "Igoji", "place": "village"}}, {"type": "node", "id": 2193229057, "lat": -0.2131166, "lon": 37.6564219, "tags": {"name": "Keria", "place": "village"}}, {"type": "node", "id": 2196241760, "lat": 0.1197516, "lon": 37.5590999, "tags": {"place": "village"}}, {"type": "node", "id": 2891277372, "lat": -0.0097201, "lon": 37.6606333, "tags": {"name": "Gatimbi", "place": "village"}}, {"type": "node", "id": 2891277373, "lat": -0.0997243, "lon": 37.7037874, "tags": {"name": "Kamachege", "place": "village"}}, {"type": "node", "id": 2891277374, "lat": -0.1018369, "lon": 37.7475609, "tags": {"name": "Kamurio", "place": "village"}}, {"type": "node", "id": 2891277375, "lat": -0.1528596, "lon": 37.8169688, "tags": {"name": "Kiriria", "place": "village"}}, {"type": "node", "id": 2891277377, "lat": -0.1753556, "lon": 37.8377031, "tags": {"name": "Tunyai", "place": "village"}}, {"type": "node", "id": 3805488257, "lat": -0.1025663, "lon": 37.6836874, "tags": {"name": "Baranga", "place": "village"}}, {"type": "node", "id": 3927135624, "lat": -0.0225113, "lon": 37.5864722, "tags": {"name": "Kamurita", "place": "village"}}, {"type": "node", "id": 6352047319, "lat": 0.0685516, "lon": 37.6290587}, {"type": "node", "id": 6352047320, "lat": 0.0630027, "lon": 37.6277829}, {"type": "node", "id": 6352047321, "lat": 0.0566735, "lon": 37.6276591}, {"type": "node", "id": 6352047322, "lat": 0.0477184, "lon": 37.6317712}, {"type": "node", "id": 6352047323, "lat": 0.0400763, "lon": 37.643414}, {"type": "node", "id": 6352047324, "lat": 0.0289908, "lon": 37.6578065}, {"type": "node", "id": 6352047325, "lat": 0.0296349, "lon": 37.6649037}, {"type": "node", "id": 6352047326, "lat": 0.0361128, "lon": 37.6673437}, {"type": "node", "id": 6352047327, "lat": 0.0428136, "lon": 37.6744409}, {"type": "node", "id": 6352047328, "lat": 0.0511741, "lon": 37.6736854}, {"type": "node", "id": 6352047329, "lat": 0.0516324, "lon": 37.6646808}, {"type": "node", "id": 6352047330, "lat": 0.0520535, "lon": 37.6552798}, {"type": "node", "id": 6352047331, "lat": 0.0561781, "lon": 37.6530875}, {"type": "node", "id": 10223181505, "lat": -0.125923, "lon": 37.5749614, "tags": {"name": "Murungurune centre", "place": "locality"}}, {"type": "node", "id": 11801698082, "lat": -0.1269059, "lon": 37.5752082, "tags": {"admin_level": "10", "admin_type:KE": "sublocation", "name": "Upper Kiongone", "official_name": "Upper Kiongone Sublocation", "place": "village"}}, {"type": "node", "id": 11801698083, "lat": -0.1368167, "lon": 37.5920069, "tags": {"admin_level": "10", "admin_type:KE": "sublocation", "name": "Lower Kiongone", "official_name": "Lower Kiongone Sublocation", "place": "village"}}, {"type": "node", "id": 11801698084, "lat": -0.1284965, "lon": 37.6393157, "tags": {"admin_level": "10", "admin_type:KE": "sublocation", "name": "Igandene", "official_name": "Igandene Sublocation", "place": "village"}}, {"type": "node", "id": 11801698085, "lat": -0.1252644, "lon": 37.6151812, "tags": {"admin_level": "10", "admin_type:KE": "sublocation", "name": "Bubui", "official_name": "Bubui Sublocation", "place": "village"}}, {"type": "node", "id": 11801698086, "lat": -0.0936976, "lon": 37.6170346, "tags": {"admin_level": "10", "admin_type:KE": "sublocation", "name": "Machikine", "official_name": "Machikine Sublocation", "place": "village"}}, {"type": "node", "id": 11801698087, "lat": -0.1129504, "lon": 37.5776571, "tags": {"admin_level": "10", "admin_type:KE": "sublocation", "name": "Kithatngari", "official_name": "Kithatngari Sublocation", "place": "village"}}, {"type": "node", "id": 11801698088, "lat": -0.0951232, "lon": 37.584722, "tags": {"admin_level": "10", "admin_type:KE": "sublocation", "name": "Upper Chure", "official_name": "Upper Chure Sublocation", "place": "village"}}, {"type": "node", "id": 11801698089, "lat": -0.1087353, "lon": 37.6332754, "tags": {"admin_level": "10", "admin_type:KE": "sublocation", "name": "Ngongo", "official_name": "Ngongo Sublocation", "place": "village"}}, {"type": "node", "id": 11801698090, "lat": -0.1075941, "lon": 37.597948, "tags": {"admin_level": "10", "admin_type:KE": "sublocation", "name": "Iriene", "official_name": "Iriene Sublocation", "place": "village"}}, {"type": "node", "id": 11801698091, "lat": -0.0819495, "lon": 37.6062146, "tags": {"admin_level": "10", "admin_type:KE": "sublocation", "name": "Giuti", "official_name": "Giuti Sublocation", "place": "village"}}, {"type": "way", "id": 678380903, "nodes": [6352047319, 6352047320, 6352047321, 6352047322, 6352047323, 6352047324, 6352047325, 6352047326, 6352047327, 6352047328, 6352047329, 6352047330, 6352047331, 6352047319], "tags": {"name": "Meru", "place": "city", "wikidata": "Q934149", "wikipedia": "en:Meru"}}]}