{"version": 0.6, "generator": "Overpass API 0.7.62.1 084b4234", "osm3s": {"timestamp_osm_base": "2024-09-30T22:43:14Z", "copyright": "The data included in this document is from www.openstreetmap.org. The data is made available under ODbL."}, "elements": [{"type": "node", "id": 1150899209, "lat": 4.8, "lon": 39.63333, "tags": {"is_in:country": "Ethiopia", "is_in:country_code": "ET", "name": "Gebel Eluddoro", "place": "locality", "source": "GeoDatabase"}}, {"type": "node", "id": 1150915445, "lat": 5.1, "lon": 39.68333, "tags": {"is_in:country": "Ethiopia", "is_in:country_code": "ET", "name": "Bica", "place": "locality", "source": "GeoDatabase"}}, {"type": "node", "id": 1150935255, "lat": 4.75, "lon": 39.68333, "tags": {"is_in:country": "Ethiopia", "is_in:country_code": "ET", "name": "Odo", "place": "locality", "source": "GeoDatabase"}}, {"type": "node", "id": 1150935332, "lat": 4.81667, "lon": 39.83333, "tags": {"is_in:country": "Ethiopia", "is_in:country_code": "ET", "name": "Ridderu", "place": "locality", "source": "GeoDatabase"}}, {"type": "node", "id": 1150958084, "lat": 5.06667, "lon": 39.75, "tags": {"is_in:country": "Ethiopia", "is_in:country_code": "ET", "name": "Ted Ridge", "place": "locality", "source": "GeoDatabase"}}, {"type": "node", "id": 1150962306, "lat": 4.68333, "lon": 39.65, "tags": {"is_in:country": "Ethiopia", "is_in:country_code": "ET", "name": "Aloi", "place": "locality", "source": "GeoDatabase"}}, {"type": "node", "id": 1150969081, "lat": 4.66667, "lon": 40.0, "tags": {"is_in:country": "Ethiopia", "is_in:country_code": "ET", "name": "Borenea", "place": "locality", "source": "GeoDatabase"}}, {"type": "node", "id": 1150979025, "lat": 4.95, "lon": 39.83333, "tags": {"is_in:country": "Ethiopia", "is_in:country_code": "ET", "name": "Siro", "place": "locality", "source": "GeoDatabase"}}, {"type": "node", "id": 1150979992, "lat": 4.71667, "lon": 39.81666, "tags": {"is_in:country": "Ethiopia", "is_in:country_code": "ET", "name": "Malca Lucche", "place": "locality", "source": "GeoDatabase"}}, {"type": "node", "id": 3167301620, "lat": 4.7286507, "lon": 39.9368637, "tags": {"place": "hamlet"}}, {"type": "node", "id": 10263030784, "lat": 5.0183469, "lon": 39.7112584, "tags": {"name": "Hadhesa", "place": "village"}}]}