{"version": 0.6, "generator": "Overpass API 0.7.62.1 084b4234", "osm3s": {"timestamp_osm_base": "2024-09-30T19:31:59Z", "copyright": "The data included in this document is from www.openstreetmap.org. The data is made available under ODbL."}, "elements": [{"type": "node", "id": 1150881667, "lat": 9.71056, "lon": 42.88278, "tags": {"is_in:country": "Ethiopia", "is_in:country_code": "ET", "name": "Khando-Dirshe", "place": "locality", "source": "GeoDatabase"}}, {"type": "node", "id": 1150882058, "lat": 9.82889, "lon": 43.03139, "tags": {"is_in:country": "Ethiopia", "is_in:country_code": "ET", "name": "Harawa", "place": "locality", "source": "GeoDatabase"}}, {"type": "node", "id": 1150884324, "lat": 9.69528, "lon": 42.76417, "tags": {"is_in:country": "Ethiopia", "is_in:country_code": "ET", "name": "Serir Gerad", "place": "locality", "source": "GeoDatabase"}}, {"type": "node", "id": 1150885696, "lat": 9.93722, "lon": 42.90666, "tags": {"is_in:country": "Ethiopia", "is_in:country_code": "ET", "name": "Elbahe Shet'", "place": "locality", "source": "GeoDatabase", "wikidata": "Q23962273"}}, {"type": "node", "id": 1150886678, "lat": 9.93611, "lon": 42.87278, "tags": {"is_in:country": "Ethiopia", "is_in:country_code": "ET", "name": "Jelo Shet'", "place": "locality", "source": "GeoDatabase", "wikidata": "Q23961492"}}, {"type": "node", "id": 1150886909, "lat": 9.91444, "lon": 42.77917, "tags": {"is_in:country": "Ethiopia", "is_in:country_code": "ET", "name": "Dogle Shet'", "place": "locality", "source": "GeoDatabase", "wikidata": "Q23962369"}}, {"type": "node", "id": 1150886918, "lat": 9.6975, "lon": 42.69278, "tags": {"is_in:country": "Ethiopia", "is_in:country_code": "ET", "name": "Uadzhi", "place": "locality", "source": "GeoDatabase"}}, {"type": "node", "id": 1150891375, "lat": 9.6852804, "lon": 43.0104854, "tags": {"is_in:country": "Ethiopia", "is_in:country_code": "ET", "name": "Solsol", "place": "locality", "source": "GeoDatabase"}}, {"type": "node", "id": 1150892035, "lat": 9.93361, "lon": 42.7175, "tags": {"is_in:country": "Ethiopia", "is_in:country_code": "ET", "name": "Arabi", "place": "village", "source": "GeoDatabase", "wikidata": "Q55604119"}}, {"type": "node", "id": 1150898539, "lat": 9.76861, "lon": 42.74889, "tags": {"is_in:country": "Ethiopia", "is_in:country_code": "ET", "name": "Giogi", "place": "locality", "source": "GeoDatabase"}}, {"type": "node", "id": 1150899628, "lat": 9.6725, "lon": 42.92333, "tags": {"is_in:country": "Ethiopia", "is_in:country_code": "ET", "name": "Dzhare", "place": "locality", "source": "GeoDatabase"}}, {"type": "node", "id": 1150900121, "lat": 9.88361, "lon": 42.95194, "tags": {"is_in:country": "Ethiopia", "is_in:country_code": "ET", "name": "Harewe (1)", "place": "locality", "source": "GeoDatabase"}}, {"type": "node", "id": 1150905326, "lat": 9.69111, "lon": 42.80305, "tags": {"is_in:country": "Ethiopia", "is_in:country_code": "ET", "name": "Golorot", "place": "locality", "source": "GeoDatabase"}}, {"type": "node", "id": 1150907402, "lat": 9.90417, "lon": 43.05056, "tags": {"name": "Badzhadzhar", "place": "locality", "source": "GeoDatabase"}}, {"type": "node", "id": 1150908170, "lat": 9.72139, "lon": 42.82028, "tags": {"is_in:country": "Ethiopia", "is_in:country_code": "ET", "name": "Godeyti", "place": "locality", "source": "GeoDatabase"}}, {"type": "node", "id": 1150909049, "lat": 9.85167, "lon": 42.98139, "tags": {"is_in:country": "Ethiopia", "is_in:country_code": "ET", "name": "Gebbi Abeyu", "place": "locality", "source": "GeoDatabase"}}, {"type": "node", "id": 1150912244, "lat": 9.96667, "lon": 42.96667, "tags": {"is_in:country": "Ethiopia", "is_in:country_code": "ET", "name": "Arrho", "place": "locality", "source": "GeoDatabase"}}, {"type": "node", "id": 1150920186, "lat": 9.71417, "lon": 42.84056, "tags": {"is_in:country": "Ethiopia", "is_in:country_code": "ET", "name": "Gara Garri", "place": "locality", "source": "GeoDatabase", "wikidata": "Q24030185"}}, {"type": "node", "id": 1150921111, "lat": 9.80278, "lon": 42.91722, "tags": {"is_in:country": "Ethiopia", "is_in:country_code": "ET", "name": "Somadu", "place": "locality", "source": "GeoDatabase"}}, {"type": "node", "id": 1150921689, "lat": 9.91833, "lon": 42.73278, "tags": {"is_in:country": "Ethiopia", "is_in:country_code": "ET", "name": "Shebele Shet'", "place": "locality", "source": "GeoDatabase", "wikidata": "Q23961172"}}, {"type": "node", "id": 1150922575, "lat": 9.96667, "lon": 42.91667, "tags": {"is_in:country": "Ethiopia", "is_in:country_code": "ET", "name": "Lasa'Anot Bota", "place": "locality", "source": "GeoDatabase"}}, {"type": "node", "id": 1150925024, "lat": 9.65972, "lon": 43.07111, "tags": {"is_in:country": "Ethiopia", "is_in:country_code": "ET", "name": "Kharkebobe", "place": "locality", "source": "GeoDatabase"}}, {"type": "node", "id": 1150925381, "lat": 9.84, "lon": 43.04417, "tags": {"is_in:country": "Ethiopia", "is_in:country_code": "ET", "name": "Derwernache", "place": "locality", "source": "GeoDatabase"}}, {"type": "node", "id": 1150931161, "lat": 9.69528, "lon": 42.97389, "tags": {"is_in:country": "Ethiopia", "is_in:country_code": "ET", "name": "Goljini", "place": "locality", "source": "GeoDatabase"}}, {"type": "node", "id": 1150932615, "lat": 9.83556, "lon": 42.74889, "tags": {"is_in:country": "Ethiopia", "is_in:country_code": "ET", "name": "Giogi", "place": "locality", "source": "GeoDatabase"}}, {"type": "node", "id": 1150936014, "lat": 9.75111, "lon": 42.8825, "tags": {"is_in:country": "Ethiopia", "is_in:country_code": "ET", "name": "Korolai", "place": "locality", "source": "GeoDatabase"}}, {"type": "node", "id": 1150936490, "lat": 9.89194, "lon": 42.99944, "tags": {"is_in:country": "Ethiopia", "is_in:country_code": "ET", "name": "Harewe Shet'", "place": "locality", "source": "GeoDatabase", "wikidata": "Q23963162"}}, {"type": "node", "id": 1150944177, "lat": 9.71889, "lon": 42.76528, "tags": {"is_in:country": "Ethiopia", "is_in:country_code": "ET", "name": "Valle Gogheita", "place": "locality", "source": "GeoDatabase"}}, {"type": "node", "id": 1150947685, "lat": 9.66972, "lon": 42.89833, "tags": {"is_in:country": "Ethiopia", "is_in:country_code": "ET", "name": "Samaua", "place": "locality", "source": "GeoDatabase"}}, {"type": "node", "id": 1150949157, "lat": 9.78167, "lon": 43.00861, "tags": {"is_in:country": "Ethiopia", "is_in:country_code": "ET", "name": "Harewe (2)", "place": "locality", "source": "GeoDatabase"}}, {"type": "node", "id": 1150957683, "lat": 9.7375, "lon": 42.74167, "tags": {"is_in:country": "Ethiopia", "is_in:country_code": "ET", "name": "Gureholad", "place": "locality", "source": "GeoDatabase"}}, {"type": "node", "id": 1150963144, "lat": 9.92972, "lon": 42.84028, "tags": {"is_in:country": "Ethiopia", "is_in:country_code": "ET", "name": "Gogeyti Shet'", "place": "locality", "source": "GeoDatabase", "wikidata": "Q23961962"}}, {"type": "node", "id": 1150963591, "lat": 9.91361, "lon": 42.765, "tags": {"is_in:country": "Ethiopia", "is_in:country_code": "ET", "name": "Kharoue-Shet", "place": "locality", "source": "GeoDatabase"}}, {"type": "node", "id": 1150966710, "lat": 9.9975, "lon": 42.90944, "tags": {"is_in:country": "Ethiopia", "is_in:country_code": "ET", "name": "Guburka'As", "place": "locality", "source": "GeoDatabase"}}, {"type": "node", "id": 1150973718, "lat": 9.73583, "lon": 42.93167, "tags": {"is_in:country": "Ethiopia", "is_in:country_code": "ET", "name": "Ag Giogsi", "place": "locality", "source": "GeoDatabase"}}, {"type": "node", "id": 1150975039, "lat": 9.78583, "lon": 42.77528, "tags": {"is_in:country": "Ethiopia", "is_in:country_code": "ET", "name": "Sciabellei", "place": "locality", "source": "GeoDatabase"}}, {"type": "node", "id": 1150980273, "lat": 9.91667, "lon": 43.01667, "tags": {"name": "Mogora", "place": "locality", "source": "GeoDatabase"}}, {"type": "node", "id": 1151005067, "lat": 9.95111, "lon": 42.69417, "tags": {"is_in:country": "Ethiopia", "is_in:country_code": "ET", "name": "Arabi Shet'", "place": "locality", "source": "GeoDatabase", "wikidata": "Q23962828"}}, {"type": "node", "id": 10601493249, "lat": 9.8589897, "lon": 43.0597865, "tags": {"name": "Harawo", "place": "hamlet"}}]}