{"version": 0.6, "generator": "Overpass API 0.7.62.1 084b4234", "osm3s": {"timestamp_osm_base": "2024-09-30T18:32:59Z", "copyright": "The data included in this document is from www.openstreetmap.org. The data is made available under ODbL."}, "elements": [{"type": "node", "id": 44915235, "lat": -0.7166, "lon": 36.65, "tags": {"name": "South Kinangop", "place": "village"}}, {"type": "node", "id": 44930854, "lat": -0.5833, "lon": 36.6166, "tags": {"is_in": "Nyandarua,Kenya", "name": "Mai Maharo", "place": "village", "wikidata": "Q6735152"}}, {"type": "node", "id": 44930866, "lat": -0.5833, "lon": 36.6166, "tags": {"created_by": "JOSM", "is_in": "Nyandarua,Kenya", "name": "Mai Mahoro", "place": "village"}}, {"type": "node", "id": 44999413, "lat": -0.85, "lon": 36.6333, "tags": {"created_by": "JOSM", "is_in": "Kiambu,Kenya", "name": "Kamae", "place": "village"}}, {"type": "node", "id": 45001550, "lat": -0.7846088, "lon": 36.5600851, "tags": {"name": "Heni Village", "place": "village", "wikidata": "Q5714388"}}, {"type": "node", "id": 1124744504, "lat": -0.8835136, "lon": 36.4972872, "tags": {"is_in": "Rift Valley Province", "name": "Longonot", "place": "village"}}, {"type": "node", "id": 2106319162, "lat": -0.6053885, "lon": 36.5776879, "tags": {"name": "Engineer", "place": "village"}}, {"type": "node", "id": 2106755480, "lat": -0.725998, "lon": 36.653323, "tags": {"name": "Njabini", "place": "town", "wikidata": "Q15045651", "wikipedia": "en:Njabini"}}, {"type": "node", "id": 2106763209, "lat": -0.7715718, "lon": 36.5998203, "tags": {"name": "Kwaharaka", "place": "village"}}, {"type": "node", "id": 3901084305, "lat": -0.8037041, "lon": 36.5315425, "tags": {"addr:city": "Kinungi", "addr:street": "Nairobi - Nakuru Road", "name": "Kinungi", "place": "town", "source": "local knowledge"}}, {"type": "node", "id": 6346889889, "lat": -0.801392, "lon": 36.5300098}, {"type": "node", "id": 6346889890, "lat": -0.8036379, "lon": 36.5274784}, {"type": "node", "id": 6346889891, "lat": -0.8089317, "lon": 36.5316498}, {"type": "node", "id": 6346889892, "lat": -0.8066146, "lon": 36.5365164}, {"type": "node", "id": 6346889893, "lat": -0.800269, "lon": 36.5314359}, {"type": "node", "id": 6346889894, "lat": -0.8766999, "lon": 36.5667579}, {"type": "node", "id": 6346889895, "lat": -0.8784154, "lon": 36.5648807}, {"type": "node", "id": 6346889896, "lat": -0.8814428, "lon": 36.5683324}, {"type": "node", "id": 6346889897, "lat": -0.8789805, "lon": 36.570472}, {"type": "node", "id": 6346889898, "lat": -0.8763972, "lon": 36.5680498}, {"type": "node", "id": 9303679781, "lat": -0.5962652, "lon": 36.4722772, "tags": {"alt_name": "Ol Aragwai Settlement;Olaragwai Settlement", "name": "Ol Aragwai", "place": "village", "source": "Historical map - Geological Map of the Naivasha Area - Degree Sheet 43 SW quarter sheet 133 - Survey of Kenya (S.O.K) 1963", "source:date": "1963"}}, {"type": "node", "id": 9685638328, "lat": -0.6293247, "lon": 36.4761172, "tags": {"name": "Kirima", "place": "village"}}, {"type": "node", "id": 9685638332, "lat": -0.6534211, "lon": 36.4717839, "tags": {"name": "Nanga Kihoto", "place": "village"}}, {"type": "node", "id": 9685638333, "lat": -0.6723646, "lon": 36.4715573, "tags": {"name": "New Karati", "place": "village"}}, {"type": "node", "id": 9685638335, "lat": -0.6906778, "lon": 36.473955, "tags": {"name": "North Karati A", "place": "village"}}, {"type": "node", "id": 9731795638, "lat": -0.6853893, "lon": 36.4918504, "tags": {"name": "Chotara", "place": "village"}}, {"type": "node", "id": 9731795639, "lat": -0.6977872, "lon": 36.48313, "tags": {"name": "Makara", "place": "village"}}, {"type": "node", "id": 9731795640, "lat": -0.7315364, "lon": 36.4802757, "tags": {"name": "Wamahehe", "place": "village"}}, {"type": "node", "id": 9731795641, "lat": -0.7121575, "lon": 36.4960273, "tags": {"name": "Line Moja", "place": "village"}}, {"type": "node", "id": 9731795642, "lat": -0.7144751, "lon": 36.4849435, "tags": {"name": "Mukinyai/ A.K Israel", "place": "village"}}, {"type": "node", "id": 9731795643, "lat": -0.6564773, "lon": 36.4876362, "tags": {"name": "Nys", "place": "village"}}, {"type": "node", "id": 9731795644, "lat": -0.678287, "lon": 36.4919577, "tags": {"name": "Millimani", "place": "village"}}, {"type": "node", "id": 9731795645, "lat": -0.6952173, "lon": 36.5032337, "tags": {"name": "Kangema", "place": "village"}}, {"type": "node", "id": 9731795646, "lat": -0.7232563, "lon": 36.5222874, "tags": {"name": "Kanyiriri", "place": "village"}}, {"type": "node", "id": 9731795647, "lat": -0.7246488, "lon": 36.5139925, "tags": {"name": "Muteithia", "place": "village"}}, {"type": "node", "id": 9731795648, "lat": -0.668536, "lon": 36.4898738, "tags": {"name": "Kwale", "place": "village"}}, {"type": "node", "id": 9731795649, "lat": -0.7113565, "lon": 36.5117515, "tags": {"name": "Highland", "place": "village"}}, {"type": "node", "id": 9731795650, "lat": -0.6852479, "lon": 36.5260811, "tags": {"name": "Ndoroto B", "place": "village"}}, {"type": "node", "id": 9731795651, "lat": -0.6379354, "lon": 36.4924276, "tags": {"name": "Kirima A", "place": "village"}}, {"type": "node", "id": 9731795652, "lat": -0.6957778, "lon": 36.5372911, "tags": {"name": "Muthithi", "place": "village"}}, {"type": "node", "id": 9731795653, "lat": -0.6719005, "lon": 36.5202651, "tags": {"name": "Mwalimu Rachael", "place": "village"}}, {"type": "node", "id": 9731795654, "lat": -0.7014209, "lon": 36.5284084, "tags": {"name": "Ndoroto A", "place": "village"}}, {"type": "node", "id": 9731795655, "lat": -0.6989417, "lon": 36.5182395, "tags": {"name": "Ndoroto Kwa White", "place": "village"}}, {"type": "node", "id": 9731795656, "lat": -0.6649541, "lon": 36.5110536, "tags": {"name": "Gituru A", "place": "village"}}, {"type": "node", "id": 9731795657, "lat": -0.6424124, "lon": 36.5210139, "tags": {"name": "BBC", "place": "village"}}, {"type": "node", "id": 9731795658, "lat": -0.6364844, "lon": 36.5047331, "tags": {"name": "Rutere B", "place": "village"}}, {"type": "node", "id": 9731795659, "lat": -0.6281179, "lon": 36.4953887, "tags": {"name": "Kirima B", "place": "village"}}, {"type": "node", "id": 9731795660, "lat": -0.6500067, "lon": 36.5013439, "tags": {"name": "Gituru B", "place": "village"}}, {"type": "node", "id": 9731795661, "lat": -0.6437954, "lon": 36.5135789, "tags": {"name": "Wirugamie", "place": "village"}}, {"type": "node", "id": 9731795662, "lat": -0.6278402, "lon": 36.5037027, "tags": {"name": "Rutere A", "place": "village"}}, {"type": "node", "id": 9731795663, "lat": -0.6233165, "lon": 36.5121953, "tags": {"name": "Mwangaza", "place": "village"}}, {"type": "node", "id": 9731795664, "lat": -0.7049775, "lon": 36.4846811, "tags": {"name": "Goodfaith", "place": "village"}}, {"type": "node", "id": 9731795665, "lat": -0.7337652, "lon": 36.4734912, "tags": {"name": "Gituamba", "place": "village"}}, {"type": "node", "id": 9731795667, "lat": -0.7097149, "lon": 36.4792705, "tags": {"name": "Nyondia", "place": "village"}}, {"type": "node", "id": 9731795668, "lat": -0.7193486, "lon": 36.4803781, "tags": {"name": "Upper Kinamba", "place": "village"}}, {"type": "node", "id": 9731795669, "lat": -0.7242632, "lon": 36.4754344, "tags": {"name": "Kinamba Centre", "place": "village"}}, {"type": "node", "id": 9731854426, "lat": -0.6364945, "lon": 36.5047458, "tags": {"name": "Rutere B", "place": "village"}}, {"type": "node", "id": 9731854432, "lat": -0.7049755, "lon": 36.4846867, "tags": {"name": "Goodfaith", "place": "village"}}, {"type": "node", "id": 9731854434, "lat": -0.72616, "lon": 36.487942, "tags": {"name": "Kamurugu", "place": "village"}}, {"type": "node", "id": 9731854435, "lat": -0.7096991, "lon": 36.4792732, "tags": {"name": "Nyondia", "place": "village"}}, {"type": "node", "id": 9734032316, "lat": -0.8054654, "lon": 36.5298519, "tags": {"name": "Kinungi Center", "place": "village"}}, {"type": "node", "id": 9734094321, "lat": -0.7820742, "lon": 36.495497, "tags": {"name": "Central Nyamathi", "place": "village"}}, {"type": "node", "id": 9734094322, "lat": -0.8120549, "lon": 36.5322222, "tags": {"name": "Kinungi", "place": "village"}}, {"type": "node", "id": 9734094323, "lat": -0.8129849, "lon": 36.5240276, "tags": {"name": "Kinungi West", "place": "village"}}, {"type": "node", "id": 9734094324, "lat": -0.8075126, "lon": 36.5155703, "tags": {"name": "Mwiciringeri", "place": "village"}}, {"type": "node", "id": 9734094325, "lat": -0.7815722, "lon": 36.4719272, "tags": {"name": "Lower Nyamathi", "place": "village"}}, {"type": "node", "id": 9734094326, "lat": -0.8005585, "lon": 36.505282, "tags": {"name": "Acre Mbili (London )", "place": "village"}}, {"type": "node", "id": 9734094327, "lat": -0.7839929, "lon": 36.5097256, "tags": {"name": "Upper Nyamathi", "place": "village"}}, {"type": "node", "id": 9734094328, "lat": -0.8036472, "lon": 36.4826119, "tags": {"name": "Kameno", "place": "village"}}, {"type": "node", "id": 9734094329, "lat": -0.8137828, "lon": 36.5034967, "tags": {"name": "Kamuyu Dam", "place": "village"}}, {"type": "node", "id": 9734094330, "lat": -0.8259279, "lon": 36.5090253, "tags": {"name": "Guchuga Village", "place": "village"}}, {"type": "node", "id": 9734094331, "lat": -0.8479066, "lon": 36.4898935, "tags": {"name": "Kamuyu Kandivai", "place": "village"}}, {"type": "node", "id": 9734094332, "lat": -0.8282623, "lon": 36.4844289, "tags": {"name": "Kamuyu Canaan", "place": "village"}}, {"type": "node", "id": 9734094333, "lat": -0.7947818, "lon": 36.5113103, "tags": {"name": "Nyamathi C", "place": "village"}}, {"type": "node", "id": 9734094334, "lat": -0.7678636, "lon": 36.4854474, "tags": {"name": "Karai", "place": "village"}}, {"type": "node", "id": 9734094335, "lat": -0.7851998, "lon": 36.5204007, "tags": {"name": "Nyamathi", "place": "village"}}, {"type": "node", "id": 9734094365, "lat": -0.8030241, "lon": 36.5236396, "tags": {"name": "Bonde", "place": "village"}}, {"type": "node", "id": 9739336868, "lat": -0.7679881, "lon": 36.4701781, "tags": {"name": "Keroche", "place": "village"}}, {"type": "node", "id": 9752714899, "lat": -0.8873244, "lon": 36.5223116, "tags": {"name": "Kamore", "place": "village"}}, {"type": "node", "id": 9752714909, "lat": -0.9141268, "lon": 36.5296056, "tags": {"name": "Munengi", "place": "village"}}, {"type": "node", "id": 9752714912, "lat": -0.8676216, "lon": 36.500147, "tags": {"name": "Lower Kiambogo", "place": "village"}}, {"type": "node", "id": 9752714914, "lat": -0.9020807, "lon": 36.4809589, "tags": {"name": "Scheme", "place": "village"}}, {"type": "node", "id": 9752714915, "lat": -0.8894336, "lon": 36.4939315, "tags": {"name": "Githarane", "place": "village"}}, {"type": "node", "id": 9752743017, "lat": -0.8826752, "lon": 36.495945, "tags": {"name": "Longonot Centre", "place": "village"}}, {"type": "node", "id": 9756178247, "lat": -0.7778002, "lon": 36.5248155, "tags": {"name": "Nyakairu", "place": "village"}}, {"type": "node", "id": 9756178248, "lat": -0.736493, "lon": 36.4988889, "tags": {"name": "Kahuruko", "place": "village"}}, {"type": "node", "id": 9756178249, "lat": -0.7590815, "lon": 36.4893316, "tags": {"name": "Karai", "place": "village"}}, {"type": "node", "id": 9756178250, "lat": -0.8781322, "lon": 36.5446877, "tags": {"name": "Kahuho", "place": "village"}}, {"type": "node", "id": 9756178251, "lat": -0.8261294, "lon": 36.5255229, "tags": {"name": "Muririchwa", "place": "village"}}, {"type": "node", "id": 9756178252, "lat": -0.8672734, "lon": 36.5491565, "tags": {"name": "Ika Imwe", "place": "village"}}, {"type": "node", "id": 9756178253, "lat": -0.8480019, "lon": 36.5539252, "tags": {"name": "Ihindu Centre", "place": "village"}}, {"type": "node", "id": 9756178254, "lat": -0.8449078, "lon": 36.5248581, "tags": {"name": "Kimunyu", "place": "village"}}, {"type": "node", "id": 9756178255, "lat": -0.8343217, "lon": 36.5550261, "tags": {"name": "Ihindu", "place": "village"}}, {"type": "node", "id": 9756178256, "lat": -0.8488103, "lon": 36.54227, "tags": {"name": "Sindano", "place": "village"}}, {"type": "node", "id": 9756178257, "lat": -0.8603506, "lon": 36.5253748, "tags": {"name": "Kiambogo Central", "place": "village"}}, {"type": "node", "id": 9756178258, "lat": -0.8718136, "lon": 36.5285474, "tags": {"name": "Lower Sision", "place": "village"}}, {"type": "node", "id": 9756178259, "lat": -0.8279373, "lon": 36.5446386, "tags": {"name": "Mukuru", "place": "village"}}, {"type": "node", "id": 9756178260, "lat": -0.8348726, "lon": 36.5411278, "tags": {"name": "Munyu", "place": "village"}}, {"type": "node", "id": 9756178261, "lat": -0.7642076, "lon": 36.5024262, "tags": {"name": "Line", "place": "village"}}, {"type": "node", "id": 9756178262, "lat": -0.8587487, "lon": 36.54604, "tags": {"name": "Msafiri", "place": "village"}}, {"type": "node", "id": 9756178263, "lat": -0.8225749, "lon": 36.5492887, "tags": {"name": "Kimeme", "place": "village"}}, {"type": "node", "id": 9756178264, "lat": -0.8075313, "lon": 36.5382309, "tags": {"name": "Kinungi Central", "place": "village"}}, {"type": "node", "id": 9756178265, "lat": -0.7888975, "lon": 36.5304367, "tags": {"name": "Mwega", "place": "village"}}, {"type": "node", "id": 9756178266, "lat": -0.808189, "lon": 36.5470852, "tags": {"name": "Kinungi Upper", "place": "village"}}, {"type": "node", "id": 9756178267, "lat": -0.732547, "lon": 36.5121825, "tags": {"name": "Mugumo", "place": "village"}}, {"type": "node", "id": 9756178268, "lat": -0.7766895, "lon": 36.5373644, "tags": {"name": "Nyakairu Rugungo", "place": "village"}}, {"type": "node", "id": 9756178269, "lat": -0.7437368, "lon": 36.5205385, "tags": {"name": "Runda", "place": "village"}}, {"type": "node", "id": 9756178270, "lat": -0.750497, "lon": 36.5109266, "tags": {"name": "Kanjogo East", "place": "village"}}, {"type": "node", "id": 9756178271, "lat": -0.7916682, "lon": 36.5409875, "tags": {"name": "Upper Mwega", "place": "village"}}, {"type": "node", "id": 9756178272, "lat": -0.7418505, "lon": 36.4993083, "tags": {"name": "Customer", "place": "village"}}, {"type": "node", "id": 9756178273, "lat": -0.7648222, "lon": 36.5197355, "tags": {"name": "Ngomongo", "place": "village"}}, {"type": "node", "id": 9756178274, "lat": -0.7392797, "lon": 36.5285358, "tags": {"name": "Canaan", "place": "village"}}, {"type": "node", "id": 9756178275, "lat": -0.7577015, "lon": 36.5271095, "tags": {"name": "Muthaiga", "place": "village"}}, {"type": "node", "id": 9756178276, "lat": -0.753051, "lon": 36.5345772, "tags": {"name": "Kirima", "place": "village"}}, {"type": "node", "id": 9756178277, "lat": -0.7380687, "lon": 36.5112729, "tags": {"name": "Rurii", "place": "village"}}, {"type": "node", "id": 9756178278, "lat": -0.7292891, "lon": 36.4964275, "tags": {"name": "Kahuroko", "place": "village"}}, {"type": "node", "id": 9756178279, "lat": -0.756317, "lon": 36.5067906, "tags": {"name": "Kanjogo West", "place": "village"}}, {"type": "node", "id": 9756178280, "lat": -0.7488323, "lon": 36.4976072, "tags": {"name": "Mutitu", "place": "village"}}, {"type": "node", "id": 9756178284, "lat": -0.7477896, "lon": 36.4831911, "tags": {"name": "Mararo", "place": "village"}}, {"type": "node", "id": 9756178285, "lat": -0.744261, "lon": 36.4728226, "tags": {"name": "Panda", "place": "village"}}, {"type": "node", "id": 9756200430, "lat": -0.7222543, "lon": 36.4718431, "tags": {"name": "Wa Josali", "place": "village"}}, {"type": "node", "id": 9756200431, "lat": -0.7005702, "lon": 36.4767325, "tags": {"name": "Greenvalley", "place": "village"}}, {"type": "node", "id": 9756200434, "lat": -0.7129716, "lon": 36.472523, "tags": {"name": "Peppercorn", "place": "village"}}, {"type": "way", "id": 677837425, "nodes": [6346889889, 6346889890, 6346889891, 6346889892, 6346889893, 6346889889], "tags": {"name": "Kinungi", "place": "town"}}, {"type": "way", "id": 677837428, "nodes": [6346889894, 6346889895, 6346889896, 6346889897, 6346889898, 6346889894], "tags": {"name": "Flyover", "place": "town", "source": "local knowledge"}}]}