{"version": 0.6, "generator": "Overpass API 0.7.62.1 084b4234", "osm3s": {"timestamp_osm_base": "2024-09-30T22:46:26Z", "copyright": "The data included in this document is from www.openstreetmap.org. The data is made available under ODbL."}, "elements": [{"type": "node", "id": 1150882189, "lat": 7.65, "lon": 36.13333, "tags": {"is_in:country": "Ethiopia", "is_in:country_code": "ET", "name": "Mount Gaua", "place": "locality", "source": "GeoDatabase"}}, {"type": "node", "id": 1150885742, "lat": 7.75, "lon": 36.36667, "tags": {"is_in:country": "Ethiopia", "is_in:country_code": "ET", "name": "Gera Bota", "place": "locality", "source": "GeoDatabase"}}, {"type": "node", "id": 1150885960, "lat": 7.86667, "lon": 36.4, "tags": {"is_in:country": "Ethiopia", "is_in:country_code": "ET", "name": "K'Ota", "place": "locality", "source": "GeoDatabase"}}, {"type": "node", "id": 1150889461, "lat": 7.75, "lon": 36.25, "tags": {"is_in:country": "Ethiopia", "is_in:country_code": "ET", "name": "Duseta", "place": "locality", "source": "GeoDatabase"}}, {"type": "node", "id": 1150894287, "lat": 7.85, "lon": 36.18333, "tags": {"is_in:country": "Ethiopia", "is_in:country_code": "ET", "name": "Lemma", "place": "locality", "source": "GeoDatabase"}}, {"type": "node", "id": 1150895799, "lat": 7.75, "lon": 36.18333, "tags": {"is_in:country": "Ethiopia", "is_in:country_code": "ET", "name": "Yedota", "place": "locality", "source": "GeoDatabase"}}, {"type": "node", "id": 1150900188, "lat": 7.85, "lon": 36.08333, "tags": {"is_in:country": "Ethiopia", "is_in:country_code": "ET", "name": "Sidamo", "place": "locality", "source": "GeoDatabase"}}, {"type": "node", "id": 1150909554, "lat": 7.9, "lon": 36.41667, "tags": {"is_in:country": "Ethiopia", "is_in:country_code": "ET", "name": "K'Ota Bota", "place": "locality", "source": "GeoDatabase"}}, {"type": "node", "id": 1150926843, "lat": 7.8, "lon": 36.2, "tags": {"is_in:country": "Ethiopia", "is_in:country_code": "ET", "name": "Keso Bota", "place": "locality", "source": "GeoDatabase"}}, {"type": "node", "id": 1150938553, "lat": 7.75, "lon": 36.1, "tags": {"is_in:country": "Ethiopia", "is_in:country_code": "ET", "name": "Mount Gorgota", "place": "locality", "source": "GeoDatabase"}}, {"type": "node", "id": 1150949565, "lat": 8.01667, "lon": 36.05, "tags": {"is_in:country": "Ethiopia", "is_in:country_code": "ET", "name": "At'Ir Geda Shet'", "place": "locality", "source": "GeoDatabase"}}, {"type": "node", "id": 1150960500, "lat": 7.75, "lon": 36.28333, "tags": {"is_in:country": "Ethiopia", "is_in:country_code": "ET", "name": "Ch'Ira Bota", "place": "locality", "source": "GeoDatabase"}}, {"type": "node", "id": 1150960577, "lat": 8.04206, "lon": 36.24977, "tags": {"is_in:country": "Ethiopia", "is_in:country_code": "ET", "name": "Yeriba", "place": "locality", "source": "GeoDatabase"}}, {"type": "node", "id": 1150966265, "lat": 7.9807119, "lon": 36.2047523, "tags": {"name": "Gatira", "place": "village"}}, {"type": "node", "id": 1150980530, "lat": 7.83333, "lon": 36.11667, "tags": {"is_in:country": "Ethiopia", "is_in:country_code": "ET", "name": "Gido Bota", "place": "locality", "source": "GeoDatabase"}}, {"type": "node", "id": 1150982151, "lat": 7.75, "lon": 36.16667, "tags": {"is_in:country": "Ethiopia", "is_in:country_code": "ET", "name": "Monti Seccia", "place": "locality", "source": "GeoDatabase"}}, {"type": "node", "id": 1576552005, "lat": 7.6826802, "lon": 36.3333, "tags": {"name": "Afallo", "place": "village"}}, {"type": "node", "id": 1576552151, "lat": 7.7446227, "lon": 36.2500916, "tags": {"name": "Shira", "place": "town"}}, {"type": "node", "id": 1576552169, "lat": 8.0424398, "lon": 36.3410514, "tags": {"name": "Gatira", "place": "town"}}, {"type": "node", "id": 1576555865, "lat": 7.7791122, "lon": 36.3386502, "tags": {"name": "Gera", "place": "town"}}, {"type": "node", "id": 1580685583, "lat": 7.9105488, "lon": 36.0974972, "tags": {"name": "Sigmo", "place": "town"}}, {"type": "node", "id": 2068227055, "lat": 7.633137, "lon": 36.2201874, "tags": {"place": "village"}}, {"type": "node", "id": 2068229055, "lat": 7.7010824, "lon": 36.2495201, "tags": {"place": "village"}}]}