{"version": 0.6, "generator": "Overpass API 0.7.62.1 084b4234", "osm3s": {"timestamp_osm_base": "2024-09-30T18:39:14Z", "copyright": "The data included in this document is from www.openstreetmap.org. The data is made available under ODbL."}, "elements": [{"type": "node", "id": 44910345, "lat": 0.0954435, "lon": 34.5338279, "tags": {"name": "Yala", "place": "town", "wikidata": "Q3130935"}}, {"type": "node", "id": 44915463, "lat": 0.2025, "lon": 34.3636, "tags": {"name": "Sigomere", "place": "village"}}, {"type": "node", "id": 44922202, "lat": 0.0, "lon": 34.5166, "tags": {"name": "Ramula", "place": "village"}}, {"type": "node", "id": 44922208, "lat": 0.1533608, "lon": 34.3345791, "tags": {"is_in": "Siaya,Kenya", "name": "Rang'ala", "place": "village"}}, {"type": "node", "id": 44924111, "lat": 0.0764071, "lon": 34.4559176, "tags": {"name": "Nyangweso", "place": "village", "wikidata": "Q7070892"}}, {"type": "node", "id": 44924415, "lat": 0.0166, "lon": 34.35, "tags": {"name": "Nyang'oma", "place": "village"}}, {"type": "node", "id": 44926939, "lat": 0.2333, "lon": 34.4833, "tags": {"name": "Mureko", "place": "village", "wikidata": "Q6938283"}}, {"type": "node", "id": 44926994, "lat": 0.22036, "lon": 34.444439, "tags": {"name": "Musanda", "place": "village", "wikidata": "Q6940103"}}, {"type": "node", "id": 44930615, "lat": 0.1219, "lon": 34.4352, "tags": {"is_in": "Siaya,Kenya", "name": "Malanga", "place": "village", "wikidata": "Q16999298"}}, {"type": "node", "id": 44931104, "lat": 0.1062829, "lon": 34.4536236, "tags": {"is_in": "Siaya,Kenya", "name": "Kodiaga", "place": "village", "wikidata": "Q6425287"}}, {"type": "node", "id": 45004897, "lat": 0.0666, "lon": 34.4333, "tags": {"name": "Akala", "place": "village"}}, {"type": "node", "id": 45005146, "lat": 0.0593318, "lon": 34.2835138, "tags": {"name": "Siaya", "place": "town", "population": "22586", "wikidata": "Q2422035", "wikipedia": "en:Siaya"}}, {"type": "node", "id": 45005175, "lat": 0.1102, "lon": 34.5, "tags": {"created_by": "JOSM", "is_in": "Kakamega,Kenya", "name": "Muhanda", "place": "village"}}, {"type": "node", "id": 45006108, "lat": 0.1888, "lon": 34.3341, "tags": {"is_in": "Siaya,Kenya", "name": "Buholo", "place": "village", "wikidata": "Q4986319"}}, {"type": "node", "id": 45006532, "lat": 0.0275, "lon": 34.3161, "tags": {"name": "Baragulu", "place": "village", "wikidata": "Q4858187"}}, {"type": "node", "id": 45007145, "lat": 0.1086, "lon": 34.2816, "tags": {"is_in": "Siaya,Kenya", "name": "Baroseno", "place": "village", "wikidata": "Q4863058"}}, {"type": "node", "id": 1180574846, "lat": 0.0529253, "lon": 34.4337351, "tags": {"name": "Wagai", "place": "village"}}, {"type": "node", "id": 1850329991, "lat": 0.1567748, "lon": 34.3646202, "tags": {"name": "Simenya centre", "place": "village"}}, {"type": "node", "id": 1854160605, "lat": 0.1811616, "lon": 34.2964709, "tags": {"name": "Ugunja", "place": "town", "wikidata": "Q7193602"}}, {"type": "node", "id": 1855232674, "lat": 0.1563726, "lon": 34.3453001, "tags": {"name": "Simerro", "place": "village"}}, {"type": "node", "id": 1863967788, "lat": 0.1548411, "lon": 34.3807269, "tags": {"designation": "Market Centre", "name": "Sidindi", "place": "town"}}, {"type": "node", "id": 1875638260, "lat": 0.1575579, "lon": 34.3535213, "tags": {"name": "kakoth", "place": "village"}}, {"type": "node", "id": 2144233324, "lat": 0.0983614, "lon": 34.5538788, "tags": {"place": "village"}}, {"type": "node", "id": 2144309287, "lat": 0.0511605, "lon": 34.4376889, "tags": {"name": "Wagai", "place": "village"}}, {"type": "node", "id": 3641109254, "lat": -0.0082658, "lon": 34.344402, "tags": {"name": "K'ogelo", "place": "village"}}, {"type": "node", "id": 3731330018, "lat": 0.2786035, "lon": 34.4816719, "tags": {"name": "Emukokho", "place": "village"}}, {"type": "node", "id": 3731330019, "lat": 0.2786816, "lon": 34.4627223, "tags": {"name": "Imanga", "place": "village"}}, {"type": "node", "id": 3731344077, "lat": 0.2163078, "lon": 34.4981298, "tags": {"name": "Butere", "place": "town", "wikidata": "Q1017895", "wikipedia": "en:Butere"}}, {"type": "node", "id": 3731344078, "lat": 0.2032853, "lon": 34.4897359}, {"type": "node", "id": 3731344079, "lat": 0.2070497, "lon": 34.488739}, {"type": "node", "id": 3731344080, "lat": 0.2107969, "lon": 34.4884983}, {"type": "node", "id": 3731344081, "lat": 0.2137706, "lon": 34.4910939}, {"type": "node", "id": 3731344082, "lat": 0.2145613, "lon": 34.4948927}, {"type": "node", "id": 3731344083, "lat": 0.2172256, "lon": 34.4960959}, {"type": "node", "id": 3731344084, "lat": 0.2193227, "lon": 34.4964225}, {"type": "node", "id": 3731344085, "lat": 0.2210072, "lon": 34.4981414}, {"type": "node", "id": 3731344086, "lat": 0.2229839, "lon": 34.4975398}, {"type": "node", "id": 3731344087, "lat": 0.2237058, "lon": 34.5005307}, {"type": "node", "id": 3731344088, "lat": 0.2246512, "lon": 34.5025246}, {"type": "node", "id": 3731344089, "lat": 0.2254419, "lon": 34.5057906}, {"type": "node", "id": 3731344090, "lat": 0.2251153, "lon": 34.508283}, {"type": "node", "id": 3731344091, "lat": 0.2220385, "lon": 34.5090565}, {"type": "node", "id": 3731344092, "lat": 0.2196149, "lon": 34.5066844}, {"type": "node", "id": 3731344093, "lat": 0.2164693, "lon": 34.5043295}, {"type": "node", "id": 3731344094, "lat": 0.2137534, "lon": 34.5054468}, {"type": "node", "id": 3731344095, "lat": 0.2119773, "lon": 34.5053145}, {"type": "node", "id": 3731344096, "lat": 0.2106594, "lon": 34.5034013}, {"type": "node", "id": 3731344097, "lat": 0.212533, "lon": 34.5017339}, {"type": "node", "id": 3731344098, "lat": 0.211897, "lon": 34.5000322}, {"type": "node", "id": 3731344099, "lat": 0.2089233, "lon": 34.4960272}, {"type": "node", "id": 3731344100, "lat": 0.2067575, "lon": 34.4938613}, {"type": "node", "id": 3731344101, "lat": 0.2048152, "lon": 34.4943942}, {"type": "node", "id": 3731344102, "lat": 0.2036291, "lon": 34.4923659}, {"type": "node", "id": 3731344104, "lat": 0.2295824, "lon": 34.5243436, "tags": {"name": "Sabatia", "place": "town"}}, {"type": "node", "id": 3864632533, "lat": -0.0115441, "lon": 34.4665749, "tags": {"name": "Aluor", "place": "village"}}, {"type": "node", "id": 3864632549, "lat": -0.0211572, "lon": 34.5012505, "tags": {"name": "Gombe", "place": "village"}}, {"type": "node", "id": 3864633958, "lat": 0.037036, "lon": 34.4230416, "tags": {"name": "Komouk", "place": "village"}}, {"type": "node", "id": 3864633967, "lat": -0.003004, "lon": 34.3970628, "tags": {"name": "Apouche/Apuoyo", "place": "village"}}, {"type": "node", "id": 3864633987, "lat": 0.00206, "lon": 34.4389803, "tags": {"name": "Rera", "place": "village"}}, {"type": "node", "id": 3865297281, "lat": -0.0236994, "lon": 34.2835993, "tags": {"name": "Tin'Gwangi", "place": "village"}}, {"type": "node", "id": 3865297309, "lat": -0.0282055, "lon": 34.3119234, "tags": {"name": "Gori", "place": "village"}}, {"type": "node", "id": 10537901139, "lat": 0.0456132, "lon": 34.3706372, "tags": {"name": "Ng'iya", "place": "village"}}, {"type": "node", "id": 10583871535, "lat": 0.0164596, "lon": 34.3231518, "tags": {"name": "Barding", "place": "village"}}, {"type": "node", "id": 10606705550, "lat": 0.0959387, "lon": 34.4347115, "tags": {"name": "Nyawara", "place": "village"}}, {"type": "node", "id": 10718462041, "lat": 0.056722, "lon": 34.2750065, "tags": {"name": "Awelo", "place": "village"}}, {"type": "node", "id": 10718514268, "lat": 0.0404996, "lon": 34.3344104, "tags": {"name": "Dondi", "place": "village"}}, {"type": "node", "id": 10718530704, "lat": 0.0304114, "lon": 34.5512413, "tags": {"name": "Uranga", "place": "village"}}, {"type": "node", "id": 10718541086, "lat": -0.0113678, "lon": 34.3039839, "tags": {"name": "Pap Gori", "place": "village"}}, {"type": "node", "id": 10718550816, "lat": 0.0219353, "lon": 34.3457527, "tags": {"name": "Pap Nyadiel", "place": "village"}}, {"type": "node", "id": 10718742596, "lat": 0.1363916, "lon": 34.380143, "tags": {"name": "Ndere", "place": "village"}}, {"type": "node", "id": 10718923200, "lat": 0.1528579, "lon": 34.3252868, "tags": {"name": "Rangala", "place": "village"}}, {"type": "node", "id": 10718953190, "lat": 0.1372004, "lon": 34.3809791, "tags": {"name": "Ndere", "place": "village"}}, {"type": "node", "id": 10719037320, "lat": 0.2069327, "lon": 34.3038918, "tags": {"name": "Rambula", "place": "village"}}, {"type": "node", "id": 10719049686, "lat": 0.2250307, "lon": 34.3512198, "tags": {"name": "Asango", "place": "village"}}, {"type": "node", "id": 10719087332, "lat": 0.3024617, "lon": 34.3808262, "tags": {"name": "Kodongo", "place": "village"}}, {"type": "node", "id": 10719100224, "lat": 0.2863584, "lon": 34.293281, "tags": {"name": "Ramunde", "place": "village"}}, {"type": "node", "id": 10732339366, "lat": 0.1972598, "lon": 34.4322551, "tags": {"name": "Mayingo", "place": "village"}}, {"type": "node", "id": 10732339367, "lat": 0.2078363, "lon": 34.438698, "tags": {"name": "Uhuyi", "place": "village"}}, {"type": "node", "id": 10734563255, "lat": 0.1913352, "lon": 34.4223279, "tags": {"name": "Wang'tong", "place": "village"}}, {"type": "node", "id": 10756116472, "lat": 0.1988699, "lon": 34.2813315, "tags": {"name": "Dendyo", "place": "village"}}, {"type": "node", "id": 10758300073, "lat": 0.1097973, "lon": 34.4883847, "tags": {"name": "Dudi", "place": "village"}}, {"type": "node", "id": 10790035136, "lat": 0.0782079, "lon": 34.3695096, "tags": {"name": "Usula", "place": "village"}}, {"type": "node", "id": 10826663994, "lat": 0.2010113, "lon": 34.3734358, "tags": {"name": "Bungasi", "place": "village"}}, {"type": "node", "id": 10827086837, "lat": 0.2700778, "lon": 34.292694, "tags": {"name": "Urenga", "place": "village"}}, {"type": "node", "id": 10827089665, "lat": 0.168801, "lon": 34.4056085, "tags": {"name": "Sikalame", "place": "village"}}, {"type": "node", "id": 10827138108, "lat": 0.2978796, "lon": 34.3254319, "tags": {"name": "Kathieno A", "place": "village"}}, {"type": "node", "id": 10827138109, "lat": 0.2666391, "lon": 34.3366448, "tags": {"name": "Kathieno B", "place": "village"}}, {"type": "node", "id": 10827138110, "lat": 0.281552, "lon": 34.3700196, "tags": {"name": "Kathieno C", "place": "village"}}, {"type": "node", "id": 10827138111, "lat": 0.0457197, "lon": 34.283806, "tags": {"name": "Lwala", "place": "neighbourhood"}}, {"type": "node", "id": 10827138115, "lat": 0.072632, "lon": 34.317639, "tags": {"name": "Ogwato", "place": "village"}}, {"type": "node", "id": 10827138117, "lat": 0.0620935, "lon": 34.2803257, "tags": {"name": "Siaya Police Lines", "place": "neighbourhood"}}, {"type": "node", "id": 10827138118, "lat": 0.0878599, "lon": 34.3921318, "tags": {"name": "Sirembe", "place": "village"}}, {"type": "node", "id": 10827138122, "lat": -0.0205516, "lon": 34.2747686, "tags": {"name": "Uyemba", "place": "village"}}, {"type": "node", "id": 10827138124, "lat": 0.0486702, "lon": 34.3277803, "tags": {"name": "Agage", "place": "village"}}, {"type": "node", "id": 10827138125, "lat": 0.0402229, "lon": 34.2999275, "tags": {"name": "Agoro-Lieye", "place": "village"}}, {"type": "node", "id": 10827138126, "lat": 0.0587582, "lon": 34.3390115, "tags": {"name": "Aluny", "place": "village"}}, {"type": "node", "id": 10827138127, "lat": 0.037714, "lon": 34.2832924, "tags": {"name": "Anduro", "place": "village"}}, {"type": "node", "id": 10827138136, "lat": 0.0099476, "lon": 34.3601345, "tags": {"name": "Nduru", "place": "village"}}, {"type": "node", "id": 10827138138, "lat": 0.1938724, "lon": 34.3441863, "tags": {"name": "Ninga", "place": "village"}}, {"type": "node", "id": 10827138144, "lat": 0.0698445, "lon": 34.3699826, "tags": {"name": "Tula", "place": "village"}}, {"type": "node", "id": 10827138145, "lat": 0.189181, "lon": 34.3172665, "tags": {"name": "Uref", "place": "village"}}, {"type": "node", "id": 10827138146, "lat": 0.031517, "lon": 34.4539952, "tags": {"name": "Uriri", "place": "village"}}, {"type": "node", "id": 10829991091, "lat": 0.1066595, "lon": 34.5174852, "tags": {"name": "Bar Sauri", "place": "village"}}, {"type": "node", "id": 10829991094, "lat": 0.0205387, "lon": 34.4997112, "tags": {"name": "Onding", "place": "village"}}, {"type": "node", "id": 10829991096, "lat": 0.0472421, "lon": 34.4993485, "tags": {"name": "Omindo", "place": "village"}}, {"type": "node", "id": 10829991097, "lat": 0.0758798, "lon": 34.4293222, "tags": {"name": "Siriwo", "place": "village"}}, {"type": "node", "id": 10829991098, "lat": 0.0814737, "lon": 34.4548662, "tags": {"name": "Masogo", "place": "village"}}, {"type": "node", "id": 10829991099, "lat": 0.0931605, "lon": 34.4967831, "tags": {"name": "Rawalo", "place": "village"}}, {"type": "node", "id": 10829991100, "lat": 0.0781892, "lon": 34.5074861, "tags": {"name": "Luri", "place": "village"}}, {"type": "node", "id": 10829991102, "lat": 0.0737242, "lon": 34.4922844, "tags": {"name": "Gongo", "place": "village"}}, {"type": "node", "id": 10829991103, "lat": 0.0601116, "lon": 34.479767, "tags": {"name": "Migosi", "place": "village"}}, {"type": "node", "id": 10829991104, "lat": 0.025464, "lon": 34.5127927, "tags": {"name": "Uranga", "place": "village"}}, {"type": "node", "id": 10829995606, "lat": 0.0957394, "lon": 34.4510292, "tags": {"name": "Usuha", "place": "village"}}, {"type": "node", "id": 10829995607, "lat": 0.0960136, "lon": 34.46641, "tags": {"name": "Sirandu", "place": "village"}}, {"type": "node", "id": 10829995608, "lat": 0.11011, "lon": 34.4694757, "tags": {"name": "Ligoma", "place": "village"}}, {"type": "node", "id": 10829995609, "lat": 0.1102244, "lon": 34.4746858, "tags": {"name": "Ukaya", "place": "village"}}, {"type": "node", "id": 10837985972, "lat": 0.0912828, "lon": 34.5350283, "tags": {"name": "Umiru Town C", "place": "village"}}, {"type": "node", "id": 10840009020, "lat": 0.0936529, "lon": 34.424396, "tags": {"name": "Ndagaria B", "place": "village"}}, {"type": "node", "id": 10840009022, "lat": 0.0990788, "lon": 34.4426715, "tags": {"name": "Kakech", "place": "village"}}, {"type": "node", "id": 10840009023, "lat": 0.1020901, "lon": 34.4502253, "tags": {"name": "Ngolo", "place": "village"}}, {"type": "node", "id": 10840009024, "lat": 0.11505, "lon": 34.46261, "tags": {"name": "Umina B", "place": "village"}}, {"type": "node", "id": 10840009026, "lat": 0.1100712, "lon": 34.4682991, "tags": {"name": "Matore", "place": "village"}}, {"type": "node", "id": 10840009028, "lat": 0.1412105, "lon": 34.4569611, "tags": {"name": "Kokwire B", "place": "village"}}, {"type": "node", "id": 10840009030, "lat": 0.1336341, "lon": 34.4745631, "tags": {"name": "Gari", "place": "village"}}, {"type": "node", "id": 10840009032, "lat": 0.1388631, "lon": 34.4463964, "tags": {"name": "Masene", "place": "village"}}, {"type": "node", "id": 10840009033, "lat": 0.1323325, "lon": 34.4176391, "tags": {"name": "Nalo B", "place": "village"}}, {"type": "node", "id": 10844510249, "lat": 0.0438248, "lon": 34.5162244, "tags": {"name": "Mahanga A", "place": "village"}}, {"type": "node", "id": 10844510251, "lat": 0.1449325, "lon": 34.3991762, "tags": {"name": "Wamure", "place": "village"}}, {"type": "node", "id": 10844510252, "lat": 0.1387277, "lon": 34.38116, "tags": {"name": "Waudi", "place": "village"}}, {"type": "node", "id": 10844510253, "lat": 0.1336468, "lon": 34.3734889, "tags": {"name": "Ukungu", "place": "village"}}, {"type": "node", "id": 10859999371, "lat": 0.2564046, "lon": 34.2893337, "tags": {"name": "Nyabera", "place": "village"}}, {"type": "node", "id": 10859999377, "lat": 0.2120524, "lon": 34.446551, "tags": {"name": "Mulufumba", "place": "village"}}, {"type": "node", "id": 10859999378, "lat": 0.2442729, "lon": 34.394915, "tags": {"name": "Ngop Msengini", "place": "village"}}, {"type": "node", "id": 10859999380, "lat": 0.2647181, "lon": 34.3910155, "tags": {"name": "Ukalama", "place": "village"}}, {"type": "node", "id": 10859999381, "lat": 0.2077432, "lon": 34.3110918, "tags": {"name": "Uwala", "place": "village"}}, {"type": "node", "id": 10859999383, "lat": 0.1934818, "lon": 34.4296751, "tags": {"name": "Ruwe", "place": "village"}}, {"type": "node", "id": 10859999391, "lat": 0.1692036, "lon": 34.4351793, "tags": {"name": "Ogero", "place": "village"}}, {"type": "node", "id": 10859999392, "lat": 0.0192594, "lon": 34.3443355, "tags": {"name": "Pap Nyadiel", "place": "village"}}, {"type": "node", "id": 10871003616, "lat": 0.1250848, "lon": 34.4350602, "tags": {"name": "Malanga", "place": "village"}}, {"type": "node", "id": 10878120536, "lat": 0.1203607, "lon": 34.3683769, "tags": {"name": "Ujimbe", "place": "village"}}, {"type": "node", "id": 10878152812, "lat": 0.1131484, "lon": 34.3861888, "tags": {"name": "Asayi", "place": "village"}}, {"type": "node", "id": 10878224753, "lat": 0.0098609, "lon": 34.462469, "tags": {"name": "Siala Kaduol", "place": "village"}}, {"type": "node", "id": 10882937148, "lat": 0.0046185, "lon": 34.320426, "tags": {"name": "Nyamsenda", "place": "village"}}, {"type": "node", "id": 10882972150, "lat": 0.0958285, "lon": 34.4437252, "tags": {"name": "Nyangera", "place": "village"}}, {"type": "node", "id": 10882974061, "lat": 0.0773348, "lon": 34.4037959, "tags": {"name": "Kamatindo B", "place": "village"}}, {"type": "node", "id": 10882980871, "lat": 0.051014, "lon": 34.4148498, "tags": {"name": "Kadhasi A1", "place": "village"}}, {"type": "node", "id": 10883068141, "lat": 0.0682515, "lon": 34.3941276, "tags": {"name": "Kawiri", "place": "village"}}, {"type": "node", "id": 10883073577, "lat": 0.1289774, "lon": 34.5379898, "tags": {"name": "Anyiko", "place": "village"}}, {"type": "node", "id": 10883076212, "lat": 0.033461, "lon": 34.4543089, "tags": {"name": "Upper Central Unit", "place": "village"}}, {"type": "node", "id": 10883080257, "lat": 0.0547338, "lon": 34.4330757, "tags": {"name": "Wi Aluor A1", "place": "village"}}, {"type": "node", "id": 10883082960, "lat": 0.0755288, "lon": 34.4550038, "tags": {"name": "Mahoma", "place": "village"}}, {"type": "node", "id": 10883094872, "lat": -0.0243836, "lon": 34.3907331, "tags": {"name": "Konyango B", "place": "village"}}, {"type": "node", "id": 10883124411, "lat": -0.0223445, "lon": 34.4934586, "tags": {"name": "Boke", "place": "village"}}, {"type": "node", "id": 10883129899, "lat": -0.0134864, "lon": 34.4670712, "tags": {"name": "Osir", "place": "village"}}, {"type": "node", "id": 10883131028, "lat": 0.0613749, "lon": 34.3788688, "tags": {"name": "Ahono", "place": "village"}}, {"type": "node", "id": 10883146738, "lat": -0.0002467, "lon": 34.4289881, "tags": {"name": "Kotoo C", "place": "village"}}, {"type": "node", "id": 10883146854, "lat": -0.0322449, "lon": 34.3979301, "tags": {"name": "Kamlugo b6", "place": "village"}}, {"type": "node", "id": 10883161673, "lat": -0.0241881, "lon": 34.4164784, "tags": {"name": "Kasiwa", "place": "village"}}, {"type": "node", "id": 10883170916, "lat": -0.0404943, "lon": 34.3669806, "tags": {"name": "Kabor A2", "place": "village"}}, {"type": "node", "id": 10883607476, "lat": 0.0229556, "lon": 34.4189676, "tags": {"name": "Kamsao B", "place": "village"}}, {"type": "node", "id": 10883611362, "lat": 0.0512944, "lon": 34.4124893, "tags": {"name": "Kakwany A", "place": "village"}}, {"type": "node", "id": 10883615878, "lat": 0.0525476, "lon": 34.4326199, "tags": {"name": "Ginga B1", "place": "village"}}, {"type": "node", "id": 10883617841, "lat": 0.0130408, "lon": 34.4290905, "tags": {"name": "Kanyanaya", "place": "village"}}, {"type": "node", "id": 10883640214, "lat": 0.0489064, "lon": 34.4104675, "tags": {"name": "Kadhasi A11", "place": "village"}}, {"type": "node", "id": 10883640323, "lat": -0.0021289, "lon": 34.4237408, "tags": {"name": "Kotoo B", "place": "village"}}, {"type": "node", "id": 10883686537, "lat": 0.002517, "lon": 34.431964, "tags": {"name": "Kanyilaji A", "place": "village"}}, {"type": "node", "id": 10883960005, "lat": 0.0518675, "lon": 34.4379588, "tags": {"name": "Ginga A", "place": "village"}}, {"type": "node", "id": 10883960007, "lat": -0.0026419, "lon": 34.3968597, "tags": {"name": "Kadibuo", "place": "village"}}, {"type": "node", "id": 10888943376, "lat": 0.2008237, "lon": 34.3984741, "tags": {"name": "Busaasi", "place": "village"}}, {"type": "node", "id": 10888978541, "lat": 0.1389193, "lon": 34.2765606, "tags": {"name": "Uhembo", "place": "village"}}, {"type": "node", "id": 10888989056, "lat": 0.153298, "lon": 34.3345545, "tags": {"name": "Jamba", "place": "village"}}, {"type": "node", "id": 10888996885, "lat": 0.1039392, "lon": 34.3062097, "tags": {"name": "Kikomba", "place": "village"}}, {"type": "node", "id": 10899156019, "lat": 0.1812465, "lon": 34.3595854, "tags": {"name": "Mung'ao", "place": "village"}}, {"type": "node", "id": 10899209426, "lat": 0.3081552, "lon": 34.3350515, "tags": {"name": "Inungo", "place": "village"}}, {"type": "node", "id": 10907438879, "lat": 0.0989378, "lon": 34.3524802, "tags": {"name": "Ondero", "place": "village"}}, {"type": "node", "id": 10925685199, "lat": -0.0432506, "lon": 34.3478469, "tags": {"name": "Mawere / Ndira B", "place": "village"}}, {"type": "node", "id": 10946832716, "lat": -0.0226544, "lon": 34.3227758, "tags": {"name": "Ojwando A", "place": "village"}}, {"type": "node", "id": 11438499924, "lat": 0.2756956, "lon": 34.5184894, "tags": {"name": "Emachina", "place": "village"}}, {"type": "node", "id": 11438499927, "lat": 0.306339, "lon": 34.5269657, "tags": {"name": "Emuberi North", "place": "village"}}, {"type": "node", "id": 11438499937, "lat": 0.2548602, "lon": 34.5393125, "tags": {"name": "Muluwa", "place": "village"}}, {"type": "node", "id": 11438499947, "lat": 0.2095435, "lon": 34.4931635, "tags": {"name": "Ibati", "place": "village"}}, {"type": "node", "id": 11438558073, "lat": 0.2167821, "lon": 34.5543867, "tags": {"name": "Mushisimi", "place": "village"}}, {"type": "node", "id": 11491185208, "lat": 0.3074856, "lon": 34.4658944, "tags": {"name": "Khungwani B", "place": "village"}}, {"type": "node", "id": 11491220326, "lat": 0.2467631, "lon": 34.4070914, "tags": {"name": "Sundusia B", "place": "village"}}, {"type": "node", "id": 11491220327, "lat": 0.2562729, "lon": 34.4115464, "tags": {"name": "Khushipari A", "place": "village"}}, {"type": "node", "id": 11491220330, "lat": 0.2248563, "lon": 34.3945484, "tags": {"name": "Umala Gul", "place": "village"}}, {"type": "node", "id": 11491220335, "lat": 0.2287017, "lon": 34.4608269, "tags": {"name": "Alumako B", "place": "village"}}, {"type": "node", "id": 11572264093, "lat": -0.0352448, "lon": 34.5516569, "tags": {"name": "Karabala B", "place": "village"}}, {"type": "node", "id": 11572264094, "lat": -0.0226844, "lon": 34.5544599, "tags": {"name": "Urudi B", "place": "village"}}, {"type": "node", "id": 11572264095, "lat": -0.022492, "lon": 34.5444574, "tags": {"name": "Ojwero", "place": "village"}}, {"type": "node", "id": 11572264096, "lat": -0.0230199, "lon": 34.5600496, "tags": {"name": "Urudi A", "place": "village"}}, {"type": "node", "id": 11572264097, "lat": -0.0388322, "lon": 34.5416709, "tags": {"name": "Kosanjo A East", "place": "village"}}, {"type": "node", "id": 11572264098, "lat": -0.0402917, "lon": 34.5343254, "tags": {"name": "Kosanjo B West", "place": "village"}}, {"type": "node", "id": 11572264100, "lat": -0.0245902, "lon": 34.5372166, "tags": {"name": "Kosanjo B", "place": "village"}}, {"type": "node", "id": 11572264101, "lat": -0.0314292, "lon": 34.5454814, "tags": {"name": "Nduta", "place": "village"}}, {"type": "node", "id": 11572264102, "lat": -0.0292471, "lon": 34.5334315, "tags": {"name": "Nyamor", "place": "village"}}, {"type": "way", "id": 369335445, "nodes": [3731344078, 3731344079, 3731344080, 3731344081, 3731344082, 3731344083, 3731344084, 3731344085, 3731344086, 3731344087, 3731344088, 3731344089, 3731344090, 3731344091, 3731344092, 3731344093, 3731344094, 3731344095, 3731344096, 3731344097, 3731344098, 3731344099, 3731344100, 3731344101, 3731344102, 3731344078], "tags": {"name": "Butere", "place": "town", "wikidata": "Q1017895", "wikipedia": "en:Butere"}}]}