{"version": 0.6, "generator": "Overpass API 0.7.62.1 084b4234", "osm3s": {"timestamp_osm_base": "2024-09-30T17:38:13Z", "copyright": "The data included in this document is from www.openstreetmap.org. The data is made available under ODbL."}, "elements": [{"type": "node", "id": 44911063, "lat": -2.7666, "lon": 39.6666, "tags": {"name": "Ushingo", "place": "village"}}, {"type": "node", "id": 44926056, "lat": -3.1, "lon": 39.8, "tags": {"name": "Mwambiri", "place": "village", "wikidata": "Q6944640", "wikipedia": "en:Mwambiri"}}, {"type": "node", "id": 44926834, "lat": -2.9833785, "lon": 39.7666671, "tags": {"name": "Muritu", "place": "village", "wikidata": "Q6938745", "wikipedia": "en:Muritu"}}, {"type": "node", "id": 44929607, "lat": -2.9832398, "lon": 39.7665593, "tags": {"name": "Manyeso", "place": "village", "wikidata": "Q6753399", "wikipedia": "en:Manyeso"}}, {"type": "node", "id": 44995279, "lat": -2.95, "lon": 39.75, "tags": {"name": "Kasikini", "place": "village"}}, {"type": "node", "id": 44999359, "lat": -2.9833, "lon": 39.7333, "tags": {"name": "Kalaluwe", "place": "village", "wikidata": "Q6350289", "wikipedia": "en:Kalaluwe"}}, {"type": "node", "id": 45001666, "lat": -2.85, "lon": 39.6666, "tags": {"name": "Haluabagalla", "place": "village"}}, {"type": "node", "id": 45001681, "lat": -2.85, "lon": 39.6666, "tags": {"name": "Haluabagala", "place": "village"}}, {"type": "node", "id": 45002518, "lat": -3.0166, "lon": 39.8, "tags": {"name": "Dakatcha", "place": "village"}}, {"type": "node", "id": 45002524, "lat": -3.0166, "lon": 39.8, "tags": {"name": "Dakacha", "place": "village", "wikidata": "Q5209911", "wikipedia": "en:Dakacha"}}, {"type": "node", "id": 45006113, "lat": -2.95, "lon": 39.8166, "tags": {"name": "Buji Albati", "place": "village", "wikidata": "Q4986743", "wikipedia": "en:Buji Albati"}}, {"type": "node", "id": 45006491, "lat": -3.1, "lon": 39.7833, "tags": {"name": "Baricho", "place": "village", "wikidata": "Q4860708", "wikipedia": "en:Baricho"}}, {"type": "node", "id": 4891385426, "lat": -3.1171359, "lon": 39.6271657, "tags": {"name": "Chakama", "place": "town"}}, {"type": "node", "id": 11233615765, "lat": -3.1173221, "lon": 39.6268703, "tags": {"is_in:county": "Kilifi", "name": "Gaba Village", "place": "village"}}, {"type": "node", "id": 11233617698, "lat": -3.112076, "lon": 39.6270508, "tags": {"is_in:county": "Kilifi", "name": "Soweto Village", "place": "village", "source": "Chakama"}}, {"type": "node", "id": 11233628576, "lat": -3.1078041, "lon": 39.6273127, "tags": {"is_in:county": "Kilifi", "name": "Kiboora Village", "place": "village"}}, {"type": "node", "id": 11233636611, "lat": -3.1222824, "lon": 39.6332027, "tags": {"is_in:location": "Chakama", "name": "Adimaye Village", "place": "village"}}, {"type": "node", "id": 11233641661, "lat": -3.1230097, "lon": 39.6350436, "tags": {"is_in:location": "Chakama", "name": "Mifundani Village", "place": "village"}}, {"type": "node", "id": 11233644556, "lat": -3.1215514, "lon": 39.6306469, "tags": {"is_in:location": "Chakama", "name": "Bichome Village", "place": "village"}}, {"type": "node", "id": 11233676103, "lat": -3.1200303, "lon": 39.6220034, "tags": {"is_in:location": "Chakama", "name": "Kwa Mwagandi Village", "place": "village"}}, {"type": "node", "id": 11233680869, "lat": -3.1112987, "lon": 39.5512357, "tags": {"is_in:location": "Chakama", "name": "Shakahola Village", "place": "village"}}, {"type": "node", "id": 11233704517, "lat": -3.0985856, "lon": 39.522464, "tags": {"is_in:location": "Chakama", "name": "Kulalu Village", "place": "village"}}, {"type": "node", "id": 11233713172, "lat": -3.1009986, "lon": 39.5244979, "tags": {"is_in:location": "Chakama", "name": "Mchekenzi Vilage", "place": "village"}}, {"type": "node", "id": 11233726213, "lat": -3.0868984, "lon": 39.5246767, "tags": {"is_in:location": "Chakama", "name": "Habura Village", "place": "village"}}, {"type": "node", "id": 11233741382, "lat": -3.1096179, "lon": 39.5313301, "tags": {"is_in:location": "Chakama", "name": "Katsuhanzala Village", "place": "village"}}, {"type": "node", "id": 11233743262, "lat": -3.0867282, "lon": 39.5176986, "tags": {"is_in:location": "Chakama", "name": "Garsemke Village", "place": "village"}}, {"type": "node", "id": 11233748975, "lat": -3.0998663, "lon": 39.5634219, "tags": {"is_in:location": "Chakama", "name": "Mwanza", "place": "village"}}, {"type": "node", "id": 11233756471, "lat": -3.102899, "lon": 39.5809041, "tags": {"is_in:location": "Chakama", "name": "Ropi", "place": "village"}}, {"type": "node", "id": 11233778016, "lat": -3.1020678, "lon": 39.6002941, "tags": {"is_in:location": "Chakama", "name": "Hawe Wanje", "place": "village"}}, {"type": "node", "id": 11233784856, "lat": -3.1036337, "lon": 39.5377392, "tags": {"is_in:county": "Kilifi", "name": "Bombi", "place": "village"}}, {"type": "node", "id": 11233797368, "lat": -3.1055114, "lon": 39.6154238, "tags": {"is_in:location": "Chakama", "name": "Kanduru", "place": "village"}}, {"type": "node", "id": 11233922710, "lat": -3.1069104, "lon": 39.6739052, "tags": {"is_in:location": "Chakama", "name": "Balagha", "place": "village"}}, {"type": "node", "id": 11233952354, "lat": -3.1054249, "lon": 39.6701538, "tags": {"is_in:location": "Chakama", "name": "Matolani", "place": "village"}}, {"type": "node", "id": 11234987090, "lat": -3.1225505, "lon": 39.8547589, "tags": {"evacuation_center": "yes", "flood_prone": "yes", "name": "Singwaya", "place": "village"}}, {"type": "node", "id": 11235096236, "lat": -3.1043203, "lon": 39.7826771, "tags": {"flood_prone": "yes", "name": "Lukole", "place": "village"}}, {"type": "node", "id": 11235113437, "lat": -3.1066019, "lon": 39.7815696, "tags": {"flood_prone": "yes", "name": "Kwandezi", "place": "village"}}, {"type": "node", "id": 11235113438, "lat": -3.1106583, "lon": 39.779324, "tags": {"flood_prone": "yes", "name": "Gandini", "place": "village"}}, {"type": "node", "id": 11235454141, "lat": -3.1451721, "lon": 39.8292647, "tags": {"flood_prone": "no", "name": "Marekano", "place": "village"}}, {"type": "node", "id": 11235454142, "lat": -3.1289173, "lon": 39.8350071, "tags": {"flood_prone": "yes", "name": "Mikami Mitsano", "place": "village"}}, {"type": "node", "id": 11235454143, "lat": -3.1374209, "lon": 39.7794286, "tags": {"flood_prone": "no", "name": "Langobaya", "place": "village"}}, {"type": "node", "id": 11235454144, "lat": -3.1170604, "lon": 39.7888959, "tags": {"flood_prone": "yes", "name": "Mambosasa", "place": "village"}}, {"type": "node", "id": 11235454145, "lat": -3.1170298, "lon": 39.788037, "tags": {"flood_prone": "yes", "name": "Kenyaloma", "place": "village"}}, {"type": "node", "id": 11235465337, "lat": -3.1199952, "lon": 39.7877782, "tags": {"flood_prone": "yes", "name": "Mirihini", "place": "village"}}, {"type": "node", "id": 11235465339, "lat": -3.1516729, "lon": 39.7794624, "tags": {"flood_prone": "no", "name": "Lagobaya Centre", "place": "village"}}, {"type": "node", "id": 11235468631, "lat": -3.1352289, "lon": 39.7591233, "tags": {"flood_prone": "yes", "name": "Kogo ya Paka", "place": "village"}}, {"type": "node", "id": 11235468632, "lat": -3.1467148, "lon": 39.7489537, "tags": {"flood_prone": "no", "name": "Kombeni", "place": "village"}}, {"type": "node", "id": 11235472053, "lat": -3.1282255, "lon": 39.73575, "tags": {"flood_prone": "yes", "name": "Nyamala", "place": "village"}}, {"type": "node", "id": 11235472054, "lat": -3.1476244, "lon": 39.720472, "tags": {"flood_prone": "no", "name": "Mkondoni Trading Centre", "place": "village"}}, {"type": "node", "id": 11235472056, "lat": -3.1314465, "lon": 39.7205589, "tags": {"flood_prone": "yes", "name": "Mkondoni", "place": "village"}}, {"type": "node", "id": 11235472057, "lat": -3.1314962, "lon": 39.7173085, "tags": {"flood_prone": "yes", "name": "Kaoyeni", "place": "village"}}, {"type": "node", "id": 11664660355, "lat": -3.1462814, "lon": 39.8479188, "tags": {"ele": "54.0757698", "evacuation_centre": "no", "flood_prone": "no", "name": "Kirima cha Mwatsa", "place": "village", "precision": "4.966", "source": "KRCS2023"}}, {"type": "node", "id": 11664660365, "lat": -3.1083677, "lon": 39.5535341, "tags": {"ele": "133.1", "evacuation_centre": "yes", "flood_prone": "yes", "name": "Shakahola Kwa Chea", "place": "village", "precision": "4.984", "source": "KRCS2023"}}, {"type": "node", "id": 11664660366, "lat": -3.0767446, "lon": 39.4833455, "tags": {"ele": "98.314", "evacuation_centre": "yes", "flood_prone": "yes", "name": "Bombi village", "place": "village", "precision": "2.065", "source": "KRCS2023"}}, {"type": "node", "id": 11664660367, "lat": -3.1329567, "lon": 39.7373539, "tags": {"ele": "60.9", "evacuation_centre": "yes", "flood_prone": "no", "name": "Nyamala", "place": "village", "precision": "3.9", "source": "KRCS2023"}}, {"type": "node", "id": 11664686675, "lat": -3.1477348, "lon": 39.7209377, "tags": {"ele": "58.0", "evacuation_centre": "no", "flood_prone": "yes", "name": "Mkondoni village", "place": "village", "precision": "4.52", "source": "KRCS2023"}}, {"type": "node", "id": 11664686686, "lat": -3.131686, "lon": 39.7811007, "tags": {"ele": "131.0541017", "evacuation_centre": "no", "flood_prone": "no", "name": "Mwareni", "place": "village", "precision": "4.8", "source": "KRCS2023"}}, {"type": "node", "id": 11664686689, "lat": -3.0999222, "lon": 39.5622118, "tags": {"ele": "308.446", "evacuation_centre": "yes", "flood_prone": "no", "name": "HaweWanje", "place": "village", "precision": "2.439", "source": "KRCS2023"}}, {"type": "node", "id": 11664686698, "lat": -3.1229871, "lon": 39.5367409, "tags": {"ele": "121.7", "evacuation_centre": "yes", "flood_prone": "yes", "name": "Majengo", "place": "village", "precision": "4.943", "source": "KRCS2023"}}, {"type": "node", "id": 11664686699, "lat": -3.141208, "lon": 39.8280316, "tags": {"ele": "98.36356017", "evacuation_centre": "no", "flood_prone": "no", "name": "Mikami Mitsano", "place": "village", "precision": "4.46", "source": "KRCS2023"}}, {"type": "node", "id": 11664686704, "lat": -3.1463131, "lon": 39.7412466, "tags": {"ele": "81.7", "evacuation_centre": "no", "flood_prone": "no", "name": "Kikambala village", "place": "village", "precision": "4.966", "source": "KRCS2023"}}, {"type": "node", "id": 11664686713, "lat": -3.1171857, "lon": 39.8045708, "tags": {"ele": "77.74977264", "evacuation_centre": "no", "flood_prone": "yes", "name": "Mambosasa", "place": "village", "precision": "4.675", "source": "KRCS2023"}}, {"type": "node", "id": 11664686723, "lat": -3.150206, "lon": 39.7776244, "tags": {"ele": "121.2140771", "evacuation_centre": "no", "flood_prone": "no", "name": "Langobaya Center", "place": "village", "precision": "4.4", "source": "KRCS2023"}}, {"type": "node", "id": 11664686731, "lat": -3.1438982, "lon": 39.8122738, "tags": {"ele": "61.69623966", "evacuation_centre": "no", "flood_prone": "no", "name": "Kavilani", "place": "village", "precision": "5.0", "source": "KRCS2023"}}, {"type": "node", "id": 11664686734, "lat": -3.0863882, "lon": 39.5246742, "tags": {"ele": "97.317", "evacuation_centre": "yes", "flood_prone": "no", "name": "Mwanza", "place": "village", "precision": "2.957", "source": "KRCS2023"}}, {"type": "node", "id": 11664686738, "lat": -3.1509884, "lon": 39.7456979, "tags": {"ele": "85.27732773", "evacuation_centre": "no", "flood_prone": "yes", "name": "Soyosoyo", "place": "village", "precision": "4.983", "source": "KRCS2023"}}, {"type": "node", "id": 11664686739, "lat": -3.1038186, "lon": 39.5809116, "tags": {"ele": "97.317", "evacuation_centre": "no", "flood_prone": "yes", "name": "Hawe wanje phase 2", "place": "village", "precision": "1.903", "source": "KRCS2023"}}, {"type": "node", "id": 11664686740, "lat": -3.1079033, "lon": 39.5294048, "tags": {"ele": "110.501", "evacuation_centre": "no", "flood_prone": "yes", "name": "Katsuhanzala village", "place": "village", "precision": "3.353", "source": "KRCS2023"}}, {"type": "node", "id": 11664686753, "lat": -3.1500202, "lon": 39.7938184, "tags": {"ele": "105.2614327", "evacuation_centre": "no", "flood_prone": "no", "name": "Mitsedzini", "place": "village", "precision": "4.78", "source": "KRCS2023"}}, {"type": "node", "id": 11664686754, "lat": -3.1341116, "lon": 39.8352849, "tags": {"ele": "59.23411989", "evacuation_centre": "no", "flood_prone": "yes", "name": "Bomani", "place": "village", "precision": "4.84", "source": "KRCS2023"}}, {"type": "node", "id": 11664686759, "lat": -3.1198275, "lon": 39.6279373, "tags": {"ele": "149.448", "evacuation_centre": "yes", "flood_prone": "yes", "name": "Gaba", "place": "village", "precision": "1.44", "source": "KRCS2023"}}, {"type": "node", "id": 11664686761, "lat": -3.10033, "lon": 39.5445998, "tags": {"ele": "65.4", "evacuation_centre": "no", "flood_prone": "yes", "name": "Ropi", "place": "village", "precision": "4.369", "source": "KRCS2023"}}, {"type": "node", "id": 11664686765, "lat": -3.1436656, "lon": 39.7504711, "tags": {"ele": "46.1", "evacuation_centre": "yes", "flood_prone": "no", "name": "Kombeni", "place": "village", "precision": "4.84", "source": "KRCS2023"}}, {"type": "node", "id": 11664686773, "lat": -3.1390737, "lon": 39.7580101, "tags": {"ele": "63.45400151", "evacuation_centre": "yes", "flood_prone": "yes", "name": "Logo ya paka", "place": "village", "precision": "4.916", "source": "KRCS2023"}}, {"type": "node", "id": 11664686777, "lat": -3.1070781, "lon": 39.8488326, "tags": {"ele": "53.2", "evacuation_centre": "no", "flood_prone": "no", "name": "Gandini", "place": "village", "precision": "5.4", "source": "KRCS2023"}}, {"type": "node", "id": 11664686779, "lat": -3.1467456, "lon": 39.7931793, "tags": {"ele": "98.38132796", "evacuation_centre": "no", "flood_prone": "no", "name": "Mirorini", "place": "village", "precision": "4.88", "source": "KRCS2023"}}, {"type": "node", "id": 11664686781, "lat": -3.1157165, "lon": 39.8426001, "tags": {"ele": "58.5", "evacuation_centre": "yes", "flood_prone": "no", "name": "Kwa ndezi", "place": "village", "precision": "4.683", "source": "KRCS2023"}}, {"type": "node", "id": 11664686784, "lat": -3.1198569, "lon": 39.788347, "tags": {"ele": "56.5", "evacuation_centre": "no", "flood_prone": "no", "name": "Kenyaloma", "place": "village", "precision": "4.68", "source": "KRCS2023"}}, {"type": "node", "id": 11664686795, "lat": -3.1331356, "lon": 39.778184, "tags": {"ele": "123.6265236", "evacuation_centre": "no", "flood_prone": "no", "name": "Mirihini", "place": "village", "precision": "4.44", "source": "KRCS2023"}}, {"type": "node", "id": 11664686798, "lat": -3.1167674, "lon": 39.5938243, "tags": {"ele": "262.982", "evacuation_centre": "yes", "flood_prone": "yes", "name": "Kwa Mwagandi village", "place": "village", "precision": "2.169", "source": "KRCS2023"}}, {"type": "node", "id": 11664686800, "lat": -3.1164515, "lon": 39.8538313, "tags": {"ele": "86.6", "evacuation_centre": "yes", "flood_prone": "no", "name": "Kaya singwaya", "place": "village", "precision": "4.783", "source": "KRCS2023"}}, {"type": "node", "id": 11664686801, "lat": -3.115965, "lon": 39.8544545, "tags": {"ele": "86.9", "evacuation_centre": "yes", "flood_prone": "no", "name": "Kaya maendeleo", "place": "village", "precision": "4.74", "source": "KRCS2023"}}, {"type": "node", "id": 11664686802, "lat": -3.115897, "lon": 39.8509639, "tags": {"ele": "63.5", "evacuation_centre": "no", "flood_prone": "no", "name": "Kaya west", "place": "village", "precision": "5.4", "source": "KRCS2023"}}, {"type": "node", "id": 11664686804, "lat": -3.1033739, "lon": 39.7849067, "tags": {"ele": "67.0", "evacuation_centre": "yes", "flood_prone": "no", "name": "Baricho", "place": "village", "precision": "4.633", "source": "KRCS2023"}}, {"type": "node", "id": 11664686807, "lat": -3.119453, "lon": 39.8564446, "tags": {"ele": "109.8", "evacuation_centre": "yes", "flood_prone": "no", "name": "Singwaya", "place": "village", "precision": "5.0", "source": "KRCS2023"}}]}