{"version": 0.6, "generator": "Overpass API 0.7.62.1 084b4234", "osm3s": {"timestamp_osm_base": "2024-09-30T17:06:05Z", "copyright": "The data included in this document is from www.openstreetmap.org. The data is made available under ODbL."}, "elements": [{"type": "node", "id": 44911235, "lat": 0.2833, "lon": 35.6, "tags": {"name": "Tumeya", "place": "village"}}, {"type": "node", "id": 44911252, "lat": 0.2833, "lon": 35.6, "tags": {"name": "Tumeiyo", "place": "village"}}, {"type": "node", "id": 44924109, "lat": 0.3333, "lon": 35.5833, "tags": {"is_in": "E. marakwet,Kenya", "name": "Nyaru", "place": "village", "wikidata": "Q7070911"}}, {"type": "node", "id": 44931843, "lat": 0.3, "lon": 35.5, "tags": {"name": "Kipkabus", "place": "village"}}, {"type": "node", "id": 44931959, "lat": 0.319932, "lon": 35.635612, "tags": {"is_in": "E. marakwet,Kenya", "name": "Kimwarer", "place": "village", "wikidata": "Q6410281"}}, {"type": "node", "id": 44996404, "lat": 0.4666, "lon": 35.5333, "tags": {"name": "Kaptarakwa", "place": "village", "wikidata": "Q6367284"}}, {"type": "node", "id": 44997873, "lat": 0.2833, "lon": 35.5666, "tags": {"name": "Kapchebelel", "place": "village", "wikidata": "Q6366512"}}, {"type": "node", "id": 44997881, "lat": 0.1833, "lon": 35.5333, "tags": {"is_in": "Uasin gishu,Kenya", "name": "Kapchorewe", "place": "village", "wikidata": "Q15233585"}}, {"type": "node", "id": 44997919, "lat": 0.2833, "lon": 35.5666, "tags": {"name": "Kapchebelei", "place": "village"}}, {"type": "node", "id": 44998126, "lat": 0.3666, "lon": 35.7166, "tags": {"is_in": "E. marakwet,Kenya", "name": "Kapkalelwa", "place": "village", "wikidata": "Q6366790"}}, {"type": "node", "id": 45003016, "lat": 0.3, "lon": 35.5333, "tags": {"name": "Cheboin", "place": "village", "wikidata": "Q5088984"}}, {"type": "node", "id": 45003422, "lat": 0.3833, "lon": 35.5333, "tags": {"is_in": "E. marakwet,Kenya", "name": "Chepkorio", "place": "village", "wikidata": "Q5091720"}}, {"type": "node", "id": 45003560, "lat": 0.4, "lon": 35.5833, "tags": {"name": "Chororget", "place": "village", "wikidata": "Q5105219"}}, {"type": "node", "id": 45006950, "lat": 0.5491417, "lon": 35.5560081, "tags": {"name": "Biretwo", "place": "village", "wikidata": "Q4916207"}}, {"type": "node", "id": 5781138895, "lat": 0.5149863, "lon": 35.6442443, "tags": {"image": "http://kc.humanitarianresponse.info/attachment/orginal?media_file=mapkibera/attachments/1531986348090.jpg", "name": "Kipsoit Center", "place": "village"}}, {"type": "node", "id": 5781535855, "lat": 0.5496269, "lon": 35.6487386, "tags": {"image:pointofinterest": "http://kc.humanitarianresponse.info/attachment/orginal?media_file=mapkibera/attachments/1531911446160.jpg", "name": "Kaptara Center", "place": "village", "wb_pb:id": "26128914"}}, {"type": "node", "id": 5781535857, "lat": 0.5475717, "lon": 35.677746, "tags": {"image:pointofinterest": "http://kc.humanitarianresponse.info/attachment/orginal?media_file=mapkibera/attachments/1531908608322.jpg", "name": "Chesongo Center", "place": "village", "wb_pb:id": "26128812"}}, {"type": "node", "id": 6881256546, "lat": 0.428981, "lon": 35.4809004, "tags": {"name": "Kaptagat", "place": "village", "wikipedia:en": "Kaptagat"}}]}