{"version": 0.6, "generator": "Overpass API 0.7.62.1 084b4234", "osm3s": {"timestamp_osm_base": "2024-09-30T22:11:39Z", "copyright": "The data included in this document is from www.openstreetmap.org. The data is made available under ODbL."}, "elements": [{"type": "node", "id": 316865580, "lat": 8.8690203, "lon": 39.9172083, "tags": {"name": "Haro Adi", "place": "town", "source": "GPS"}}, {"type": "node", "id": 653289402, "lat": 8.9025093, "lon": 39.9181396, "tags": {"alt_name": "Metah\u0101ra", "name": "Metahara", "place": "town", "wikidata": "Q3307328", "wikipedia": "en:Metehara"}}, {"type": "node", "id": 1150698387, "lat": 9.05, "lon": 39.76667, "tags": {"is_in:country": "Ethiopia", "name": "Yidi", "place": "locality", "source": "GeoDatabase"}}, {"type": "node", "id": 1150881249, "lat": 8.8, "lon": 39.8, "tags": {"is_in:country": "Ethiopia", "name": "Dulecha", "place": "locality", "source": "GeoDatabase"}}, {"type": "node", "id": 1150883644, "lat": 8.95, "lon": 39.75, "tags": {"is_in:country": "Ethiopia", "name": "Beru Isate Gomera Yefelek'Ebet Gudgwad", "place": "locality", "source": "GeoDatabase"}}, {"type": "node", "id": 1150887423, "lat": 8.9, "lon": 39.91667, "tags": {"is_in:country": "Ethiopia", "name": "Metehara Mikael Bete Kiristyan", "place": "locality", "source": "GeoDatabase"}}, {"type": "node", "id": 1150892958, "lat": 8.75, "lon": 39.88333, "tags": {"is_in:country": "Ethiopia", "is_in:country_code": "ET", "name": "Gutu", "place": "locality", "source": "GeoDatabase"}}, {"type": "node", "id": 1150898527, "lat": 8.76667, "lon": 40.05, "tags": {"is_in:country": "Ethiopia", "name": "Korbe", "place": "locality", "source": "GeoDatabase"}}, {"type": "node", "id": 1150899164, "lat": 8.71667, "lon": 39.85, "tags": {"is_in:country": "Ethiopia", "is_in:country_code": "ET", "name": "Monte Sadeca", "place": "locality", "source": "GeoDatabase"}}, {"type": "node", "id": 1150900141, "lat": 8.88333, "lon": 40.03333, "tags": {"is_in:country": "Ethiopia", "name": "Awash Bota", "place": "locality", "source": "GeoDatabase"}}, {"type": "node", "id": 1150902030, "lat": 8.83333, "lon": 39.95, "tags": {"is_in:country": "Ethiopia", "name": "Merti Yesikwar Ageda Tekil", "place": "locality", "source": "GeoDatabase"}}, {"type": "node", "id": 1150923534, "lat": 8.7844638, "lon": 39.8662849, "tags": {"is_in:country": "Ethiopia", "name": "Abadir Tekil", "place": "locality", "source": "GeoDatabase"}}, {"type": "node", "id": 1150932543, "lat": 8.78333, "lon": 40.08333, "tags": {"is_in:country": "Ethiopia", "name": "Ch'Orora", "place": "locality", "source": "GeoDatabase"}}, {"type": "node", "id": 1150935068, "lat": 8.75, "lon": 39.83333, "tags": {"is_in:country": "Ethiopia", "is_in:country_code": "ET", "name": "Katelu", "place": "locality", "source": "GeoDatabase"}}, {"type": "node", "id": 1150937389, "lat": 8.96667, "lon": 40.0, "tags": {"is_in:country": "Ethiopia", "name": "Ch'Ilank'O Polis Sefer", "place": "locality", "source": "GeoDatabase"}}, {"type": "node", "id": 1150944142, "lat": 8.75, "lon": 40.06666, "tags": {"is_in:country": "Ethiopia", "is_in:country_code": "ET", "name": "Huk'E Shet'", "place": "locality", "source": "GeoDatabase"}}, {"type": "node", "id": 1150973546, "lat": 9.11667, "lon": 39.95, "tags": {"is_in:country": "Ethiopia", "name": "Fal Uha", "place": "locality", "source": "GeoDatabase"}}, {"type": "node", "id": 1150975001, "lat": 8.8, "lon": 39.93333, "tags": {"is_in:country": "Ethiopia", "name": "Wangaye Shet'", "place": "locality", "source": "GeoDatabase"}}, {"type": "node", "id": 1150978505, "lat": 8.75, "lon": 39.85, "tags": {"is_in:country": "Ethiopia", "is_in:country_code": "ET", "name": "Korogassa", "place": "locality", "source": "GeoDatabase"}}]}