{"version": 0.6, "generator": "Overpass API 0.7.62.1 084b4234", "osm3s": {"timestamp_osm_base": "2024-09-30T22:46:26Z", "copyright": "The data included in this document is from www.openstreetmap.org. The data is made available under ODbL."}, "elements": [{"type": "node", "id": 1150698252, "lat": 8.25, "lon": 36.91667, "tags": {"is_in:country": "Ethiopia", "is_in:country_code": "ET", "name": "Limmu", "place": "locality", "source": "GeoDatabase"}}, {"type": "node", "id": 1150880986, "lat": 8.25, "lon": 36.98333, "tags": {"is_in:country": "Ethiopia", "is_in:country_code": "ET", "name": "Wech'E", "place": "locality", "source": "GeoDatabase"}}, {"type": "node", "id": 1150881302, "lat": 8.41667, "lon": 37.15, "tags": {"is_in:country": "Ethiopia", "is_in:country_code": "ET", "name": "Agelo", "place": "locality", "source": "GeoDatabase"}}, {"type": "node", "id": 1150884280, "lat": 8.2, "lon": 36.93333, "tags": {"is_in:country": "Ethiopia", "is_in:country_code": "ET", "name": "Saka", "place": "locality", "source": "GeoDatabase"}}, {"type": "node", "id": 1150886045, "lat": 8.23333, "lon": 37.05, "tags": {"is_in:country": "Ethiopia", "is_in:country_code": "ET", "name": "Kobi", "place": "locality", "source": "GeoDatabase"}}, {"type": "node", "id": 1150886550, "lat": 8.11667, "lon": 36.93333, "tags": {"is_in:country": "Ethiopia", "is_in:country_code": "ET", "name": "Indibir Katolik Misiyon", "place": "locality", "source": "GeoDatabase"}}, {"type": "node", "id": 1150886652, "lat": 8.13333, "lon": 36.88333, "tags": {"is_in:country": "Ethiopia", "is_in:country_code": "ET", "name": "Monte Gabano", "place": "locality", "source": "GeoDatabase"}}, {"type": "node", "id": 1150886895, "lat": 8.4, "lon": 36.96667, "tags": {"is_in:country": "Ethiopia", "is_in:country_code": "ET", "name": "Mount Belida", "place": "locality", "source": "GeoDatabase"}}, {"type": "node", "id": 1150887834, "lat": 8.08333, "lon": 37.11667, "tags": {"is_in:country": "Ethiopia", "is_in:country_code": "ET", "name": "Gattira", "place": "locality", "source": "GeoDatabase"}}, {"type": "node", "id": 1150889237, "lat": 8.26667, "lon": 36.83333, "tags": {"is_in:country": "Ethiopia", "is_in:country_code": "ET", "name": "Werebo", "place": "locality", "source": "GeoDatabase"}}, {"type": "node", "id": 1150889272, "lat": 8.33333, "lon": 37.06666, "tags": {"is_in:country": "Ethiopia", "is_in:country_code": "ET", "name": "Jema", "place": "locality", "source": "GeoDatabase"}}, {"type": "node", "id": 1150890000, "lat": 8.06667, "lon": 37.21667, "tags": {"is_in:country": "Ethiopia", "is_in:country_code": "ET", "name": "T'Iro Mishi", "place": "locality", "source": "GeoDatabase"}}, {"type": "node", "id": 1150895940, "lat": 8.16667, "lon": 37.03333, "tags": {"is_in:country": "Ethiopia", "is_in:country_code": "ET", "name": "Miniya", "place": "locality", "source": "GeoDatabase"}}, {"type": "node", "id": 1150898517, "lat": 8.36667, "lon": 36.86667, "tags": {"is_in:country": "Ethiopia", "is_in:country_code": "ET", "name": "Ulawata", "place": "locality", "source": "GeoDatabase"}}, {"type": "node", "id": 1150899180, "lat": 8.41667, "lon": 37.16667, "tags": {"is_in:country": "Ethiopia", "is_in:country_code": "ET", "name": "Gando", "place": "locality", "source": "GeoDatabase"}}, {"type": "node", "id": 1150905199, "lat": 8.33333, "lon": 36.86667, "tags": {"is_in:country": "Ethiopia", "is_in:country_code": "ET", "name": "Atnago", "place": "locality", "source": "GeoDatabase"}}, {"type": "node", "id": 1150907232, "lat": 8.33333, "lon": 37.21667, "tags": {"is_in:country": "Ethiopia", "is_in:country_code": "ET", "name": "Sacalla", "place": "locality", "source": "GeoDatabase"}}, {"type": "node", "id": 1150909668, "lat": 8.25, "lon": 37.03333, "tags": {"is_in:country": "Ethiopia", "is_in:country_code": "ET", "name": "K'Ejelo", "place": "locality", "source": "GeoDatabase"}}, {"type": "node", "id": 1150917263, "lat": 8.26667, "lon": 36.88333, "tags": {"is_in:country": "Ethiopia", "is_in:country_code": "ET", "name": "Mile", "place": "locality", "source": "GeoDatabase"}}, {"type": "node", "id": 1150917576, "lat": 8.35, "lon": 37.06666, "tags": {"is_in:country": "Ethiopia", "is_in:country_code": "ET", "name": "Dire", "place": "locality", "source": "GeoDatabase"}}, {"type": "node", "id": 1150918897, "lat": 8.1, "lon": 37.2, "tags": {"is_in:country": "Ethiopia", "is_in:country_code": "ET", "name": "Botor Mountains", "place": "locality", "source": "GeoDatabase"}}, {"type": "node", "id": 1150921895, "lat": 8.15, "lon": 37.2, "tags": {"is_in:country": "Ethiopia", "is_in:country_code": "ET", "name": "Fego", "place": "locality", "source": "GeoDatabase"}}, {"type": "node", "id": 1150932457, "lat": 8.41667, "lon": 36.88333, "tags": {"is_in:country": "Ethiopia", "is_in:country_code": "ET", "name": "Beredi", "place": "locality", "source": "GeoDatabase"}}, {"type": "node", "id": 1150935140, "lat": 8.43333, "lon": 37.2, "tags": {"is_in:country": "Ethiopia", "is_in:country_code": "ET", "name": "Dibo", "place": "locality", "source": "GeoDatabase"}}, {"type": "node", "id": 1150938647, "lat": 8.1, "lon": 36.95, "tags": {"alt_name": "Limmu", "is_in:country": "Ethiopia", "is_in:country_code": "ET", "name": "Genet", "place": "village", "source": "GeoDatabase"}}, {"type": "node", "id": 1150939287, "lat": 8.1, "lon": 37.06666, "tags": {"is_in:country": "Ethiopia", "is_in:country_code": "ET", "name": "Araua", "place": "locality", "source": "GeoDatabase"}}, {"type": "node", "id": 1150945363, "lat": 8.23333, "lon": 36.96667, "tags": {"is_in:country": "Ethiopia", "is_in:country_code": "ET", "name": "Bureya", "place": "locality", "source": "GeoDatabase"}}, {"type": "node", "id": 1150946210, "lat": 8.36667, "lon": 37.13333, "tags": {"is_in:country": "Ethiopia", "is_in:country_code": "ET", "name": "Bage", "place": "locality", "source": "GeoDatabase"}}, {"type": "node", "id": 1150949707, "lat": 8.33333, "lon": 36.96667, "tags": {"is_in:country": "Ethiopia", "is_in:country_code": "ET", "name": "Gatira", "place": "locality", "source": "GeoDatabase"}}, {"type": "node", "id": 1150958343, "lat": 8.28333, "lon": 37.18333, "tags": {"is_in:country": "Ethiopia", "is_in:country_code": "ET", "name": "Genji", "place": "locality", "source": "GeoDatabase"}}, {"type": "node", "id": 1150959273, "lat": 8.26667, "lon": 36.9, "tags": {"is_in:country": "Ethiopia", "is_in:country_code": "ET", "name": "Wala", "place": "locality", "source": "GeoDatabase"}}, {"type": "node", "id": 1150959400, "lat": 8.2, "lon": 37.18333, "tags": {"is_in:country": "Ethiopia", "is_in:country_code": "ET", "name": "Dirchi", "place": "locality", "source": "GeoDatabase"}}, {"type": "node", "id": 1150963543, "lat": 8.36667, "lon": 36.98333, "tags": {"is_in:country": "Ethiopia", "is_in:country_code": "ET", "name": "Janjelo", "place": "locality", "source": "GeoDatabase"}}, {"type": "node", "id": 1150970009, "lat": 8.45, "lon": 37.05, "tags": {"is_in:country": "Ethiopia", "is_in:country_code": "ET", "name": "Gando", "place": "locality", "source": "GeoDatabase"}}, {"type": "node", "id": 1150974918, "lat": 8.45, "lon": 36.86667, "tags": {"is_in:country": "Ethiopia", "is_in:country_code": "ET", "name": "Gube Guto", "place": "locality", "source": "GeoDatabase"}}, {"type": "node", "id": 1150982258, "lat": 8.16667, "lon": 37.0, "tags": {"is_in:country": "Ethiopia", "is_in:country_code": "ET", "name": "Limu Awraja", "place": "locality", "source": "GeoDatabase"}}, {"type": "node", "id": 1151002099, "lat": 8.11667, "lon": 37.1, "tags": {"is_in:country": "Ethiopia", "is_in:country_code": "ET", "name": "Igirso", "place": "locality", "source": "GeoDatabase"}}, {"type": "node", "id": 1975204833, "lat": 8.4362857, "lon": 37.0454803, "tags": {"place": "village"}}, {"type": "node", "id": 1975206457, "lat": 8.2752629, "lon": 37.0936319, "tags": {"place": "village"}}, {"type": "node", "id": 1975207317, "lat": 8.3035772, "lon": 37.1134679, "tags": {"place": "village"}}, {"type": "node", "id": 1975207559, "lat": 8.2366351, "lon": 37.0485058, "tags": {"place": "village"}}, {"type": "node", "id": 1975207951, "lat": 8.293449, "lon": 37.032456, "tags": {"place": "village"}}, {"type": "node", "id": 1975225720, "lat": 8.3747322, "lon": 37.162, "tags": {"name": "Kara", "place": "village"}}, {"type": "node", "id": 1978569261, "lat": 8.0932641, "lon": 37.0268446, "tags": {"place": "village"}}]}