{"version": 0.6, "generator": "Overpass API 0.7.62.1 084b4234", "osm3s": {"timestamp_osm_base": "2024-09-30T19:57:44Z", "copyright": "The data included in this document is from www.openstreetmap.org. The data is made available under ODbL."}, "elements": [{"type": "node", "id": 1404221751, "lat": 9.4950356, "lon": 49.0430526, "tags": {"name": "Kheyra Xerta", "pcode": "NC-3909-N23-001", "place": "hamlet", "source": "GTZ - 2002, UNDP - 1997"}}, {"type": "node", "id": 1404222167, "lat": 9.1426296, "lon": 49.1832848, "tags": {"alt_name": "Libo", "name": "Libow", "pcode": "NC-3909-W27-001", "place": "village", "source": "UNDP - 2006, UNDP - 1997, FSAU"}}, {"type": "node", "id": 1404223043, "lat": 9.459579, "lon": 49.059119, "tags": {"alt_name": "Kal Noolaatay", "fixme": "Please, check location!", "name": "Kalnool", "pcode": "NC-3909-N24-001", "place": "hamlet", "source": "GTZ - 2002, UNDP - 1997"}}, {"type": "node", "id": 1404223520, "lat": 9.427095, "lon": 49.002487, "tags": {"alt_name": "Aad", "fixme": "Please, check location!", "name": "Cad", "pcode": "NC-3909-P23-001", "place": "hamlet", "source": "GTZ - 2002, UNDP - 1997"}}, {"type": "node", "id": 1404223629, "lat": 9.5185646, "lon": 49.079973, "tags": {"name": "El Dubat", "pcode": "NC-3909-M24-001", "place": "village", "source": "UNDP - 1997"}}, {"type": "node", "id": 1404226128, "lat": 9.53071, "lon": 49.22971, "tags": {"alt_name": "Adinsoone", "name": "Adisoone", "pcode": "NC-3909-M28-001", "place": "village", "source": "UNDP - 2006, UNDP - 1997"}}, {"type": "node", "id": 1404226372, "lat": 9.22149, "lon": 49.12228, "tags": {"alt_name": "Yaka", "name": "Yakayake", "pcode": "NC-3909-U25-001", "place": "village", "source": "UNDP - 2006, UNDP - 1997, FSAU"}}, {"type": "node", "id": 1404226563, "lat": 9.4202, "lon": 49.082802, "tags": {"name": "Gool Weyne", "pcode": "NC-3909-P24-001", "place": "locality", "source": "UNDP - 1997"}}, {"type": "node", "id": 1404226749, "lat": 9.5022489, "lon": 49.0639225, "tags": {"name": "Kubo", "pcode": "NC-3909-M24-002", "place": "village", "source": "UNDP - 1997"}}, {"type": "node", "id": 1404233328, "lat": 9.3618493, "lon": 49.0002312, "tags": {"alt_name": "Dahan", "name": "Dhaxan", "pcode": "NC-3909-R22-001", "place": "village", "source": "UNDP - 2006, GTZ - 2002, UNDP - 1997"}}, {"type": "node", "id": 1404233597, "lat": 9.4999948, "lon": 49.0476067, "tags": {"name": "Xerta Kubo", "pcode": "NC-3909-M24-004", "place": "village", "source": "UNDP - 2006"}}, {"type": "node", "id": 6528156412, "lat": 9.5070109, "lon": 49.0872145, "tags": {"alt_name:ar": "\u0642\u0631\u0636\u0648", "name": "Qardho \u0642\u0631\u0636\u0648", "name:ar": "\u0642\u0631\u0636\u0648", "name:en": "Qardho", "name:fr": "Qardho", "place": "city", "wikidata": "Q1641881", "wikipedia": "en:Qardho"}}]}