{"version": 0.6, "generator": "Overpass API 0.7.62.1 084b4234", "osm3s": {"timestamp_osm_base": "2024-09-30T20:05:00Z", "copyright": "The data included in this document is from www.openstreetmap.org. The data is made available under ODbL."}, "elements": [{"type": "node", "id": 1404221746, "lat": 8.454123, "lon": 46.706793, "tags": {"alt_name": "Widh-Widh", "name": "Widhwidh", "pcode": "NC-3816-P05-001", "place": "village", "source": "UNDP - 2006, GTZ - 2002, UNDP - 1997", "wikidata": "Q4469960"}}, {"type": "node", "id": 1404223648, "lat": 8.639892, "lon": 46.612058, "tags": {"name": "Booc", "pcode": "NC-3816-J03-001", "place": "locality", "source": "GTZ - 2002, UNDP - 1997"}}, {"type": "node", "id": 1404224692, "lat": 8.6977725, "lon": 46.613643, "tags": {"alt_name": "Yayle", "name": "Yeyle", "pcode": "NC-3816-H03-001", "place": "village", "source": "UNDP - 2006, GTZ - 2002, UNDP - 1997"}}, {"type": "node", "id": 1404227403, "lat": 8.6230569, "lon": 46.4885477, "tags": {"alt_name": "Egag", "name": "Ceegaag", "pcode": "NC-3815-K33-001", "place": "village", "source": "UNDP - 2006", "wikidata": "Q25106367"}}, {"type": "node", "id": 1404228044, "lat": 8.7101253, "lon": 46.7259172, "tags": {"alt_name": "Hadhwanaag", "name": "Hadh Wanaag", "pcode": "NC-3816-G05-001", "place": "village", "source": "UNDP - 2006, GTZ - 2002, UNDP - 1997"}}, {"type": "node", "id": 1404229787, "lat": 8.61383, "lon": 46.6942, "tags": {"name": "Shululux", "pcode": "NC-3816-K05-001", "place": "village", "source": "UNDP - 2006", "wikidata": "Q7504947"}}, {"type": "node", "id": 1404230065, "lat": 8.4405952, "lon": 46.8421564, "tags": {"alt_name": "Balihadhac", "name": "Bali-Hadhac", "pcode": "NC-3816-P08-001", "place": "locality", "source": "UNDP - 2006, FSAU"}}, {"type": "node", "id": 1404230865, "lat": 8.751479, "lon": 46.535437, "tags": {"name": "Buq-Dharkayn", "pcode": "NC-3816-F01-001", "place": "locality", "source": "GTZ - 2002"}}, {"type": "node", "id": 1404233069, "lat": 8.537012, "lon": 46.590596, "tags": {"alt_name": "Caroweyn;Carowayn", "name": "Carro Weyn", "pcode": "NC-3816-M02-001", "place": "locality", "source": "GTZ - 2002, UNDP - 1997"}}, {"type": "node", "id": 1404233355, "lat": 8.57994, "lon": 46.880719, "tags": {"alt_name": "Laasadhaar", "name": "Laasodaar", "pcode": "NC-3816-L09-001", "place": "village", "source": "UNDP - 2006, GTZ - 2002, UNDP - 1997"}}, {"type": "node", "id": 8926424763, "lat": 8.7806718, "lon": 46.7931937, "tags": {"fixme": "check name", "name": "Huftiro", "name:so": "Huftiro", "place": "village"}}, {"type": "node", "id": 8926502828, "lat": 8.7576087, "lon": 46.8563371, "tags": {"place": "isolated_dwelling"}}, {"type": "node", "id": 8928392887, "lat": 8.8224755, "lon": 46.6605372, "tags": {"place": "isolated_dwelling"}}, {"type": "node", "id": 8928393025, "lat": 8.7873664, "lon": 46.6941918, "tags": {"place": "isolated_dwelling"}}, {"type": "node", "id": 8928393441, "lat": 8.7893012, "lon": 46.725769, "tags": {"place": "isolated_dwelling"}}, {"type": "node", "id": 8928393451, "lat": 8.7897602, "lon": 46.727631, "tags": {"place": "isolated_dwelling"}}, {"type": "node", "id": 8928393452, "lat": 8.7900835, "lon": 46.7237947, "tags": {"place": "isolated_dwelling"}}, {"type": "node", "id": 8928393453, "lat": 8.7895998, "lon": 46.7210408, "tags": {"place": "isolated_dwelling"}}, {"type": "node", "id": 8928393454, "lat": 8.7879816, "lon": 46.7189116, "tags": {"place": "isolated_dwelling"}}, {"type": "node", "id": 9050920976, "lat": 8.4619912, "lon": 46.4984885, "tags": {"place": "isolated_dwelling"}}, {"type": "node", "id": 9063846392, "lat": 8.4396327, "lon": 46.4943349, "tags": {"place": "isolated_dwelling"}}, {"type": "node", "id": 9101791235, "lat": 8.6133005, "lon": 46.5071882, "tags": {"place": "hamlet"}}, {"type": "node", "id": 9101828674, "lat": 8.5859859, "lon": 46.5070488, "tags": {"place": "isolated_dwelling"}}, {"type": "node", "id": 9101828878, "lat": 8.5948626, "lon": 46.4906489, "tags": {"place": "isolated_dwelling"}}, {"type": "node", "id": 9113137008, "lat": 8.8136215, "lon": 46.5308882, "tags": {"place": "isolated_dwelling"}}, {"type": "node", "id": 9113188610, "lat": 8.8191715, "lon": 46.5197929, "tags": {"place": "isolated_dwelling"}}, {"type": "node", "id": 9113188694, "lat": 8.7980118, "lon": 46.5235663, "tags": {"place": "isolated_dwelling"}}, {"type": "node", "id": 9113237511, "lat": 8.810053, "lon": 46.4939546, "tags": {"place": "isolated_dwelling"}}, {"type": "node", "id": 9113862820, "lat": 8.8086867, "lon": 46.4863644, "tags": {"place": "isolated_dwelling"}}, {"type": "node", "id": 9114708959, "lat": 8.7954926, "lon": 46.5274, "tags": {"place": "isolated_dwelling"}}, {"type": "node", "id": 9114709074, "lat": 8.7934537, "lon": 46.5304364, "tags": {"place": "village"}}, {"type": "node", "id": 9114720044, "lat": 8.7689387, "lon": 46.4870063, "tags": {"place": "isolated_dwelling"}}, {"type": "node", "id": 9114720071, "lat": 8.766866, "lon": 46.493719, "tags": {"place": "isolated_dwelling"}}, {"type": "node", "id": 9118434038, "lat": 8.7544996, "lon": 46.5484654, "tags": {"place": "isolated_dwelling"}}, {"type": "node", "id": 9119285141, "lat": 8.7466085, "lon": 46.5335315, "tags": {"place": "isolated_dwelling"}}, {"type": "node", "id": 9119285458, "lat": 8.7781622, "lon": 46.5812561, "tags": {"place": "isolated_dwelling"}}, {"type": "node", "id": 9119340325, "lat": 8.7315969, "lon": 46.5910904, "tags": {"place": "isolated_dwelling"}}, {"type": "node", "id": 9119532401, "lat": 8.7243589, "lon": 46.7682099, "tags": {"place": "isolated_dwelling"}}, {"type": "node", "id": 9141087888, "lat": 8.4517509, "lon": 46.6757739, "tags": {"place": "isolated_dwelling"}}, {"type": "node", "id": 9143777321, "lat": 8.4269227, "lon": 46.6648167, "tags": {"place": "hamlet"}}, {"type": "node", "id": 9222267146, "lat": 8.6512412, "lon": 46.5574984, "tags": {"place": "village"}}, {"type": "node", "id": 9394149069, "lat": 8.4894144, "lon": 46.5817094, "tags": {"fixme": "name?", "place": "village"}}, {"type": "node", "id": 9394203091, "lat": 8.4781638, "lon": 46.5957161, "tags": {"fixme": "name?", "place": "village"}}, {"type": "node", "id": 9426686056, "lat": 8.4396507, "lon": 46.7594499, "tags": {"place": "locality"}}, {"type": "node", "id": 12035985327, "lat": 8.7366798, "lon": 46.5765551, "tags": {"alt_name": "Qoryaale", "name": "Buqdharkeyn", "place": "town", "wikidata": "Q124260092", "wikipedia": "en:Buqdarkayn"}}]}