{"version": 0.6, "generator": "Overpass API 0.7.62.1 084b4234", "osm3s": {"timestamp_osm_base": "2024-09-30T23:14:58Z", "copyright": "The data included in this document is from www.openstreetmap.org. The data is made available under ODbL."}, "elements": [{"type": "node", "id": 1150889234, "lat": 5.26667, "lon": 41.41667, "tags": {"is_in:country": "Ethiopia", "is_in:country_code": "ET", "name": "Mangaduda", "place": "locality", "source": "GeoDatabase"}}, {"type": "node", "id": 1150894223, "lat": 5.2, "lon": 41.66667, "tags": {"is_in:country": "Ethiopia", "is_in:country_code": "ET", "name": "Marmaro", "place": "locality", "source": "GeoDatabase"}}, {"type": "node", "id": 1150911791, "lat": 5.31667, "lon": 41.28333, "tags": {"is_in:country": "Ethiopia", "is_in:country_code": "ET", "name": "Mena Cira", "place": "locality", "source": "GeoDatabase"}}, {"type": "node", "id": 1150917259, "lat": 5.36667, "lon": 41.33333, "tags": {"is_in:country": "Ethiopia", "is_in:country_code": "ET", "name": "Sagab", "place": "locality", "source": "GeoDatabase"}}, {"type": "node", "id": 1150920389, "lat": 5.03333, "lon": 41.53333, "tags": {"is_in:country": "Ethiopia", "is_in:country_code": "ET", "name": "Bander", "place": "locality", "source": "GeoDatabase"}}, {"type": "node", "id": 1150936565, "lat": 5.35, "lon": 41.53333, "tags": {"is_in:country": "Ethiopia", "is_in:country_code": "ET", "name": "Ardalenga", "place": "locality", "source": "GeoDatabase"}}, {"type": "node", "id": 1150942315, "lat": 5.23333, "lon": 41.35, "tags": {"is_in:country": "Ethiopia", "is_in:country_code": "ET", "name": "Alintale", "place": "locality", "source": "GeoDatabase"}}, {"type": "node", "id": 1150949279, "lat": 5.4, "lon": 41.26667, "tags": {"is_in:country": "Ethiopia", "is_in:country_code": "ET", "name": "Cormararia", "place": "locality", "source": "GeoDatabase"}}, {"type": "node", "id": 1150952450, "lat": 5.08333, "lon": 41.5, "tags": {"is_in:country": "Ethiopia", "is_in:country_code": "ET", "name": "Mount Dacai Adade", "place": "locality", "source": "GeoDatabase"}}, {"type": "node", "id": 1150969451, "lat": 5.4, "lon": 41.53333, "tags": {"is_in:country": "Ethiopia", "is_in:country_code": "ET", "name": "Ghelfur", "place": "locality", "source": "GeoDatabase"}}, {"type": "node", "id": 1150980368, "lat": 5.28333, "lon": 41.56666, "tags": {"is_in:country": "Ethiopia", "is_in:country_code": "ET", "name": "Haro Ararsa", "place": "locality", "source": "GeoDatabase"}}, {"type": "node", "id": 6697660736, "lat": 5.3966859, "lon": 41.6452861, "tags": {"place": "hamlet"}}, {"type": "node", "id": 6703683971, "lat": 5.0061198, "lon": 41.4332601, "tags": {"alt_name": "Bander", "name": "Baandheer", "place": "village"}}]}