{"version": 0.6, "generator": "Overpass API 0.7.62.1 084b4234", "osm3s": {"timestamp_osm_base": "2024-10-01T00:20:49Z", "copyright": "The data included in this document is from www.openstreetmap.org. The data is made available under ODbL."}, "elements": [{"type": "node", "id": 1150883177, "lat": 6.61667, "lon": 36.78333, "tags": {"is_in:country": "Ethiopia", "is_in:country_code": "ET", "name": "Kosha", "place": "locality", "source": "GeoDatabase"}}, {"type": "node", "id": 1150883381, "lat": 6.65, "lon": 36.48333, "tags": {"is_in:country": "Ethiopia", "is_in:country_code": "ET", "name": "Benchira", "place": "locality", "source": "GeoDatabase"}}, {"type": "node", "id": 1150883637, "lat": 6.78333, "lon": 36.41667, "tags": {"is_in:country": "Ethiopia", "is_in:country_code": "ET", "name": "Bittino", "place": "locality", "source": "GeoDatabase"}}, {"type": "node", "id": 1150887195, "lat": 6.7, "lon": 36.78333, "tags": {"is_in:country": "Ethiopia", "is_in:country_code": "ET", "name": "Availa", "place": "locality", "source": "GeoDatabase", "wikidata": "Q23962566"}}, {"type": "node", "id": 1150890827, "lat": 6.63333, "lon": 36.75, "tags": {"is_in:country": "Ethiopia", "is_in:country_code": "ET", "name": "Hudo", "place": "locality", "source": "GeoDatabase"}}, {"type": "node", "id": 1150898510, "lat": 6.66667, "lon": 36.78333, "tags": {"is_in:country": "Ethiopia", "is_in:country_code": "ET", "name": "Shebero", "place": "locality", "source": "GeoDatabase"}}, {"type": "node", "id": 1150903084, "lat": 6.75, "lon": 36.5, "tags": {"is_in:country": "Ethiopia", "is_in:country_code": "ET", "name": "Mount Ciatta", "place": "locality", "source": "GeoDatabase"}}, {"type": "node", "id": 1150912266, "lat": 6.75, "lon": 36.76667, "tags": {"is_in:country": "Ethiopia", "is_in:country_code": "ET", "name": "Dimbik'O", "place": "locality", "source": "GeoDatabase"}}, {"type": "node", "id": 1150942520, "lat": 6.71667, "lon": 36.68333, "tags": {"is_in:country": "Ethiopia", "is_in:country_code": "ET", "name": "Zigna Shet'", "place": "locality", "source": "GeoDatabase"}}, {"type": "node", "id": 1150955288, "lat": 6.66667, "lon": 36.41667, "tags": {"is_in:country": "Ethiopia", "is_in:country_code": "ET", "name": "Coiscia", "place": "locality", "source": "GeoDatabase"}}, {"type": "node", "id": 1150956329, "lat": 6.71667, "lon": 36.7, "tags": {"is_in:country": "Ethiopia", "is_in:country_code": "ET", "name": "Delba", "place": "locality", "source": "GeoDatabase"}}, {"type": "node", "id": 1150958128, "lat": 6.9, "lon": 36.75, "tags": {"is_in:country": "Ethiopia", "is_in:country_code": "ET", "name": "Shoshma Hayk'", "place": "locality", "source": "GeoDatabase"}}, {"type": "node", "id": 1150972957, "lat": 6.81667, "lon": 36.58333, "tags": {"is_in:country": "Ethiopia", "is_in:country_code": "ET", "name": "Baka", "place": "locality", "source": "GeoDatabase"}}]}