{"version": 0.6, "generator": "Overpass API 0.7.62.1 084b4234", "osm3s": {"timestamp_osm_base": "2024-10-01T00:10:14Z", "copyright": "The data included in this document is from www.openstreetmap.org. The data is made available under ODbL."}, "elements": [{"type": "node", "id": 1150881589, "lat": 7.05, "lon": 37.5, "tags": {"is_in:country": "Ethiopia", "is_in:country_code": "ET", "name": "Mole Bota", "place": "locality", "source": "GeoDatabase"}}, {"type": "node", "id": 1150887956, "lat": 7.06667, "lon": 37.33333, "tags": {"is_in:country": "Ethiopia", "is_in:country_code": "ET", "name": "Mareca", "place": "locality", "source": "GeoDatabase"}}, {"type": "node", "id": 1150890254, "lat": 7.18333, "lon": 37.28333, "tags": {"is_in:country": "Ethiopia", "is_in:country_code": "ET", "name": "Bodollo", "place": "locality", "source": "GeoDatabase"}}, {"type": "node", "id": 1150892085, "lat": 7.33333, "lon": 37.51667, "tags": {"is_in:country": "Ethiopia", "is_in:country_code": "ET", "name": "Vusciule", "place": "locality", "source": "GeoDatabase"}}, {"type": "node", "id": 1150898601, "lat": 7.26667, "lon": 37.3, "tags": {"is_in:country": "Ethiopia", "is_in:country_code": "ET", "name": "Dita", "place": "locality", "source": "GeoDatabase"}}, {"type": "node", "id": 1150899546, "lat": 7.33333, "lon": 37.35, "tags": {"is_in:country": "Ethiopia", "is_in:country_code": "ET", "name": "Fiume Gogeb", "place": "locality", "source": "GeoDatabase"}}, {"type": "node", "id": 1150902171, "lat": 7.2, "lon": 37.53333, "tags": {"is_in:country": "Ethiopia", "is_in:country_code": "ET", "name": "Tambaro", "place": "locality", "source": "GeoDatabase"}}, {"type": "node", "id": 1150903366, "lat": 7.23333, "lon": 37.13333, "tags": {"is_in:country": "Ethiopia", "is_in:country_code": "ET", "name": "Sheta Shet'", "place": "locality", "source": "GeoDatabase"}}, {"type": "node", "id": 1150912109, "lat": 7.21667, "lon": 37.15, "tags": {"is_in:country": "Ethiopia", "is_in:country_code": "ET", "name": "Zo'A Shet'", "place": "locality", "source": "GeoDatabase"}}, {"type": "node", "id": 1150925148, "lat": 6.98333, "lon": 37.15, "tags": {"is_in:country": "Ethiopia", "is_in:country_code": "ET", "name": "Ela Bota", "place": "locality", "source": "GeoDatabase"}}, {"type": "node", "id": 1150925266, "lat": 7.31667, "lon": 37.35, "tags": {"is_in:country": "Ethiopia", "is_in:country_code": "ET", "name": "Odonita", "place": "locality", "source": "GeoDatabase"}}, {"type": "node", "id": 1150926228, "lat": 7.0, "lon": 37.28333, "tags": {"is_in:country": "Ethiopia", "is_in:country_code": "ET", "name": "Halano", "place": "locality", "source": "GeoDatabase"}}, {"type": "node", "id": 1150926961, "lat": 7.28333, "lon": 37.13333, "tags": {"is_in:country": "Ethiopia", "is_in:country_code": "ET", "name": "Bachefarda", "place": "locality", "source": "GeoDatabase"}}, {"type": "node", "id": 1150927851, "lat": 7.11667, "lon": 37.23333, "tags": {"is_in:country": "Ethiopia", "is_in:country_code": "ET", "name": "Cacia", "place": "locality", "source": "GeoDatabase"}}, {"type": "node", "id": 1150929261, "lat": 7.0406498, "lon": 37.2917549, "tags": {"is_in:country": "Ethiopia", "is_in:country_code": "ET", "name": "Bosa", "place": "locality", "source": "GeoDatabase"}}, {"type": "node", "id": 1150933077, "lat": 7.16667, "lon": 37.41667, "tags": {"is_in:country": "Ethiopia", "is_in:country_code": "ET", "name": "Gena", "place": "locality", "source": "GeoDatabase"}}, {"type": "node", "id": 1150939728, "lat": 7.08333, "lon": 37.41667, "tags": {"is_in:country": "Ethiopia", "is_in:country_code": "ET", "name": "Tulema", "place": "locality", "source": "GeoDatabase"}}, {"type": "node", "id": 1150941597, "lat": 7.05, "lon": 37.11667, "tags": {"is_in:country": "Ethiopia", "is_in:country_code": "ET", "name": "Monti Uarrai", "place": "locality", "source": "GeoDatabase"}}, {"type": "node", "id": 1150947070, "lat": 7.05, "lon": 37.53333, "tags": {"is_in:country": "Ethiopia", "is_in:country_code": "ET", "name": "Bedaye", "place": "locality", "source": "GeoDatabase"}}, {"type": "node", "id": 1150947458, "lat": 7.03333, "lon": 37.48333, "tags": {"is_in:country": "Ethiopia", "is_in:country_code": "ET", "name": "Moliya Muso", "place": "locality", "source": "GeoDatabase"}}, {"type": "node", "id": 1150962044, "lat": 7.33333, "lon": 37.25, "tags": {"is_in:country": "Ethiopia", "is_in:country_code": "ET", "name": "Uarrabo", "place": "locality", "source": "GeoDatabase"}}, {"type": "node", "id": 1150968939, "lat": 7.0, "lon": 37.35, "tags": {"is_in:country": "Ethiopia", "is_in:country_code": "ET", "name": "Buro (1)", "place": "locality", "source": "GeoDatabase"}}, {"type": "node", "id": 1150972569, "lat": 7.23333, "lon": 37.26667, "tags": {"is_in:country": "Ethiopia", "is_in:country_code": "ET", "name": "Weldane", "place": "locality", "source": "GeoDatabase"}}, {"type": "node", "id": 1151002339, "lat": 7.25, "lon": 37.53333, "tags": {"is_in:country": "Ethiopia", "is_in:country_code": "ET", "name": "Osciot", "place": "locality", "source": "GeoDatabase"}}, {"type": "node", "id": 1976601512, "lat": 7.1468491, "lon": 37.1751295, "tags": {"name": "Tarcha", "place": "town"}}, {"type": "node", "id": 1976603300, "lat": 7.0600736, "lon": 37.1791421, "tags": {"name": "Waka", "place": "village"}}, {"type": "node", "id": 2169183899, "lat": 7.1043635, "lon": 37.1445238, "tags": {"place": "village"}}, {"type": "node", "id": 2290441961, "lat": 7.0123922, "lon": 37.274054, "tags": {"name": "Gasachare", "place": "town"}}, {"type": "node", "id": 2302376935, "lat": 7.0389411, "lon": 37.202658, "tags": {"name": "Roubi", "place": "village"}}, {"type": "node", "id": 2428592114, "lat": 7.0600967, "lon": 37.3360943, "tags": {"name": "Bossa", "place": "village"}}, {"type": "node", "id": 8358341325, "lat": 7.3445767, "lon": 37.3589455}, {"type": "node", "id": 8358341326, "lat": 7.3436811, "lon": 37.3588689}, {"type": "node", "id": 8358341327, "lat": 7.3434361, "lon": 37.3592522}, {"type": "node", "id": 8358341328, "lat": 7.3435037, "lon": 37.3596696}, {"type": "node", "id": 8358341329, "lat": 7.3440951, "lon": 37.3599081}, {"type": "node", "id": 8358341330, "lat": 7.3444162, "lon": 37.3597889}, {"type": "node", "id": 8358341331, "lat": 7.3445429, "lon": 37.3595759}, {"type": "node", "id": 9669036606, "lat": 7.0316145, "lon": 37.2093453}, {"type": "node", "id": 9669036607, "lat": 7.0308647, "lon": 37.2090136}, {"type": "node", "id": 9669036608, "lat": 7.032065, "lon": 37.2078411}, {"type": "node", "id": 9669036609, "lat": 7.0343215, "lon": 37.2063598}, {"type": "node", "id": 9669036610, "lat": 7.0355652, "lon": 37.2051435}, {"type": "node", "id": 9669036611, "lat": 7.0362602, "lon": 37.2040194}, {"type": "node", "id": 9669036612, "lat": 7.0358944, "lon": 37.2031348}, {"type": "node", "id": 9669036613, "lat": 7.0360041, "lon": 37.2021028}, {"type": "node", "id": 9669036614, "lat": 7.0366443, "lon": 37.2015868}, {"type": "node", "id": 9669036615, "lat": 7.0364065, "lon": 37.2008497}, {"type": "node", "id": 9669036616, "lat": 7.0362968, "lon": 37.2001125}, {"type": "node", "id": 9669059317, "lat": 7.0382904, "lon": 37.2003152}, {"type": "node", "id": 9669059318, "lat": 7.0380709, "lon": 37.2024714}, {"type": "node", "id": 9669059319, "lat": 7.038711, "lon": 37.2027847}, {"type": "node", "id": 9669059320, "lat": 7.0395158, "lon": 37.2037245}, {"type": "node", "id": 9669059321, "lat": 7.0389671, "lon": 37.2046091}, {"type": "node", "id": 9669059322, "lat": 7.0374125, "lon": 37.2054384}, {"type": "node", "id": 9669059323, "lat": 7.0360224, "lon": 37.2061203}, {"type": "node", "id": 9669059324, "lat": 7.0359493, "lon": 37.2060466}, {"type": "node", "id": 9669059325, "lat": 7.0336813, "lon": 37.2077604}, {"type": "node", "id": 11563656203, "lat": 7.2407592, "lon": 37.2709136, "tags": {"name": "Holdehane", "place": "village"}}, {"type": "way", "id": 899581681, "nodes": [8358341325, 8358341326, 8358341327, 8358341328, 8358341329, 8358341330, 8358341331, 8358341325], "tags": {"place": "islet"}}, {"type": "way", "id": 1052139141, "nodes": [9669036606, 9669036607, 9669036608, 9669036609, 9669036610, 9669036611, 9669036612, 9669036613, 9669036614, 9669036615, 9669036616, 9669059317, 9669059318, 9669059319, 9669059320, 9669059321, 9669059322, 9669059323, 9669059324, 9669059325, 9669036606], "tags": {"place": "hamlet"}}]}