{"version": 0.6, "generator": "Overpass API 0.7.62.1 084b4234", "osm3s": {"timestamp_osm_base": "2024-09-30T19:02:00Z", "copyright": "The data included in this document is from www.openstreetmap.org. The data is made available under ODbL."}, "elements": [{"type": "node", "id": 1825992261, "lat": 2.0928163, "lon": 34.1955162, "tags": {"name": "Iriri", "place": "hamlet"}}, {"type": "node", "id": 1825992285, "lat": 1.9768385, "lon": 34.22199, "tags": {"place": "hamlet"}}, {"type": "node", "id": 2229099747, "lat": 2.1, "lon": 34.05, "tags": {"GNS:dsg_code": "PPL", "GNS:dsg_string": "populated place", "GNS:id": "-1725746", "fixme": "no population estimate available, defaulted to village", "name": "Achuru", "place": "village", "source": "GNS"}}, {"type": "node", "id": 2229099852, "lat": 2.083333, "lon": 34.083333, "tags": {"GNS:dsg_code": "PPL", "GNS:dsg_string": "populated place", "GNS:id": "-1725867", "fixme": "no population estimate available, defaulted to village", "name": "Airinget", "place": "village", "source": "GNS"}}, {"type": "node", "id": 2229099936, "lat": 2.083333, "lon": 34.166667, "tags": {"GNS:dsg_code": "PPL", "GNS:dsg_string": "populated place", "GNS:id": "-1725984", "fixme": "no population estimate available, defaulted to village", "name": "Alekilek", "place": "village", "source": "GNS"}}, {"type": "node", "id": 2229100257, "lat": 1.833333, "lon": 34.0, "tags": {"GNS:dsg_code": "PPL", "GNS:dsg_string": "populated place", "GNS:id": "-1726244", "fixme": "no population estimate available, defaulted to village", "name": "Arubela", "place": "village", "source": "GNS"}}, {"type": "node", "id": 2229107943, "lat": 2.033333, "lon": 34.133333, "tags": {"GNS:dsg_code": "PPL", "GNS:dsg_string": "populated place", "GNS:id": "-1727901", "fixme": "no population estimate available, defaulted to village", "name": "Giyaguya", "place": "village", "source": "GNS"}}, {"type": "node", "id": 2229108532, "lat": 2.083333, "lon": 34.2, "tags": {"GNS:dsg_code": "PPL", "GNS:dsg_string": "populated place", "GNS:id": "-1728101", "fixme": "no population estimate available, defaulted to village", "name": "Iriri", "place": "village", "source": "GNS"}}, {"type": "node", "id": 2229109693, "lat": 2.048611, "lon": 34.052222, "tags": {"GNS:dsg_code": "PPL", "GNS:dsg_string": "populated place", "GNS:id": "-1725755", "fixme": "no population estimate available, defaulted to village", "name": "Kadachal", "place": "village", "source": "GNS"}}, {"type": "node", "id": 2229110053, "lat": 1.85, "lon": 34.133333, "tags": {"GNS:dsg_code": "PPL", "GNS:dsg_string": "populated place", "GNS:id": "-1728574", "fixme": "no population estimate available, defaulted to village", "name": "Kaikamosi", "place": "village", "source": "GNS"}}, {"type": "node", "id": 2229118039, "lat": 2.092222, "lon": 34.235833, "tags": {"GNS:dsg_code": "PPL", "GNS:dsg_string": "populated place", "GNS:id": "-1731363", "fixme": "no population estimate available, defaulted to village", "name": "Lothaa", "place": "village", "source": "GNS"}}, {"type": "node", "id": 2229118212, "lat": 2.0, "lon": 34.15, "tags": {"GNS:dsg_code": "PPL", "GNS:dsg_string": "populated place", "GNS:id": "-1731617", "fixme": "no population estimate available, defaulted to village", "name": "Luya", "place": "village", "source": "GNS"}}, {"type": "node", "id": 2229119846, "lat": 2.033333, "lon": 34.116667, "tags": {"GNS:dsg_code": "PPL", "GNS:dsg_string": "populated place", "GNS:id": "-1732236", "fixme": "no population estimate available, defaulted to village", "name": "Moliring", "place": "village", "source": "GNS"}}, {"type": "node", "id": 2229121134, "lat": 1.883333, "lon": 34.133333, "tags": {"GNS:dsg_code": "PPL", "GNS:dsg_string": "populated place", "GNS:id": "-1733361", "fixme": "no population estimate available, defaulted to village", "name": "Nariam", "place": "village", "source": "GNS"}}, {"type": "node", "id": 2229121573, "lat": 1.916667, "lon": 34.016667, "tags": {"GNS:dsg_code": "PPL", "GNS:dsg_string": "populated place", "GNS:id": "-1733511", "fixme": "no population estimate available, defaulted to village", "name": "Ngobo", "place": "village", "source": "GNS"}}, {"type": "node", "id": 2229122987, "lat": 2.116667, "lon": 34.0, "tags": {"GNS:dsg_code": "PPL", "GNS:dsg_string": "populated place", "GNS:id": "-1734103", "fixme": "no population estimate available, defaulted to village", "name": "Obulingorok", "place": "village", "source": "GNS"}}, {"type": "node", "id": 2229123023, "lat": 2.033333, "lon": 34.066667, "tags": {"GNS:dsg_code": "PPL", "GNS:dsg_string": "populated place", "GNS:id": "-1730626", "fixme": "no population estimate available, defaulted to village", "name": "Odom", "place": "village", "source": "GNS"}}, {"type": "node", "id": 2229123103, "lat": 2.05, "lon": 34.05, "tags": {"GNS:dsg_code": "PPL", "GNS:dsg_string": "populated place", "GNS:id": "-1735335", "fixme": "no population estimate available, defaulted to village", "name": "Okadarya", "place": "village", "source": "GNS"}}, {"type": "node", "id": 2229123167, "lat": 1.929167, "lon": 34.108056, "tags": {"GNS:dsg_code": "PPL", "GNS:dsg_string": "populated place", "GNS:id": "-1734270", "fixme": "no population estimate available, defaulted to village", "name": "Old", "place": "village", "source": "GNS"}}, {"type": "node", "id": 2229123233, "lat": 1.816667, "lon": 34.0, "tags": {"GNS:dsg_code": "PPL", "GNS:dsg_string": "populated place", "GNS:id": "-1734356", "fixme": "no population estimate available, defaulted to village", "name": "Omodoi", "place": "village", "source": "GNS"}}, {"type": "node", "id": 2229123253, "lat": 2.15, "lon": 34.0, "tags": {"GNS:dsg_code": "PPL", "GNS:dsg_string": "populated place", "GNS:id": "-1734375", "fixme": "no population estimate available, defaulted to village", "name": "Omuturo", "place": "village", "source": "GNS"}}, {"type": "node", "id": 2229124146, "lat": 1.783333, "lon": 34.133333, "tags": {"GNS:dsg_code": "PPL", "GNS:dsg_string": "populated place", "GNS:id": "-1734556", "fixme": "no population estimate available, defaulted to village", "name": "Pakwi", "place": "village", "source": "GNS"}}, {"type": "node", "id": 3984083145, "lat": 2.1167734, "lon": 34.2269432, "tags": {"name": "Napak", "place": "town", "wikidata": "Q6696571", "wikipedia": "en:Napak"}}, {"type": "node", "id": 8409436629, "lat": 1.9546491, "lon": 34.0974725, "tags": {"name": "Nigariam", "place": "village"}}, {"type": "node", "id": 8409436630, "lat": 1.9918298, "lon": 34.0853136, "tags": {"name": "Orungo", "place": "village"}}, {"type": "node", "id": 10586736856, "lat": 1.9925208, "lon": 33.9990584, "tags": {"building": "yes", "name": "Obwapesur", "place": "village", "source": "Ubos_2014"}}, {"type": "node", "id": 10586736857, "lat": 1.9970998, "lon": 34.0225238, "tags": {"building": "yes", "name": "Oongole", "place": "village", "source": "Ubos_2014"}}, {"type": "node", "id": 10586736858, "lat": 2.0109836, "lon": 34.0125571, "tags": {"building": "yes", "name": "Amuli", "place": "village", "source": "Ubos_2014"}}, {"type": "node", "id": 10586736870, "lat": 2.0152853, "lon": 33.9990736, "tags": {"building": "yes", "name": "Otinda", "place": "village", "source": "Ubos_2014"}}, {"type": "node", "id": 10586736871, "lat": 2.0286452, "lon": 33.9988438, "tags": {"building": "yes", "name": "Amalera", "place": "village", "source": "Ubos_2014"}}, {"type": "node", "id": 10586736873, "lat": 2.0339903, "lon": 34.0244745, "tags": {"building": "yes", "name": "Okadanya", "place": "village", "source": "Ubos_2014"}}, {"type": "node", "id": 10586736874, "lat": 2.011111, "lon": 34.0864984, "tags": {"building": "yes", "name": "Ameritele", "place": "village", "source": "Ubos_2014"}}, {"type": "node", "id": 10586736875, "lat": 2.0631983, "lon": 34.0651632, "tags": {"building": "yes", "name": "Adacar", "place": "village", "source": "Ubos_2014"}}, {"type": "node", "id": 10586736876, "lat": 2.0278549, "lon": 34.0573806, "tags": {"building": "yes", "name": "Guyaguya", "place": "village", "source": "Ubos_2014"}}, {"type": "node", "id": 10586736879, "lat": 2.0582339, "lon": 34.0081397, "tags": {"building": "yes", "name": "Okibui (adacar)", "place": "village", "source": "Ubos_2014"}}, {"type": "node", "id": 10586736880, "lat": 2.0495683, "lon": 33.991887, "tags": {"building": "yes", "name": "Amoru(korotok)", "place": "village", "source": "Ubos_2014"}}, {"type": "node", "id": 10586736885, "lat": 1.9729669, "lon": 34.0249695, "tags": {"building": "yes", "name": "Osudio", "place": "village", "source": "Ubos_2014"}}, {"type": "node", "id": 10586736886, "lat": 1.9587681, "lon": 34.0212427, "tags": {"building": "yes", "name": "Aparisia (cheleuko)", "place": "village", "source": "Ubos_2014"}}, {"type": "node", "id": 10586736893, "lat": 1.9895974, "lon": 34.0923183, "tags": {"building": "yes", "name": "Amukurat", "place": "village", "source": "Ubos_2014"}}, {"type": "node", "id": 10586736894, "lat": 1.9823037, "lon": 34.0536187, "tags": {"building": "yes", "name": "Apuutonokinyang(aakum)", "place": "village", "source": "Ubos_2014"}}, {"type": "node", "id": 10586736895, "lat": 1.9735395, "lon": 34.0727125, "tags": {"building": "yes", "name": "Apuuton(aakum)", "place": "village", "source": "Ubos_2014"}}, {"type": "node", "id": 10586736896, "lat": 1.9603221, "lon": 34.0596774, "tags": {"building": "yes", "name": "Toibong", "place": "village", "source": "Ubos_2014"}}, {"type": "node", "id": 10586736897, "lat": 1.9952125, "lon": 34.0467686, "tags": {"building": "yes", "name": "Achanga", "place": "village", "source": "Ubos_2014"}}, {"type": "node", "id": 10586736898, "lat": 1.9411509, "lon": 34.0361416, "tags": {"building": "yes", "name": "Oitela", "place": "village", "source": "Ubos_2014"}}, {"type": "node", "id": 10586791027, "lat": 2.1263984, "lon": 34.0534157, "tags": {"building": "yes", "name": "Special Area(okocho)", "place": "village", "source": "Ubos_2014"}}, {"type": "node", "id": 10586791029, "lat": 2.1170437, "lon": 34.1024049, "tags": {"building": "yes", "name": "Amaratoit", "place": "village", "source": "Ubos_2014"}}, {"type": "node", "id": 10586791030, "lat": 2.0810589, "lon": 34.0914375, "tags": {"building": "yes", "name": "Akoboi(okocho)", "place": "village", "source": "Ubos_2014"}}, {"type": "node", "id": 10586791031, "lat": 2.1516827, "lon": 34.091991, "tags": {"building": "yes", "name": "Akuliak", "place": "village", "source": "Ubos_2014"}}, {"type": "node", "id": 10586791032, "lat": 2.1012957, "lon": 34.0450758, "tags": {"building": "yes", "name": "Ogoria", "place": "village", "source": "Ubos_2014"}}, {"type": "node", "id": 10586791033, "lat": 2.0851777, "lon": 34.0579601, "tags": {"building": "yes", "name": "Acuuru", "place": "village", "source": "Ubos_2014"}}, {"type": "node", "id": 10586791034, "lat": 2.1151237, "lon": 34.0400625, "tags": {"building": "yes", "name": "Okocho", "place": "village", "source": "Ubos_2014"}}, {"type": "node", "id": 10586791035, "lat": 2.0827196, "lon": 34.0118139, "tags": {"building": "yes", "name": "Omukuny", "place": "village", "source": "Ubos_2014"}}, {"type": "node", "id": 10586791036, "lat": 2.1371336, "lon": 34.0075261, "tags": {"building": "yes", "name": "Omuturo", "place": "village", "source": "Ubos_2014"}}, {"type": "node", "id": 10586791038, "lat": 2.0932715, "lon": 33.9930394, "tags": {"building": "yes", "name": "Anyanga-bela", "place": "village", "source": "Ubos_2014"}}, {"type": "node", "id": 10586831198, "lat": 2.0983931, "lon": 34.1469924, "tags": {"building": "yes", "name": "Osemwa", "place": "village", "source": "Ubos_2014"}}, {"type": "node", "id": 10586831199, "lat": 2.1180018, "lon": 34.1664144, "tags": {"building": "yes", "name": "Special Area 2", "place": "village", "source": "Ubos_2014"}}, {"type": "node", "id": 10586831200, "lat": 2.1272445, "lon": 34.1524314, "tags": {"building": "yes", "name": "Special Area 3", "place": "village", "source": "Ubos_2014"}}, {"type": "node", "id": 10586831201, "lat": 2.0120657, "lon": 34.1087112, "tags": {"building": "yes", "name": "Osiomit", "place": "village", "source": "Ubos_2014"}}, {"type": "node", "id": 10586831202, "lat": 1.8631939, "lon": 34.0801411, "tags": {"building": "yes", "name": "Apeleun (bisina)", "place": "village", "source": "Ubos_2014"}}, {"type": "node", "id": 10586831203, "lat": 1.8134286, "lon": 34.172308, "tags": {"building": "yes", "name": "Ogugut", "place": "village", "source": "Ubos_2014"}}, {"type": "node", "id": 10586831204, "lat": 1.7895928, "lon": 34.1610716, "tags": {"building": "yes", "name": "Rwemi", "place": "village", "source": "Ubos_2014"}}, {"type": "node", "id": 10586831930, "lat": 1.8038164, "lon": 33.9964119, "tags": {"name": "Napakol", "place": "village", "source": "Ubos_2014"}}, {"type": "node", "id": 10586831931, "lat": 1.8313386, "lon": 34.0016151, "tags": {"name": "Akoboi(omodoi)", "place": "village", "source": "Ubos_2014"}}, {"type": "node", "id": 10586831932, "lat": 1.8098704, "lon": 34.0297229, "tags": {"name": "Atirir", "place": "village", "source": "Ubos_2014"}}, {"type": "node", "id": 10586831933, "lat": 1.7896956, "lon": 34.0109344, "tags": {"name": "Aboloi", "place": "village", "source": "Ubos_2014"}}, {"type": "node", "id": 10586831934, "lat": 1.8297707, "lon": 34.0258738, "tags": {"name": "Apeleun (omodoi)", "place": "village", "source": "Ubos_2014"}}, {"type": "node", "id": 10586831948, "lat": 1.7675707, "lon": 34.0186291, "tags": {"name": "Okicira", "place": "village", "source": "Ubos_2014"}}, {"type": "node", "id": 10586831949, "lat": 1.7723385, "lon": 34.0438794, "tags": {"name": "Okile", "place": "village", "source": "Ubos_2014"}}, {"type": "node", "id": 10586831950, "lat": 1.7498879, "lon": 34.0182945, "tags": {"name": "Omaju", "place": "village", "source": "Ubos_2014"}}, {"type": "node", "id": 10586831962, "lat": 1.7571163, "lon": 33.9983374, "tags": {"name": "Omusungun B", "place": "village", "source": "Ubos_2014"}}, {"type": "node", "id": 10586831963, "lat": 1.7709675, "lon": 34.0003811, "tags": {"name": "Congo", "place": "village", "source": "Ubos_2014"}}, {"type": "node", "id": 10586831964, "lat": 1.7780279, "lon": 33.9963683, "tags": {"name": "Akisim(asuret)", "place": "village", "source": "Ubos_2014"}}, {"type": "node", "id": 10586831966, "lat": 1.7975632, "lon": 34.0390792, "tags": {"name": "Adokar(amusia)", "place": "village", "source": "Ubos_2014"}}, {"type": "node", "id": 10586879305, "lat": 1.775457, "lon": 34.1531394, "tags": {"building": "yes", "name": "Apeleun (pakwi)", "place": "village", "source": "Ubos_2014"}}, {"type": "node", "id": 10586879306, "lat": 1.8104662, "lon": 34.1317966, "tags": {"building": "yes", "name": "Special Area(pakwi)", "place": "village", "source": "Ubos_2014"}}, {"type": "node", "id": 10586879307, "lat": 1.7964902, "lon": 34.1675028, "tags": {"building": "yes", "name": "Amoo", "place": "village", "source": "Ubos_2014"}}, {"type": "node", "id": 10586879308, "lat": 1.7974656, "lon": 34.0986014, "tags": {"building": "yes", "name": "Akobo(ipakwi)", "place": "village", "source": "Ubos_2014"}}, {"type": "node", "id": 10586879309, "lat": 1.8114032, "lon": 34.1143413, "tags": {"building": "yes", "name": "Okibui (pakwi)", "place": "village", "source": "Ubos_2014"}}, {"type": "node", "id": 10586879310, "lat": 1.8064462, "lon": 34.1069082, "tags": {"building": "yes", "name": "Rwatama", "place": "village", "source": "Ubos_2014"}}, {"type": "node", "id": 10586879311, "lat": 1.7782472, "lon": 34.1074867, "tags": {"building": "yes", "name": "Adungulu", "place": "village", "source": "Ubos_2014"}}, {"type": "node", "id": 10586879312, "lat": 1.8108376, "lon": 34.091865, "tags": {"building": "yes", "name": "Alungar", "place": "village", "source": "Ubos_2014"}}, {"type": "node", "id": 10586879313, "lat": 1.8157368, "lon": 34.0885694, "tags": {"building": "yes", "name": "Akisim(bisina)", "place": "village", "source": "Ubos_2014"}}, {"type": "node", "id": 10586879314, "lat": 1.8266086, "lon": 34.119033, "tags": {"building": "yes", "name": "Opinanya", "place": "village", "source": "Ubos_2014"}}, {"type": "node", "id": 10586879315, "lat": 1.8256748, "lon": 34.1089514, "tags": {"building": "yes", "name": "Arukia", "place": "village", "source": "Ubos_2014"}}, {"type": "node", "id": 10586879316, "lat": 1.8353207, "lon": 34.1737753, "tags": {"building": "yes", "name": "Turukan", "place": "village", "source": "Ubos_2014"}}, {"type": "node", "id": 10586879317, "lat": 1.8302064, "lon": 34.1003778, "tags": {"building": "yes", "name": "Amoru(bisina)", "place": "village", "source": "Ubos_2014"}}, {"type": "node", "id": 10586879318, "lat": 1.8280771, "lon": 34.0870284, "tags": {"building": "yes", "name": "Akicira", "place": "village", "source": "Ubos_2014"}}, {"type": "node", "id": 10586879319, "lat": 1.8191607, "lon": 34.0749801, "tags": {"building": "yes", "name": "Ngero", "place": "village", "source": "Ubos_2014"}}, {"type": "node", "id": 10586879320, "lat": 1.834298, "lon": 34.0634158, "tags": {"building": "yes", "name": "Okuso", "place": "village", "source": "Ubos_2014"}}, {"type": "node", "id": 10586879321, "lat": 1.8450458, "lon": 34.07965, "tags": {"building": "yes", "name": "Apuuton(bisina)", "place": "village", "source": "Ubos_2014"}}, {"type": "node", "id": 10586879322, "lat": 1.8592954, "lon": 34.0639058, "tags": {"building": "yes", "name": "Agurur", "place": "village", "source": "Ubos_2014"}}, {"type": "node", "id": 10586879323, "lat": 1.8461243, "lon": 34.0517057, "tags": {"building": "yes", "name": "Olupe(bisina)", "place": "village", "source": "Ubos_2014"}}, {"type": "node", "id": 10586879324, "lat": 1.8469287, "lon": 34.0940903, "tags": {"building": "yes", "name": "Bisina", "place": "village", "source": "Ubos_2014"}}, {"type": "node", "id": 10586879325, "lat": 1.8432455, "lon": 34.1127425, "tags": {"building": "yes", "name": "Osobut", "place": "village", "source": "Ubos_2014"}}, {"type": "node", "id": 10586879326, "lat": 1.8514917, "lon": 34.1737478, "tags": {"building": "yes", "name": "Apuuton(kaikamosing)", "place": "village", "source": "Ubos_2014"}}, {"type": "node", "id": 10586879327, "lat": 1.8542542, "lon": 34.1211933, "tags": {"building": "yes", "name": "Apeleun (kaikamosing)", "place": "village", "source": "Ubos_2014"}}, {"type": "node", "id": 10586879328, "lat": 1.8597731, "lon": 34.1080787, "tags": {"building": "yes", "name": "Acegelekinei", "place": "village", "source": "Ubos_2014"}}, {"type": "node", "id": 10586879329, "lat": 1.8694549, "lon": 34.1765759, "tags": {"building": "yes", "name": "Adokar(kaikamosing)", "place": "village", "source": "Ubos_2014"}}, {"type": "node", "id": 10586879330, "lat": 1.8699994, "lon": 34.0365104, "tags": {"building": "yes", "name": "Okwamwomar", "place": "village", "source": "Ubos_2014"}}, {"type": "node", "id": 10586879331, "lat": 1.8898513, "lon": 34.165924, "tags": {"building": "yes", "name": "Kaikamosing", "place": "village", "source": "Ubos_2014"}}, {"type": "node", "id": 10586879332, "lat": 1.8762616, "lon": 34.0556875, "tags": {"building": "yes", "name": "Akosobwa", "place": "village", "source": "Ubos_2014"}}, {"type": "node", "id": 10586879333, "lat": 1.8859445, "lon": 34.0458697, "tags": {"building": "yes", "name": "Akosobwa", "place": "village", "source": "Ubos_2014"}}, {"type": "node", "id": 10586879334, "lat": 1.8865714, "lon": 34.067876, "tags": {"building": "yes", "name": "Akolikeje", "place": "village", "source": "Ubos_2014"}}, {"type": "node", "id": 10586879335, "lat": 1.8740447, "lon": 34.0989871, "tags": {"building": "yes", "name": "Okwee", "place": "village", "source": "Ubos_2014"}}, {"type": "node", "id": 10586879336, "lat": 1.8959295, "lon": 34.0813483, "tags": {"building": "yes", "name": "Atiira", "place": "village", "source": "Ubos_2014"}}, {"type": "node", "id": 10586879337, "lat": 1.8992828, "lon": 34.0343175, "tags": {"building": "yes", "name": "Tumtum", "place": "village", "source": "Ubos_2014"}}, {"type": "node", "id": 10586879338, "lat": 1.9133326, "lon": 34.0772599, "tags": {"building": "yes", "name": "Amiriai", "place": "village", "source": "Ubos_2014"}}, {"type": "node", "id": 10586879339, "lat": 1.9128334, "lon": 34.0606902, "tags": {"building": "yes", "name": "Opedongor", "place": "village", "source": "Ubos_2014"}}, {"type": "node", "id": 10586879340, "lat": 1.9218896, "lon": 34.0509365, "tags": {"building": "yes", "name": "Acoite", "place": "village", "source": "Ubos_2014"}}, {"type": "node", "id": 10586879341, "lat": 1.9117611, "lon": 34.121271, "tags": {"building": "yes", "name": "Ooloin", "place": "village", "source": "Ubos_2014"}}, {"type": "node", "id": 10586879342, "lat": 1.9162989, "lon": 34.1032636, "tags": {"building": "yes", "name": "Alengo", "place": "village", "source": "Ubos_2014"}}, {"type": "node", "id": 10586879343, "lat": 1.8941454, "lon": 34.0997499, "tags": {"building": "yes", "name": "Apuuton(ngariam)", "place": "village", "source": "Ubos_2014"}}, {"type": "node", "id": 10586879344, "lat": 1.9277471, "lon": 34.0877386, "tags": {"building": "yes", "name": "Acucu", "place": "village", "source": "Ubos_2014"}}, {"type": "node", "id": 10586879345, "lat": 1.9385789, "lon": 34.0670337, "tags": {"building": "yes", "name": "Akwarekia", "place": "village", "source": "Ubos_2014"}}, {"type": "node", "id": 10586879346, "lat": 1.9495509, "lon": 34.0830904, "tags": {"building": "yes", "name": "Amorwongora", "place": "village", "source": "Ubos_2014"}}, {"type": "node", "id": 10586879347, "lat": 1.9378282, "lon": 34.1704342, "tags": {"building": "yes", "name": "Oliangoi", "place": "village", "source": "Ubos_2014"}}, {"type": "node", "id": 10586879348, "lat": 1.9158398, "lon": 34.1767559, "tags": {"building": "yes", "name": "Orukurikio", "place": "village", "source": "Ubos_2014"}}, {"type": "node", "id": 10586879349, "lat": 1.9555074, "lon": 34.1765672, "tags": {"building": "yes", "name": "Otuko (acanga)", "place": "village", "source": "Ubos_2014"}}, {"type": "node", "id": 10586879350, "lat": 1.9185235, "lon": 34.037805, "tags": {"building": "yes", "name": "Akwaradada", "place": "village", "source": "Ubos_2014"}}, {"type": "node", "id": 10586879351, "lat": 1.9547723, "lon": 34.1216609, "tags": {"building": "yes", "name": "Aleles(acanga)", "place": "village", "source": "Ubos_2014"}}, {"type": "node", "id": 10586879352, "lat": 2.0017296, "lon": 34.1781984, "tags": {"building": "yes", "name": "Amuturo", "place": "village", "source": "Ubos_2014"}}, {"type": "node", "id": 10586879353, "lat": 1.9790841, "lon": 34.1317286, "tags": {"building": "yes", "name": "Oramun", "place": "village", "source": "Ubos_2014"}}, {"type": "node", "id": 10586879354, "lat": 1.9802248, "lon": 34.194376, "tags": {"building": "yes", "name": "Palam", "place": "village", "source": "Ubos_2014"}}, {"type": "node", "id": 10586879355, "lat": 1.9750777, "lon": 34.1117034, "tags": {"building": "yes", "name": "Arusiakan", "place": "village", "source": "Ubos_2014"}}, {"type": "node", "id": 10586879356, "lat": 2.0146046, "lon": 34.1693484, "tags": {"building": "yes", "name": "Aelenyang", "place": "village", "source": "Ubos_2014"}}, {"type": "node", "id": 10586879357, "lat": 2.0254264, "lon": 34.1652545, "tags": {"building": "yes", "name": "Aeelenyang(olilim)", "place": "village", "source": "Ubos_2014"}}, {"type": "node", "id": 10586879358, "lat": 2.0214064, "lon": 34.1321365, "tags": {"building": "yes", "name": "Siriye", "place": "village", "source": "Ubos_2014"}}, {"type": "node", "id": 10586879359, "lat": 1.9492856, "lon": 34.102086, "tags": {"building": "yes", "name": "Ngariam", "place": "village", "source": "Ubos_2014"}}, {"type": "node", "id": 10586879360, "lat": 2.0600881, "lon": 34.1786514, "tags": {"building": "yes", "name": "Morulinga", "place": "village", "source": "Ubos_2014"}}, {"type": "node", "id": 10586879361, "lat": 2.0411527, "lon": 34.1795456, "tags": {"building": "yes", "name": "Special Area(olilim)", "place": "village", "source": "Ubos_2014"}}, {"type": "node", "id": 10586879362, "lat": 2.040329, "lon": 34.1176719, "tags": {"building": "yes", "name": "Aiiti", "place": "village", "source": "Ubos_2014"}}, {"type": "node", "id": 10593656498, "lat": 1.9036533, "lon": 34.0014622, "tags": {"building": "yes", "name": "Agurigir", "place": "village", "source": "Ubos_2014"}}, {"type": "node", "id": 10593668112, "lat": 1.9191007, "lon": 34.0118847, "tags": {"building": "yes", "name": "Angobo", "place": "village", "source": "Ubos_2014"}}, {"type": "node", "id": 10593668113, "lat": 1.9445713, "lon": 34.0239259, "tags": {"building": "yes", "name": "Agurugur", "place": "village", "source": "Ubos_2014"}}, {"type": "node", "id": 10593668114, "lat": 1.944747, "lon": 33.993892, "tags": {"building": "yes", "name": "Apolin", "place": "village", "source": "Ubos_2014"}}, {"type": "node", "id": 10593668117, "lat": 1.958522, "lon": 34.0036408, "tags": {"building": "yes", "name": "Aparisia (aparisia)", "place": "village", "source": "Ubos_2014"}}, {"type": "node", "id": 10593668118, "lat": 1.9302559, "lon": 33.9966632, "tags": {"building": "yes", "name": "Aburosinge(katakwi)", "place": "village", "source": "Ubos_2014"}}, {"type": "node", "id": 10593668121, "lat": 1.8882098, "lon": 34.0081475, "tags": {"building": "yes", "name": "Oriau", "place": "village", "source": "Ubos_2014"}}, {"type": "node", "id": 10593668123, "lat": 1.8530369, "lon": 34.0076537, "tags": {"building": "yes", "name": "Dadas", "place": "village", "source": "Ubos_2014"}}, {"type": "node", "id": 10593668130, "lat": 1.8714267, "lon": 34.0153009, "tags": {"building": "yes", "name": "Lalei(aleles)", "place": "village", "source": "Ubos_2014"}}, {"type": "node", "id": 10593688769, "lat": 1.7410727, "lon": 34.0782295, "tags": {"building": "yes", "name": "Orimau A", "place": "village", "source": "Ubos_2014"}}, {"type": "node", "id": 10593688770, "lat": 1.7518718, "lon": 34.109272, "tags": {"building": "yes", "name": "Oolir", "place": "village", "source": "Ubos_2014"}}, {"type": "node", "id": 10593688771, "lat": 1.7604246, "lon": 34.1784062, "tags": {"building": "yes", "name": "Oolir", "place": "village", "source": "Ubos_2014"}}, {"type": "node", "id": 10593688772, "lat": 1.7518311, "lon": 34.0897892, "tags": {"building": "yes", "name": "Ariau A", "place": "village", "source": "Ubos_2014"}}, {"type": "node", "id": 10593688774, "lat": 1.767989, "lon": 34.1033638, "tags": {"building": "yes", "name": "Kipinyang", "place": "village", "source": "Ubos_2014"}}, {"type": "node", "id": 10593688775, "lat": 1.7740897, "lon": 34.0863643, "tags": {"building": "yes", "name": "Oriu B", "place": "village", "source": "Ubos_2014"}}, {"type": "node", "id": 10593688776, "lat": 1.7897989, "lon": 34.0787179, "tags": {"building": "yes", "name": "Ariau B", "place": "village", "source": "Ubos_2014"}}, {"type": "node", "id": 10593688777, "lat": 1.7888508, "lon": 34.0892443, "tags": {"building": "yes", "name": "Adurukoi(omasai)", "place": "village", "source": "Ubos_2014"}}, {"type": "node", "id": 10593688778, "lat": 1.8065599, "lon": 34.0649776, "tags": {"building": "yes", "name": "Kiiya", "place": "village", "source": "Ubos_2014"}}, {"type": "node", "id": 10593700377, "lat": 2.03853, "lon": 34.0880894, "tags": {"building": "yes", "name": "Guyaguya", "place": "village", "source": "Ubos_2014"}}, {"type": "node", "id": 10593700378, "lat": 2.0484232, "lon": 34.017541, "tags": {"building": "yes", "name": "Okibui (adacar)", "place": "village", "source": "Ubos_2014"}}, {"type": "node", "id": 10926668918, "lat": 1.8600336, "lon": 34.3285027, "tags": {"name": "Pian Upe Game Reserve", "place": "village", "source": "Ubos_2021"}}, {"type": "node", "id": 10926668946, "lat": 1.7499856, "lon": 34.3173429, "tags": {"name": "Akinawari", "place": "village", "source": "Ubos_2021"}}, {"type": "node", "id": 11043721903, "lat": 2.14904, "lon": 34.1757199, "tags": {"name": "Lomaratoit", "place": "village", "source": "UBOS-2014"}}, {"type": "node", "id": 11043721909, "lat": 2.1535001, "lon": 34.2831799, "tags": {"name": "Lokupol", "place": "village", "source": "UBOS-2014"}}, {"type": "node", "id": 11043721912, "lat": 2.1353167, "lon": 34.3666073, "tags": {"name": "Alakas Camp", "place": "village", "source": "UBOS-2014"}}, {"type": "node", "id": 11043721915, "lat": 2.1298274, "lon": 34.343948, "tags": {"name": "Kadacar", "place": "village", "source": "UBOS-2014"}}, {"type": "node", "id": 11043721916, "lat": 2.1360029, "lon": 34.3192288, "tags": {"name": "Lopulepeded", "place": "village", "source": "UBOS-2014"}}, {"type": "node", "id": 11043721917, "lat": 2.1315428, "lon": 34.2948529, "tags": {"name": "Toyep-Toto", "place": "village", "source": "UBOS-2014"}}, {"type": "node", "id": 11043721918, "lat": 2.1123299, "lon": 34.2570874, "tags": {"name": "Losikiat", "place": "village", "source": "UBOS-2014"}}, {"type": "node", "id": 11043721919, "lat": 2.1346306, "lon": 34.2605206, "tags": {"name": "Ariamoakot", "place": "village", "source": "UBOS-2014"}}, {"type": "node", "id": 11043721920, "lat": 2.1346306, "lon": 34.235458, "tags": {"name": "Kasile", "place": "village", "source": "UBOS-2014"}}, {"type": "node", "id": 11043721921, "lat": 2.1308566, "lon": 34.2073056, "tags": {"name": "Morusapir", "place": "village", "source": "UBOS-2014"}}, {"type": "node", "id": 11043721922, "lat": 2.1119868, "lon": 34.2807766, "tags": {"name": "Lojom", "place": "village", "source": "UBOS-2014"}}, {"type": "node", "id": 11043721923, "lat": 2.1061543, "lon": 34.3061825, "tags": {"name": "Napeilet", "place": "village", "source": "UBOS-2014"}}, {"type": "node", "id": 11043721924, "lat": 2.1085559, "lon": 34.2210385, "tags": {"name": "Iriiri Trading Centre", "place": "village", "source": "UBOS-2014"}}, {"type": "node", "id": 11043721925, "lat": 2.0941461, "lon": 34.2625805, "tags": {"name": "Lokwanamoku", "place": "village", "source": "UBOS-2014"}}, {"type": "node", "id": 11043721926, "lat": 2.0951753, "lon": 34.2292782, "tags": {"name": "Go Down", "place": "village", "source": "UBOS-2014"}}, {"type": "node", "id": 11043721927, "lat": 2.0948322, "lon": 34.2824932, "tags": {"name": "Naminit", "place": "village", "source": "UBOS-2014"}}, {"type": "node", "id": 11043721928, "lat": 2.0848825, "lon": 34.246101, "tags": {"name": "Lokachikit", "place": "village", "source": "UBOS-2014"}}, {"type": "node", "id": 11043721929, "lat": 2.083167, "lon": 34.3240353, "tags": {"name": "Naturumurum", "place": "village", "source": "UBOS-2014"}}, {"type": "node", "id": 11043721930, "lat": 2.0478278, "lon": 34.2292782, "tags": {"name": "Micoko", "place": "village", "source": "UBOS-2014"}}, {"type": "node", "id": 11043721931, "lat": 2.0663552, "lon": 34.2406079, "tags": {"name": "Apiananya", "place": "village", "source": "UBOS-2014"}}, {"type": "node", "id": 11043721932, "lat": 2.0697862, "lon": 34.2842099, "tags": {"name": "Akore", "place": "village", "source": "UBOS-2014"}}, {"type": "node", "id": 11043721933, "lat": 2.0293001, "lon": 34.2474743, "tags": {"name": "Kodike", "place": "village", "source": "UBOS-2014"}}, {"type": "node", "id": 11043721934, "lat": 1.998077, "lon": 34.2934796, "tags": {"name": "Nacoria", "place": "village", "source": "UBOS-2014"}}, {"type": "node", "id": 11043721935, "lat": 2.007341, "lon": 34.2605206, "tags": {"name": "Makok", "place": "village", "source": "UBOS-2014"}}, {"type": "node", "id": 11043721936, "lat": 2.0279276, "lon": 34.3631741, "tags": {"name": "Grazing Area", "place": "village", "source": "UBOS-2014"}}, {"type": "node", "id": 11043721937, "lat": 1.9483247, "lon": 34.2649838, "tags": {"name": "Naminit", "place": "village", "source": "UBOS-2014"}}]}