{"version": 0.6, "generator": "Overpass API 0.7.62.1 084b4234", "osm3s": {"timestamp_osm_base": "2024-09-30T22:46:26Z", "copyright": "The data included in this document is from www.openstreetmap.org. The data is made available under ODbL."}, "elements": [{"type": "node", "id": 283675678, "lat": 7.9256841, "lon": 37.4179084, "tags": {"alt_name": "Sekoru", "name": "\u1230\u12ae\u1229 / Sokoru", "name:am": "\u1230\u12ae\u1229", "name:en": "Sokoru", "name:fr": "Sokoru", "place": "town", "wikidata": "Q693640", "wikipedia": "en:Sokoru"}}, {"type": "node", "id": 1104339355, "lat": 7.9689837, "lon": 37.4392214, "tags": {"name": "Saja", "place": "village"}}, {"type": "node", "id": 1104342417, "lat": 8.0397662, "lon": 37.4473425, "tags": {"name": "Natri", "place": "village"}}, {"type": "node", "id": 1104344400, "lat": 7.8416604, "lon": 37.3675132, "tags": {"name": "Deneba", "place": "town", "source": "GeoDatabase"}}, {"type": "node", "id": 1150883207, "lat": 7.9, "lon": 37.41667, "tags": {"is_in:country": "Ethiopia", "is_in:country_code": "ET", "name": "Krupe", "place": "locality", "source": "GeoDatabase"}}, {"type": "node", "id": 1150883626, "lat": 7.96667, "lon": 37.43333, "tags": {"is_in:country": "Ethiopia", "is_in:country_code": "ET", "name": "Saja", "place": "locality", "source": "GeoDatabase"}}, {"type": "node", "id": 1150883765, "lat": 7.88333, "lon": 37.51667, "tags": {"is_in:country": "Ethiopia", "is_in:country_code": "ET", "name": "Giangero", "place": "locality", "source": "GeoDatabase"}}, {"type": "node", "id": 1150886671, "lat": 7.7, "lon": 37.36667, "tags": {"is_in:country": "Ethiopia", "is_in:country_code": "ET", "name": "Baso", "place": "locality", "source": "GeoDatabase"}}, {"type": "node", "id": 1150886857, "lat": 8.03333, "lon": 37.45, "tags": {"is_in:country": "Ethiopia", "is_in:country_code": "ET", "name": "Dobi", "place": "locality", "source": "GeoDatabase"}}, {"type": "node", "id": 1150887370, "lat": 7.98333, "lon": 37.51667, "tags": {"is_in:country": "Ethiopia", "is_in:country_code": "ET", "name": "Dare", "place": "locality", "source": "GeoDatabase"}}, {"type": "node", "id": 1150887489, "lat": 7.83333, "lon": 37.46667, "tags": {"is_in:country": "Ethiopia", "is_in:country_code": "ET", "name": "Mesas Bota", "place": "locality", "source": "GeoDatabase"}}, {"type": "node", "id": 1150889384, "lat": 7.68333, "lon": 37.53333, "tags": {"is_in:country": "Ethiopia", "is_in:country_code": "ET", "name": "Gombora Shet'", "place": "locality", "source": "GeoDatabase", "wikidata": "Q23962010"}}, {"type": "node", "id": 1150893941, "lat": 7.75, "lon": 37.4, "tags": {"is_in:country": "Ethiopia", "is_in:country_code": "ET", "name": "Merera", "place": "locality", "source": "GeoDatabase"}}, {"type": "node", "id": 1150894573, "lat": 7.68333, "lon": 37.26667, "tags": {"is_in:country": "Ethiopia", "is_in:country_code": "ET", "name": "Goro Bota", "place": "locality", "source": "GeoDatabase"}}, {"type": "node", "id": 1150898540, "lat": 7.91667, "lon": 37.41667, "tags": {"is_in:country": "Ethiopia", "is_in:country_code": "ET", "name": "Socorro", "place": "locality", "source": "GeoDatabase"}}, {"type": "node", "id": 1150903528, "lat": 7.93333, "lon": 37.51667, "tags": {"is_in:country": "Ethiopia", "is_in:country_code": "ET", "name": "K'Idame Gebeya", "place": "locality", "source": "GeoDatabase"}}, {"type": "node", "id": 1150910429, "lat": 8.0, "lon": 37.6, "tags": {"is_in:country": "Ethiopia", "is_in:country_code": "ET", "name": "Meged Shet'", "place": "locality", "source": "GeoDatabase"}}, {"type": "node", "id": 1150912043, "lat": 7.85, "lon": 37.4, "tags": {"is_in:country": "Ethiopia", "is_in:country_code": "ET", "name": "Deneba Bota", "place": "locality", "source": "GeoDatabase"}}, {"type": "node", "id": 1150912508, "lat": 7.96667, "lon": 37.55, "tags": {"is_in:country": "Ethiopia", "is_in:country_code": "ET", "name": "Hereto", "place": "locality", "source": "GeoDatabase"}}, {"type": "node", "id": 1150912824, "lat": 7.66667, "lon": 37.53333, "tags": {"is_in:country": "Ethiopia", "is_in:country_code": "ET", "name": "Amalcatama", "place": "locality", "source": "GeoDatabase"}}, {"type": "node", "id": 1150917953, "lat": 7.850802, "lon": 37.520086, "tags": {"name": "Fofa", "place": "town", "source": "GeoDatabase", "wikidata": "Q3074800", "wikipedia": "en:Fofa, Ethiopia"}}, {"type": "node", "id": 1150921056, "lat": 7.71667, "lon": 37.28333, "tags": {"is_in:country": "Ethiopia", "is_in:country_code": "ET", "name": "Alge Bota", "place": "locality", "source": "GeoDatabase"}}, {"type": "node", "id": 1150936298, "lat": 7.8, "lon": 37.28333, "tags": {"is_in:country": "Ethiopia", "is_in:country_code": "ET", "name": "Nada Shet'", "place": "locality", "source": "GeoDatabase"}}, {"type": "node", "id": 1150937589, "lat": 7.68333, "lon": 37.61667, "tags": {"is_in:country": "Ethiopia", "is_in:country_code": "ET", "name": "Ammacio", "place": "locality", "source": "GeoDatabase"}}, {"type": "node", "id": 1150941907, "lat": 8.03333, "lon": 37.5, "tags": {"is_in:country": "Ethiopia", "is_in:country_code": "ET", "name": "Dereta", "place": "locality", "source": "GeoDatabase"}}, {"type": "node", "id": 1150952854, "lat": 7.88333, "lon": 37.25, "tags": {"is_in:country": "Ethiopia", "is_in:country_code": "ET", "name": "Iteya Bota", "place": "locality", "source": "GeoDatabase"}}, {"type": "node", "id": 1150954372, "lat": 7.88333, "lon": 37.38333, "tags": {"is_in:country": "Ethiopia", "is_in:country_code": "ET", "name": "Gangeletta", "place": "locality", "source": "GeoDatabase"}}, {"type": "node", "id": 1150954844, "lat": 8.05, "lon": 37.53333, "tags": {"is_in:country": "Ethiopia", "is_in:country_code": "ET", "name": "Seba", "place": "locality", "source": "GeoDatabase"}}, {"type": "node", "id": 1150955880, "lat": 7.73333, "lon": 37.23333, "tags": {"is_in:country": "Ethiopia", "is_in:country_code": "ET", "name": "Sandabo", "place": "locality", "source": "GeoDatabase"}}, {"type": "node", "id": 1150956208, "lat": 7.93333, "lon": 37.43333, "tags": {"is_in:country": "Ethiopia", "is_in:country_code": "ET", "name": "Simini", "place": "locality", "source": "GeoDatabase"}}, {"type": "node", "id": 1150956501, "lat": 7.71667, "lon": 37.48333, "tags": {"is_in:country": "Ethiopia", "is_in:country_code": "ET", "name": "Weyra", "place": "locality", "source": "GeoDatabase"}}, {"type": "node", "id": 1150961239, "lat": 7.65, "lon": 37.25, "tags": {"is_in:country": "Ethiopia", "is_in:country_code": "ET", "name": "Beke Aba Wako", "place": "locality", "source": "GeoDatabase"}}, {"type": "node", "id": 1150963123, "lat": 7.7, "lon": 37.31666, "tags": {"is_in:country": "Ethiopia", "is_in:country_code": "ET", "name": "Gadi", "place": "locality", "source": "GeoDatabase"}}, {"type": "node", "id": 1150963359, "lat": 8.0, "lon": 37.4, "tags": {"is_in:country": "Ethiopia", "is_in:country_code": "ET", "name": "Fiume Ghibbie Di Gimma", "place": "locality", "source": "GeoDatabase"}}, {"type": "node", "id": 1150963925, "lat": 7.83333, "lon": 37.31666, "tags": {"is_in:country": "Ethiopia", "is_in:country_code": "ET", "name": "Nedi Shet'", "place": "locality", "source": "GeoDatabase"}}, {"type": "node", "id": 1150967506, "lat": 7.98333, "lon": 37.5, "tags": {"is_in:country": "Ethiopia", "is_in:country_code": "ET", "name": "Yedi", "place": "locality", "source": "GeoDatabase"}}, {"type": "node", "id": 1150967571, "lat": 8.01667, "lon": 37.56666, "tags": {"is_in:country": "Ethiopia", "is_in:country_code": "ET", "name": "Mount Shiro", "place": "locality", "source": "GeoDatabase"}}, {"type": "node", "id": 1150968351, "lat": 7.96667, "lon": 37.26667, "tags": {"is_in:country": "Ethiopia", "is_in:country_code": "ET", "name": "Cagelo Budonaro", "place": "locality", "source": "GeoDatabase"}}, {"type": "node", "id": 1150969620, "lat": 7.75, "lon": 37.46667, "tags": {"is_in:country": "Ethiopia", "is_in:country_code": "ET", "name": "Giangero", "place": "locality", "source": "GeoDatabase", "wikidata": "Q24029476"}}, {"type": "node", "id": 1150980103, "lat": 7.8170314, "lon": 37.3426963, "tags": {"name": "Yedi Shet'", "place": "locality", "source": "GeoDatabase"}}, {"type": "node", "id": 1978364413, "lat": 7.8513643, "lon": 37.2368673, "tags": {"place": "town"}}, {"type": "node", "id": 1978473290, "lat": 7.9238726, "lon": 37.2632441, "tags": {"place": "village"}}, {"type": "node", "id": 1978564771, "lat": 7.9685853, "lon": 37.3608531, "tags": {"place": "village"}}, {"type": "node", "id": 1979747478, "lat": 7.8084686, "lon": 37.4672839, "tags": {"place": "village"}}, {"type": "node", "id": 1979753812, "lat": 7.8867462, "lon": 37.4577888, "tags": {"place": "village"}}, {"type": "node", "id": 2506805653, "lat": 7.7383319, "lon": 37.4778846, "tags": {"name": "Toba", "place": "village"}}]}