{"version": 0.6, "generator": "Overpass API 0.7.62.1 084b4234", "osm3s": {"timestamp_osm_base": "2024-09-30T22:03:35Z", "copyright": "The data included in this document is from www.openstreetmap.org. The data is made available under ODbL."}, "elements": [{"type": "node", "id": 1150881438, "lat": 8.98333, "lon": 40.6, "tags": {"is_in:country": "Ethiopia", "is_in:country_code": "ET", "name": "Dalo", "place": "locality", "source": "GeoDatabase"}}, {"type": "node", "id": 1150882750, "lat": 8.91667, "lon": 40.75, "tags": {"is_in:country": "Ethiopia", "is_in:country_code": "ET", "name": "Bosana", "place": "locality", "source": "GeoDatabase"}}, {"type": "node", "id": 1150883645, "lat": 8.91667, "lon": 40.55, "tags": {"is_in:country": "Ethiopia", "is_in:country_code": "ET", "name": "K'Oricha Giyorgis Bete Kristiyan", "place": "locality", "source": "GeoDatabase"}}, {"type": "node", "id": 1150886128, "lat": 8.86667, "lon": 40.58333, "tags": {"is_in:country": "Ethiopia", "is_in:country_code": "ET", "name": "Batanissa", "place": "locality", "source": "GeoDatabase"}}, {"type": "node", "id": 1150887184, "lat": 9.0, "lon": 40.8, "tags": {"is_in:country": "Ethiopia", "is_in:country_code": "ET", "name": "Ch'Erch'Er Terara", "place": "locality", "source": "GeoDatabase"}}, {"type": "node", "id": 1150890556, "lat": 9.100215, "lon": 40.533299, "tags": {"is_in:country": "Ethiopia", "is_in:country_code": "ET", "name": "Kora", "place": "locality", "source": "GeoDatabase"}}, {"type": "node", "id": 1150893520, "lat": 8.9649875, "lon": 40.6683532, "tags": {"is_in:country": "Ethiopia", "is_in:country_code": "ET", "name": "Yisak'O", "place": "locality", "source": "GeoDatabase"}}, {"type": "node", "id": 1150894532, "lat": 9.03333, "lon": 40.75, "tags": {"is_in:country": "Ethiopia", "is_in:country_code": "ET", "name": "K'Ore", "place": "locality", "source": "GeoDatabase"}}, {"type": "node", "id": 1150899310, "lat": 8.86667, "lon": 40.66667, "tags": {"is_in:country": "Ethiopia", "is_in:country_code": "ET", "name": "Geseta", "place": "locality", "source": "GeoDatabase"}}, {"type": "node", "id": 1150900858, "lat": 9.01667, "lon": 40.7, "tags": {"is_in:country": "Ethiopia", "is_in:country_code": "ET", "name": "Bililo Giyorgis Bete Kristiyan", "place": "locality", "source": "GeoDatabase"}}, {"type": "node", "id": 1150902093, "lat": 8.9, "lon": 40.58333, "tags": {"is_in:country": "Ethiopia", "is_in:country_code": "ET", "name": "Gebel Guba Coriccia", "place": "locality", "source": "GeoDatabase"}}, {"type": "node", "id": 1150903431, "lat": 8.95, "lon": 40.55, "tags": {"is_in:country": "Ethiopia", "is_in:country_code": "ET", "name": "Guba K'Oricha", "place": "locality", "source": "GeoDatabase"}}, {"type": "node", "id": 1150909794, "lat": 9.06667, "lon": 40.61667, "tags": {"is_in:country": "Ethiopia", "is_in:country_code": "ET", "name": "Argiti", "place": "locality", "source": "GeoDatabase"}}, {"type": "node", "id": 1150919059, "lat": 8.91667, "lon": 40.58333, "tags": {"is_in:country": "Ethiopia", "is_in:country_code": "ET", "name": "Chercher Mountains", "place": "locality", "source": "GeoDatabase"}}, {"type": "node", "id": 1150920090, "lat": 9.13333, "lon": 40.5, "tags": {"is_in:country": "Ethiopia", "name": "Dire K'Alu", "place": "locality", "source": "GeoDatabase"}}, {"type": "node", "id": 1150925604, "lat": 9.08333, "lon": 40.75, "tags": {"is_in:country": "Ethiopia", "is_in:country_code": "ET", "name": "Kolo Shet'", "place": "locality", "source": "GeoDatabase"}}, {"type": "node", "id": 1150934092, "lat": 9.15, "lon": 40.71667, "tags": {"is_in:country": "Ethiopia", "is_in:country_code": "ET", "name": "Ark'Onch'A", "place": "locality", "source": "GeoDatabase"}}, {"type": "node", "id": 1150935474, "lat": 8.8765658, "lon": 40.6853923, "tags": {"is_in:country": "Ethiopia", "is_in:country_code": "ET", "name": "Kera K'Urk'Ura", "place": "locality", "source": "GeoDatabase"}}, {"type": "node", "id": 1150937177, "lat": 9.06667, "lon": 40.68333, "tags": {"is_in:country": "Ethiopia", "is_in:country_code": "ET", "name": "Ingudetu Tekil", "place": "locality", "source": "GeoDatabase"}}, {"type": "node", "id": 1150943974, "lat": 8.9844291, "lon": 40.5505091, "tags": {"is_in:country": "Ethiopia", "is_in:country_code": "ET", "name": "Hayu", "place": "locality", "source": "GeoDatabase"}}, {"type": "node", "id": 1150946730, "lat": 9.11667, "lon": 40.55, "tags": {"is_in:country": "Ethiopia", "is_in:country_code": "ET", "name": "Merewa Shet'", "place": "locality", "source": "GeoDatabase"}}, {"type": "node", "id": 1150949839, "lat": 9.11667, "lon": 40.56666, "tags": {"is_in:country": "Ethiopia", "is_in:country_code": "ET", "name": "Hoch'Ech'A Shet'", "place": "locality", "source": "GeoDatabase"}}, {"type": "node", "id": 1150952542, "lat": 8.93333, "lon": 40.73333, "tags": {"is_in:country": "Ethiopia", "is_in:country_code": "ET", "name": "Webi Maryam Bete Kristiyan", "place": "locality", "source": "GeoDatabase"}}, {"type": "node", "id": 1150960962, "lat": 9.21667, "lon": 40.8, "tags": {"is_in:country": "Ethiopia", "is_in:country_code": "ET", "name": "Sodoma", "place": "locality", "source": "GeoDatabase"}}, {"type": "node", "id": 1150963243, "lat": 9.21667, "lon": 40.66667, "tags": {"is_in:country": "Ethiopia", "is_in:country_code": "ET", "name": "Monte Dalecho", "place": "locality", "source": "GeoDatabase"}}, {"type": "node", "id": 1150969712, "lat": 8.86667, "lon": 40.51667, "tags": {"is_in:country": "Ethiopia", "is_in:country_code": "ET", "name": "Habro", "place": "locality", "source": "GeoDatabase"}}, {"type": "node", "id": 1150969916, "lat": 9.11667, "lon": 40.7, "tags": {"is_in:country": "Ethiopia", "is_in:country_code": "ET", "name": "Bilu", "place": "locality", "source": "GeoDatabase"}}, {"type": "node", "id": 1150972141, "lat": 9.01667, "lon": 40.8, "tags": {"is_in:country": "Ethiopia", "is_in:country_code": "ET", "name": "Unde", "place": "locality", "source": "GeoDatabase"}}, {"type": "node", "id": 1150973004, "lat": 9.08333, "lon": 40.48333, "tags": {"is_in:country": "Ethiopia", "name": "Laga Arba", "place": "locality", "source": "GeoDatabase"}}, {"type": "node", "id": 1150979226, "lat": 8.91667, "lon": 40.7, "tags": {"is_in:country": "Ethiopia", "is_in:country_code": "ET", "name": "Lagarba Fransisko Bete Kristiyan", "place": "locality", "source": "GeoDatabase"}}, {"type": "node", "id": 1173920955, "lat": 9.1861617, "lon": 40.7884516, "tags": {"name": "Hoosay", "place": "village"}}, {"type": "node", "id": 1924211173, "lat": 8.8420748, "lon": 40.6074692, "tags": {"place": "village"}}, {"type": "node", "id": 1924211180, "lat": 8.8736758, "lon": 40.6736069, "tags": {"place": "village"}}, {"type": "node", "id": 1924211725, "lat": 8.86916, "lon": 40.6614725, "tags": {"place": "village"}}, {"type": "node", "id": 1924229303, "lat": 8.9506511, "lon": 40.5558198, "tags": {"name": "Komona", "place": "town"}}, {"type": "node", "id": 1924229628, "lat": 8.8483961, "lon": 40.6233578, "tags": {"name": "Wachu", "place": "town"}}, {"type": "node", "id": 1925803540, "lat": 8.84295, "lon": 40.6703946, "tags": {"place": "village"}}, {"type": "node", "id": 1925803733, "lat": 8.8664055, "lon": 40.7009436, "tags": {"place": "village"}}, {"type": "node", "id": 1925803766, "lat": 8.8446568, "lon": 40.6947215, "tags": {"place": "village"}}, {"type": "node", "id": 1925804015, "lat": 8.8560159, "lon": 40.6731144, "tags": {"place": "village"}}, {"type": "node", "id": 1925906324, "lat": 9.0983411, "lon": 40.5550596, "tags": {"place": "village"}}, {"type": "node", "id": 1925906994, "lat": 9.1474667, "lon": 40.5470076, "tags": {"place": "village"}}, {"type": "node", "id": 1925979917, "lat": 9.0776472, "lon": 40.5869567, "tags": {"place": "village"}}, {"type": "node", "id": 1925979966, "lat": 9.0894474, "lon": 40.6084026, "tags": {"place": "village"}}, {"type": "node", "id": 1925980504, "lat": 9.1692387, "lon": 40.6418712, "tags": {"place": "village"}}, {"type": "node", "id": 1925980571, "lat": 9.1100468, "lon": 40.6108702, "tags": {"place": "village"}}, {"type": "node", "id": 1925981221, "lat": 9.2130378, "lon": 40.6503786, "tags": {"place": "village"}}, {"type": "node", "id": 1926074728, "lat": 8.9358798, "lon": 40.6724003, "tags": {"place": "village"}}, {"type": "node", "id": 1926074743, "lat": 9.123008, "lon": 40.6848297, "tags": {"place": "village"}}, {"type": "node", "id": 1926074843, "lat": 9.0909894, "lon": 40.696111, "tags": {"place": "village"}}, {"type": "node", "id": 1926074910, "lat": 9.2098393, "lon": 40.6984011, "tags": {"place": "village"}}, {"type": "node", "id": 1926075717, "lat": 9.1685502, "lon": 40.6877318, "tags": {"place": "village"}}, {"type": "node", "id": 1926075807, "lat": 8.9548145, "lon": 40.6025835, "tags": {"place": "village"}}, {"type": "node", "id": 1926076033, "lat": 9.098072, "lon": 40.6915025, "tags": {"place": "village"}}, {"type": "node", "id": 1926076277, "lat": 9.1914859, "lon": 40.7060079, "tags": {"name": "Fayu", "place": "village"}}, {"type": "node", "id": 1926076495, "lat": 8.9238451, "lon": 40.5883898, "tags": {"place": "village"}}, {"type": "node", "id": 1926076638, "lat": 9.1286854, "lon": 40.6855909, "tags": {"place": "village"}}, {"type": "node", "id": 1926076694, "lat": 8.9231456, "lon": 40.5775531, "tags": {"place": "village"}}, {"type": "node", "id": 1926077121, "lat": 9.1450617, "lon": 40.6185464, "tags": {"place": "village"}}, {"type": "node", "id": 1926077256, "lat": 9.0815815, "lon": 40.692077, "tags": {"place": "village"}}, {"type": "node", "id": 1926077299, "lat": 9.0589473, "lon": 40.7033093, "tags": {"name": "Bekka", "place": "village"}}, {"type": "node", "id": 1926077318, "lat": 9.1657487, "lon": 40.7060508, "tags": {"place": "village"}}, {"type": "node", "id": 1926077898, "lat": 8.9348679, "lon": 40.5747258, "tags": {"place": "village"}}, {"type": "node", "id": 1926078010, "lat": 9.1327003, "lon": 40.6195662, "tags": {"place": "village"}}, {"type": "node", "id": 1926078093, "lat": 9.1287489, "lon": 40.7060293, "tags": {"place": "village"}}, {"type": "node", "id": 1926109970, "lat": 9.0114721, "lon": 40.6219641, "tags": {"place": "village"}}, {"type": "node", "id": 1926110058, "lat": 9.0443354, "lon": 40.6121901, "tags": {"place": "village"}}, {"type": "node", "id": 1926110339, "lat": 9.0250459, "lon": 40.6164173, "tags": {"place": "village"}}, {"type": "node", "id": 2205838875, "lat": 8.9933146, "lon": 40.5401726, "tags": {"place": "hamlet"}}, {"type": "node", "id": 2205839172, "lat": 9.0134771, "lon": 40.5371843, "tags": {"place": "village"}}, {"type": "node", "id": 2205839370, "lat": 9.1089619, "lon": 40.5333201, "tags": {"place": "village"}}, {"type": "node", "id": 2205840204, "lat": 9.0645267, "lon": 40.5409662, "tags": {"place": "village"}}, {"type": "node", "id": 2205840713, "lat": 9.016603, "lon": 40.5368088, "tags": {"place": "village"}}, {"type": "node", "id": 3141896454, "lat": 8.9448921, "lon": 40.5393345, "tags": {"place": "village"}}, {"type": "node", "id": 3141896493, "lat": 8.9376427, "lon": 40.5368883, "tags": {"place": "village"}}, {"type": "node", "id": 3141896638, "lat": 8.8805396, "lon": 40.4716934, "tags": {"place": "village"}}, {"type": "node", "id": 3327143985, "lat": 9.0008465, "lon": 40.6687976, "tags": {"place": "hamlet"}}, {"type": "node", "id": 3327144910, "lat": 9.0699554, "lon": 40.6593455, "tags": {"place": "hamlet"}}, {"type": "node", "id": 3327144911, "lat": 9.0807616, "lon": 40.6676839, "tags": {"place": "hamlet"}}, {"type": "node", "id": 3327144912, "lat": 9.1154008, "lon": 40.6555373, "tags": {"place": "hamlet"}}, {"type": "node", "id": 3327144913, "lat": 9.1383939, "lon": 40.6320229, "tags": {"place": "hamlet"}}, {"type": "node", "id": 3327144914, "lat": 9.1418182, "lon": 40.6398375, "tags": {"place": "village"}}, {"type": "node", "id": 3327144915, "lat": 9.1727479, "lon": 40.6185881, "tags": {"place": "village"}}, {"type": "node", "id": 3327144916, "lat": 9.1852141, "lon": 40.6147941, "tags": {"place": "village"}}, {"type": "node", "id": 3327144917, "lat": 9.1463048, "lon": 40.5749145, "tags": {"place": "hamlet"}}, {"type": "node", "id": 3888977814, "lat": 9.1741583, "lon": 40.6660794, "tags": {"name": "Asebot", "place": "town"}}, {"type": "node", "id": 3936118783, "lat": 9.2247703, "lon": 40.7667627, "tags": {"name": "East Mieso", "place": "suburb"}}, {"type": "node", "id": 3936118824, "lat": 9.227223, "lon": 40.7341727, "tags": {"name": "West Mieso", "place": "suburb"}}, {"type": "node", "id": 9238775011, "lat": 8.9032186, "lon": 40.7764864, "tags": {"name": "Bedesa", "name:en": "Bedessa", "name:fr": "Bedessa", "place": "town", "wikidata": "Q2893571", "wikipedia": "en:Badessa, Oromia"}}]}