{"version": 0.6, "generator": "Overpass API 0.7.62.1 084b4234", "osm3s": {"timestamp_osm_base": "2024-09-30T22:18:58Z", "copyright": "The data included in this document is from www.openstreetmap.org. The data is made available under ODbL."}, "elements": [{"type": "node", "id": 458779112, "lat": 8.2827557, "lon": 39.8523071, "tags": {"name": "Moje", "place": "town", "source": "landsat"}}, {"type": "node", "id": 1150881025, "lat": 8.3, "lon": 39.78333, "tags": {"is_in:country": "Ethiopia", "is_in:country_code": "ET", "name": "Nonno", "place": "locality", "source": "GeoDatabase"}}, {"type": "node", "id": 1150881906, "lat": 8.01667, "lon": 39.73333, "tags": {"is_in:country": "Ethiopia", "is_in:country_code": "ET", "name": "Gimbicho Shet'", "place": "locality", "source": "GeoDatabase"}}, {"type": "node", "id": 1150882223, "lat": 8.35, "lon": 39.58333, "tags": {"is_in:country": "Ethiopia", "is_in:country_code": "ET", "name": "Bolo Shet'", "place": "locality", "source": "GeoDatabase"}}, {"type": "node", "id": 1150882771, "lat": 8.18333, "lon": 39.75, "tags": {"is_in:country": "Ethiopia", "is_in:country_code": "ET", "name": "Ashmira", "place": "locality", "source": "GeoDatabase"}}, {"type": "node", "id": 1150883016, "lat": 8.16667, "lon": 39.53333, "tags": {"is_in:country": "Ethiopia", "is_in:country_code": "ET", "name": "Benben K'Idame Gebeya", "place": "locality", "source": "GeoDatabase"}}, {"type": "node", "id": 1150883062, "lat": 8.15, "lon": 39.65, "tags": {"is_in:country": "Ethiopia", "is_in:country_code": "ET", "name": "Wetera", "place": "locality", "source": "GeoDatabase"}}, {"type": "node", "id": 1150886642, "lat": 8.25, "lon": 39.88333, "tags": {"is_in:country": "Ethiopia", "is_in:country_code": "ET", "name": "Waye", "place": "locality", "source": "GeoDatabase"}}, {"type": "node", "id": 1150886860, "lat": 8.05, "lon": 39.76667, "tags": {"is_in:country": "Ethiopia", "is_in:country_code": "ET", "name": "Kembolcha Shet'", "place": "locality", "source": "GeoDatabase"}}, {"type": "node", "id": 1150887330, "lat": 8.05, "lon": 39.5, "tags": {"is_in:country": "Ethiopia", "is_in:country_code": "ET", "name": "Bego", "place": "locality", "source": "GeoDatabase"}}, {"type": "node", "id": 1150887734, "lat": 8.16667, "lon": 39.85, "tags": {"is_in:country": "Ethiopia", "is_in:country_code": "ET", "name": "Gura Shet'", "place": "locality", "source": "GeoDatabase"}}, {"type": "node", "id": 1150887980, "lat": 8.41667, "lon": 39.75, "tags": {"is_in:country": "Ethiopia", "is_in:country_code": "ET", "name": "Werenso", "place": "locality", "source": "GeoDatabase"}}, {"type": "node", "id": 1150888017, "lat": 8.21667, "lon": 39.73333, "tags": {"is_in:country": "Ethiopia", "is_in:country_code": "ET", "name": "Kula Bota", "place": "locality", "source": "GeoDatabase"}}, {"type": "node", "id": 1150888843, "lat": 8.3823834, "lon": 39.6851958, "tags": {"name": "Arboye", "place": "town", "source": "GeoDatabase"}}, {"type": "node", "id": 1150891945, "lat": 8.01667, "lon": 39.83333, "tags": {"is_in:country": "Ethiopia", "is_in:country_code": "ET", "name": "Gersa Halila", "place": "locality", "source": "GeoDatabase"}}, {"type": "node", "id": 1150892864, "lat": 8.16667, "lon": 39.6, "tags": {"is_in:country": "Ethiopia", "is_in:country_code": "ET", "name": "Koshita", "place": "locality", "source": "GeoDatabase"}}, {"type": "node", "id": 1150894004, "lat": 8.25, "lon": 39.73333, "tags": {"is_in:country": "Ethiopia", "is_in:country_code": "ET", "name": "Het'O Ferda", "place": "locality", "source": "GeoDatabase"}}, {"type": "node", "id": 1150898179, "lat": 8.1379694, "lon": 39.9007971, "tags": {"name": "Chole", "place": "town", "source": "GeoDatabase"}}, {"type": "node", "id": 1150899139, "lat": 8.16667, "lon": 39.58333, "tags": {"is_in:country": "Ethiopia", "is_in:country_code": "ET", "name": "Gura Shet'", "place": "locality", "source": "GeoDatabase"}}, {"type": "node", "id": 1150899949, "lat": 8.01667, "lon": 39.8, "tags": {"is_in:country": "Ethiopia", "is_in:country_code": "ET", "name": "Molata", "place": "locality", "source": "GeoDatabase"}}, {"type": "node", "id": 1150903269, "lat": 8.03333, "lon": 39.51667, "tags": {"is_in:country": "Ethiopia", "is_in:country_code": "ET", "name": "Ciai", "place": "locality", "source": "GeoDatabase"}}, {"type": "node", "id": 1150905482, "lat": 8.28333, "lon": 39.81666, "tags": {"is_in:country": "Ethiopia", "is_in:country_code": "ET", "name": "Reribero", "place": "locality", "source": "GeoDatabase"}}, {"type": "node", "id": 1150906857, "lat": 8.2444288, "lon": 39.5804793, "tags": {"name": "Bolo", "place": "town"}}, {"type": "node", "id": 1150909641, "lat": 8.4, "lon": 39.58333, "tags": {"is_in:country": "Ethiopia", "is_in:country_code": "ET", "name": "Mindebera", "place": "locality", "source": "GeoDatabase"}}, {"type": "node", "id": 1150911127, "lat": 8.28333, "lon": 39.7, "tags": {"is_in:country": "Ethiopia", "is_in:country_code": "ET", "name": "K'Ersa", "place": "locality", "source": "GeoDatabase"}}, {"type": "node", "id": 1150911384, "lat": 8.05, "lon": 39.75, "tags": {"is_in:country": "Ethiopia", "is_in:country_code": "ET", "name": "Wereda Kula", "place": "locality", "source": "GeoDatabase"}}, {"type": "node", "id": 1150912410, "lat": 8.15, "lon": 39.51667, "tags": {"is_in:country": "Ethiopia", "is_in:country_code": "ET", "name": "Gura Shet'", "place": "locality", "source": "GeoDatabase"}}, {"type": "node", "id": 1150920853, "lat": 8.41667, "lon": 39.86667, "tags": {"is_in:country": "Ethiopia", "is_in:country_code": "ET", "name": "Aware Wenz", "place": "locality", "source": "GeoDatabase"}}, {"type": "node", "id": 1150921016, "lat": 8.33333, "lon": 39.51667, "tags": {"is_in:country": "Ethiopia", "is_in:country_code": "ET", "name": "Carri", "place": "locality", "source": "GeoDatabase"}}, {"type": "node", "id": 1150923046, "lat": 8.18333, "lon": 39.5, "tags": {"is_in:country": "Ethiopia", "is_in:country_code": "ET", "name": "Ghebran Marian", "place": "locality", "source": "GeoDatabase"}}, {"type": "node", "id": 1150924721, "lat": 8.3842983, "lon": 39.7286005, "tags": {"is_in:country": "Ethiopia", "is_in:country_code": "ET", "name": "Qarsa", "place": "locality", "source": "GeoDatabase"}}, {"type": "node", "id": 1150925642, "lat": 8.3, "lon": 39.65, "tags": {"is_in:country": "Ethiopia", "is_in:country_code": "ET", "name": "Fagogi", "place": "locality", "source": "GeoDatabase"}}, {"type": "node", "id": 1150930742, "lat": 8.43333, "lon": 39.88333, "tags": {"is_in:country": "Ethiopia", "is_in:country_code": "ET", "name": "Bila Wegara", "place": "locality", "source": "GeoDatabase"}}, {"type": "node", "id": 1150937237, "lat": 8.41667, "lon": 39.63333, "tags": {"is_in:country": "Ethiopia", "is_in:country_code": "ET", "name": "Jeju", "place": "locality", "source": "GeoDatabase"}}, {"type": "node", "id": 1150939302, "lat": 8.2, "lon": 39.81666, "tags": {"is_in:country": "Ethiopia", "is_in:country_code": "ET", "name": "Ch'Ire", "place": "locality", "source": "GeoDatabase"}}, {"type": "node", "id": 1150940905, "lat": 8.18333, "lon": 39.66667, "tags": {"is_in:country": "Ethiopia", "is_in:country_code": "ET", "name": "Uofaica", "place": "locality", "source": "GeoDatabase"}}, {"type": "node", "id": 1150945639, "lat": 8.31667, "lon": 39.78333, "tags": {"is_in:country": "Ethiopia", "is_in:country_code": "ET", "name": "Wesherbi Meda", "place": "locality", "source": "GeoDatabase"}}, {"type": "node", "id": 1150945821, "lat": 8.23333, "lon": 39.58333, "tags": {"is_in:country": "Ethiopia", "is_in:country_code": "ET", "name": "Wutabo Shet'", "place": "locality", "source": "GeoDatabase"}}, {"type": "node", "id": 1150948820, "lat": 8.18333, "lon": 39.68333, "tags": {"is_in:country": "Ethiopia", "is_in:country_code": "ET", "name": "Gusa", "place": "locality", "source": "GeoDatabase"}}, {"type": "node", "id": 1150949999, "lat": 8.28333, "lon": 39.55, "tags": {"is_in:country": "Ethiopia", "is_in:country_code": "ET", "name": "Birbirsa", "place": "locality", "source": "GeoDatabase"}}, {"type": "node", "id": 1150952836, "lat": 8.3, "lon": 39.85, "tags": {"is_in:country": "Ethiopia", "is_in:country_code": "ET", "name": "Nano Shet'", "place": "locality", "source": "GeoDatabase"}}, {"type": "node", "id": 1150953597, "lat": 8.08333, "lon": 39.85, "tags": {"is_in:country": "Ethiopia", "is_in:country_code": "ET", "name": "Mamense Shet'", "place": "locality", "source": "GeoDatabase"}}, {"type": "node", "id": 1150953909, "lat": 8.05, "lon": 39.61667, "tags": {"is_in:country": "Ethiopia", "is_in:country_code": "ET", "name": "Aba Genda", "place": "locality", "source": "GeoDatabase"}}, {"type": "node", "id": 1150955928, "lat": 8.25, "lon": 39.53333, "tags": {"is_in:country": "Ethiopia", "is_in:country_code": "ET", "name": "Borora", "place": "locality", "source": "GeoDatabase"}}, {"type": "node", "id": 1150957755, "lat": 8.3662942, "lon": 39.7619096, "tags": {"is_in:country": "Ethiopia", "is_in:country_code": "ET", "name": "Ferekesa", "place": "village"}}, {"type": "node", "id": 1150958135, "lat": 8.15, "lon": 39.56666, "tags": {"is_in:country": "Ethiopia", "is_in:country_code": "ET", "name": "Amut'A Terara", "place": "locality", "source": "GeoDatabase"}}, {"type": "node", "id": 1150961125, "lat": 8.31667, "lon": 39.56666, "tags": {"is_in:country": "Ethiopia", "is_in:country_code": "ET", "name": "Koleba Maryam Bete Kristiyan", "place": "locality", "source": "GeoDatabase"}}, {"type": "node", "id": 1150962973, "lat": 8.26667, "lon": 39.88333, "tags": {"is_in:country": "Ethiopia", "is_in:country_code": "ET", "name": "Guna", "place": "locality", "source": "GeoDatabase"}}, {"type": "node", "id": 1150963375, "lat": 8.03333, "lon": 39.78333, "tags": {"is_in:country": "Ethiopia", "is_in:country_code": "ET", "name": "Hochecto", "place": "locality", "source": "GeoDatabase"}}, {"type": "node", "id": 1150967492, "lat": 8.15, "lon": 39.6, "tags": {"is_in:country": "Ethiopia", "is_in:country_code": "ET", "name": "Guracha Shet'", "place": "locality", "source": "GeoDatabase"}}, {"type": "node", "id": 1150968226, "lat": 8.15, "lon": 39.88333, "tags": {"is_in:country": "Ethiopia", "is_in:country_code": "ET", "name": "Akiya Gebri'El Bete Kristiyan", "place": "locality", "source": "GeoDatabase"}}, {"type": "node", "id": 1150969416, "lat": 8.08333, "lon": 39.53333, "tags": {"is_in:country": "Ethiopia", "is_in:country_code": "ET", "name": "Benben", "place": "locality", "source": "GeoDatabase"}}, {"type": "node", "id": 1150980096, "lat": 8.4, "lon": 39.71667, "tags": {"is_in:country": "Ethiopia", "is_in:country_code": "ET", "name": "Giyorgis Bete Kristiyan", "place": "locality", "source": "GeoDatabase"}}, {"type": "node", "id": 1150980166, "lat": 8.03333, "lon": 39.7, "tags": {"is_in:country": "Ethiopia", "is_in:country_code": "ET", "name": "Dereba", "place": "locality", "source": "GeoDatabase"}}, {"type": "node", "id": 1150981077, "lat": 8.28333, "lon": 39.63333, "tags": {"is_in:country": "Ethiopia", "is_in:country_code": "ET", "name": "K'Oshim", "place": "locality", "source": "GeoDatabase"}}, {"type": "node", "id": 1908173413, "lat": 8.3742184, "lon": 39.9062039, "tags": {"name": "Abba Jimma", "place": "town"}}, {"type": "node", "id": 1908365280, "lat": 8.0571885, "lon": 39.5577291, "tags": {"name": "Deksis", "place": "town"}}, {"type": "node", "id": 1908437118, "lat": 8.3841355, "lon": 39.8176172, "tags": {"name": "Angada", "place": "village"}}, {"type": "node", "id": 1908956864, "lat": 8.0469291, "lon": 39.6937653, "tags": {"place": "village"}}, {"type": "node", "id": 1908999467, "lat": 8.2490388, "lon": 39.8921496, "tags": {"name": "Chole", "place": "town"}}, {"type": "node", "id": 1927387985, "lat": 8.2898124, "lon": 39.5163597, "tags": {"place": "village"}}, {"type": "node", "id": 1927388075, "lat": 8.3080945, "lon": 39.5448453, "tags": {"place": "village"}}, {"type": "node", "id": 1927389320, "lat": 8.3308768, "lon": 39.5488895, "tags": {"place": "village"}}, {"type": "node", "id": 10142371735, "lat": 8.0212634, "lon": 39.8627081, "tags": {"place": "village"}}, {"type": "node", "id": 10152628982, "lat": 8.1093437, "lon": 39.7776605, "tags": {"place": "village"}}, {"type": "node", "id": 10155595618, "lat": 8.1842549, "lon": 39.7298463, "tags": {"place": "village"}}]}