{"version": 0.6, "generator": "Overpass API 0.7.62.1 084b4234", "osm3s": {"timestamp_osm_base": "2024-09-30T22:11:39Z", "copyright": "The data included in this document is from www.openstreetmap.org. The data is made available under ODbL."}, "elements": [{"type": "node", "id": 1150881312, "lat": 10.43333, "lon": 39.46667, "tags": {"is_in:country": "Ethiopia", "is_in:country_code": "ET", "name": "Caiafer", "place": "locality", "source": "GeoDatabase"}}, {"type": "node", "id": 1150881786, "lat": 10.48333, "lon": 39.48333, "tags": {"is_in:country": "Ethiopia", "is_in:country_code": "ET", "name": "Aloba Hayk'", "place": "locality", "source": "GeoDatabase"}}, {"type": "node", "id": 1150883054, "lat": 10.53333, "lon": 39.51667, "tags": {"is_in:country": "Ethiopia", "is_in:country_code": "ET", "name": "Feses Bet", "place": "locality", "source": "GeoDatabase"}}, {"type": "node", "id": 1150883622, "lat": 10.7, "lon": 39.71667, "tags": {"is_in:country": "Ethiopia", "is_in:country_code": "ET", "name": "K'It'R", "place": "locality", "source": "GeoDatabase"}}, {"type": "node", "id": 1150883867, "lat": 10.71667, "lon": 39.4, "tags": {"is_in:country": "Ethiopia", "is_in:country_code": "ET", "name": "Idda", "place": "locality", "source": "GeoDatabase"}}, {"type": "node", "id": 1150884273, "lat": 10.61667, "lon": 39.6, "tags": {"is_in:country": "Ethiopia", "is_in:country_code": "ET", "name": "Legagora", "place": "locality", "source": "GeoDatabase"}}, {"type": "node", "id": 1150885372, "lat": 10.63333, "lon": 39.43333, "tags": {"is_in:country": "Ethiopia", "is_in:country_code": "ET", "name": "Neder", "place": "locality", "source": "GeoDatabase"}}, {"type": "node", "id": 1150885413, "lat": 10.58333, "lon": 39.63333, "tags": {"is_in:country": "Ethiopia", "is_in:country_code": "ET", "name": "Serja", "place": "locality", "source": "GeoDatabase"}}, {"type": "node", "id": 1150886668, "lat": 10.35, "lon": 39.65, "tags": {"is_in:country": "Ethiopia", "is_in:country_code": "ET", "name": "Sar Midir", "place": "locality", "source": "GeoDatabase"}}, {"type": "node", "id": 1150887836, "lat": 10.66667, "lon": 39.48333, "tags": {"is_in:country": "Ethiopia", "is_in:country_code": "ET", "name": "Araccia", "place": "locality", "source": "GeoDatabase"}}, {"type": "node", "id": 1150887887, "lat": 10.55, "lon": 39.4, "tags": {"is_in:country": "Ethiopia", "is_in:country_code": "ET", "name": "Meni", "place": "locality", "source": "GeoDatabase"}}, {"type": "node", "id": 1150887936, "lat": 10.55, "lon": 39.6, "tags": {"is_in:country": "Ethiopia", "is_in:country_code": "ET", "name": "Rabel", "place": "locality", "source": "GeoDatabase"}}, {"type": "node", "id": 1150888030, "lat": 10.51667, "lon": 39.56666, "tags": {"is_in:country": "Ethiopia", "is_in:country_code": "ET", "name": "Zoga Amba", "place": "locality", "source": "GeoDatabase"}}, {"type": "node", "id": 1150888695, "lat": 10.35, "lon": 39.73333, "tags": {"is_in:country": "Ethiopia", "is_in:country_code": "ET", "name": "Kadambo", "place": "locality", "source": "GeoDatabase"}}, {"type": "node", "id": 1150888784, "lat": 10.61667, "lon": 39.41667, "tags": {"is_in:country": "Ethiopia", "is_in:country_code": "ET", "name": "Keuem", "place": "locality", "source": "GeoDatabase"}}, {"type": "node", "id": 1150888865, "lat": 10.41667, "lon": 39.66667, "tags": {"is_in:country": "Ethiopia", "is_in:country_code": "ET", "name": "Ank'Elafit", "place": "locality", "source": "GeoDatabase"}}, {"type": "node", "id": 1150891245, "lat": 10.61667, "lon": 39.45, "tags": {"is_in:country": "Ethiopia", "is_in:country_code": "ET", "name": "Haro", "place": "locality", "source": "GeoDatabase"}}, {"type": "node", "id": 1150891358, "lat": 10.7, "lon": 39.56666, "tags": {"is_in:country": "Ethiopia", "is_in:country_code": "ET", "name": "Adama", "place": "locality", "source": "GeoDatabase"}}, {"type": "node", "id": 1150892803, "lat": 10.38333, "lon": 39.63333, "tags": {"is_in:country": "Ethiopia", "is_in:country_code": "ET", "name": "Adis Dembel Bota", "place": "locality", "source": "GeoDatabase"}}, {"type": "node", "id": 1150893030, "lat": 10.45, "lon": 39.41667, "tags": {"is_in:country": "Ethiopia", "is_in:country_code": "ET", "name": "Boren", "place": "locality", "source": "GeoDatabase"}}, {"type": "node", "id": 1150893798, "lat": 10.46667, "lon": 39.5, "tags": {"is_in:country": "Ethiopia", "is_in:country_code": "ET", "name": "Dayer Maryam Bete Kristiyan", "place": "locality", "source": "GeoDatabase"}}, {"type": "node", "id": 1150894027, "lat": 10.45, "lon": 39.55, "tags": {"is_in:country": "Ethiopia", "is_in:country_code": "ET", "name": "Seya", "place": "locality", "source": "GeoDatabase"}}, {"type": "node", "id": 1150896949, "lat": 10.53333, "lon": 39.43333, "tags": {"is_in:country": "Ethiopia", "is_in:country_code": "ET", "name": "Gebeya Dar", "place": "locality", "source": "GeoDatabase"}}, {"type": "node", "id": 1150899857, "lat": 10.38333, "lon": 39.5, "tags": {"is_in:country": "Ethiopia", "is_in:country_code": "ET", "name": "K'Want'Any", "place": "locality", "source": "GeoDatabase"}}, {"type": "node", "id": 1150902332, "lat": 10.56667, "lon": 39.5, "tags": {"is_in:country": "Ethiopia", "is_in:country_code": "ET", "name": "Aba Wani", "place": "locality", "source": "GeoDatabase"}}, {"type": "node", "id": 1150904052, "lat": 10.73333, "lon": 39.4, "tags": {"is_in:country": "Ethiopia", "is_in:country_code": "ET", "name": "Imiye", "place": "locality", "source": "GeoDatabase"}}, {"type": "node", "id": 1150907276, "lat": 10.38333, "lon": 39.45, "tags": {"is_in:country": "Ethiopia", "is_in:country_code": "ET", "name": "Dench'Ute Yohanis Bete Kristiyan", "place": "locality", "source": "GeoDatabase"}}, {"type": "node", "id": 1150907769, "lat": 10.65, "lon": 39.43333, "tags": {"is_in:country": "Ethiopia", "is_in:country_code": "ET", "name": "Neded", "place": "locality", "source": "GeoDatabase"}}, {"type": "node", "id": 1150907843, "lat": 10.61667, "lon": 39.66667, "tags": {"is_in:country": "Ethiopia", "is_in:country_code": "ET", "name": "Beret Wenz", "place": "locality", "source": "GeoDatabase"}}, {"type": "node", "id": 1150911129, "lat": 10.36667, "lon": 39.66667, "tags": {"is_in:country": "Ethiopia", "is_in:country_code": "ET", "name": "Sama", "place": "locality", "source": "GeoDatabase"}}, {"type": "node", "id": 1150913146, "lat": 10.66667, "lon": 39.5, "tags": {"is_in:country": "Ethiopia", "is_in:country_code": "ET", "name": "Were Ilu Awraja", "place": "locality", "source": "GeoDatabase"}}, {"type": "node", "id": 1150913531, "lat": 10.53333, "lon": 39.41667, "tags": {"is_in:country": "Ethiopia", "is_in:country_code": "ET", "name": "K'Ermune", "place": "locality", "source": "GeoDatabase"}}, {"type": "node", "id": 1150914126, "lat": 10.53333, "lon": 39.61667, "tags": {"is_in:country": "Ethiopia", "is_in:country_code": "ET", "name": "Dasa", "place": "locality", "source": "GeoDatabase"}}, {"type": "node", "id": 1150914893, "lat": 10.61667, "lon": 39.55, "tags": {"is_in:country": "Ethiopia", "is_in:country_code": "ET", "name": "Del Mika'El", "place": "locality", "source": "GeoDatabase"}}, {"type": "node", "id": 1150916573, "lat": 10.5922382, "lon": 39.4362912, "tags": {"alt_name": "Warra Hailu", "is_in:country": "Ethiopia", "is_in:country_code": "ET", "name": "Were Ilu", "place": "village", "source": "GeoDatabase"}}, {"type": "node", "id": 1150916674, "lat": 10.45, "lon": 39.7, "tags": {"is_in:country": "Ethiopia", "is_in:country_code": "ET", "name": "Rabel", "place": "locality", "source": "GeoDatabase"}}, {"type": "node", "id": 1150917964, "lat": 10.56667, "lon": 39.71667, "tags": {"is_in:country": "Ethiopia", "is_in:country_code": "ET", "name": "Gich'Uma", "place": "locality", "source": "GeoDatabase"}}, {"type": "node", "id": 1150920785, "lat": 10.58333, "lon": 39.46667, "tags": {"is_in:country": "Ethiopia", "is_in:country_code": "ET", "name": "Kore", "place": "locality", "source": "GeoDatabase"}}, {"type": "node", "id": 1150921013, "lat": 10.53333, "lon": 39.5, "tags": {"is_in:country": "Ethiopia", "is_in:country_code": "ET", "name": "Kascheni", "place": "locality", "source": "GeoDatabase"}}, {"type": "node", "id": 1150921061, "lat": 10.73333, "lon": 39.56666, "tags": {"is_in:country": "Ethiopia", "is_in:country_code": "ET", "name": "Negesa", "place": "locality", "source": "GeoDatabase"}}, {"type": "node", "id": 1150923679, "lat": 10.45, "lon": 39.43333, "tags": {"is_in:country": "Ethiopia", "is_in:country_code": "ET", "name": "K'Ew", "place": "locality", "source": "GeoDatabase"}}, {"type": "node", "id": 1150924499, "lat": 10.5, "lon": 39.58333, "tags": {"is_in:country": "Ethiopia", "is_in:country_code": "ET", "name": "Darat", "place": "locality", "source": "GeoDatabase"}}, {"type": "node", "id": 1150924615, "lat": 10.5, "lon": 39.45, "tags": {"is_in:country": "Ethiopia", "is_in:country_code": "ET", "name": "Mesno Amba", "place": "locality", "source": "GeoDatabase"}}, {"type": "node", "id": 1150924834, "lat": 10.36667, "lon": 39.61667, "tags": {"is_in:country": "Ethiopia", "is_in:country_code": "ET", "name": "Curie", "place": "locality", "source": "GeoDatabase"}}, {"type": "node", "id": 1150925484, "lat": 10.53333, "lon": 39.7, "tags": {"is_in:country": "Ethiopia", "is_in:country_code": "ET", "name": "Weyit", "place": "locality", "source": "GeoDatabase"}}, {"type": "node", "id": 1150925607, "lat": 10.53333, "lon": 39.45, "tags": {"is_in:country": "Ethiopia", "is_in:country_code": "ET", "name": "Dayer", "place": "locality", "source": "GeoDatabase"}}, {"type": "node", "id": 1150935158, "lat": 10.68333, "lon": 39.71667, "tags": {"is_in:country": "Ethiopia", "is_in:country_code": "ET", "name": "Koso", "place": "locality", "source": "GeoDatabase"}}, {"type": "node", "id": 1150936183, "lat": 10.35, "lon": 39.51667, "tags": {"is_in:country": "Ethiopia", "is_in:country_code": "ET", "name": "Zinz", "place": "locality", "source": "GeoDatabase"}}, {"type": "node", "id": 1150936377, "lat": 10.36667, "lon": 39.55, "tags": {"is_in:country": "Ethiopia", "is_in:country_code": "ET", "name": "T'Et'Er Amba", "place": "locality", "source": "GeoDatabase"}}, {"type": "node", "id": 1150946215, "lat": 10.45, "lon": 39.45, "tags": {"is_in:country": "Ethiopia", "is_in:country_code": "ET", "name": "Genete", "place": "locality", "source": "GeoDatabase"}}, {"type": "node", "id": 1150946827, "lat": 10.6, "lon": 39.45, "tags": {"is_in:country": "Ethiopia", "is_in:country_code": "ET", "name": "Yaia", "place": "locality", "source": "GeoDatabase"}}, {"type": "node", "id": 1150953065, "lat": 10.45, "lon": 39.63333, "tags": {"is_in:country": "Ethiopia", "is_in:country_code": "ET", "name": "Shinsha", "place": "locality", "source": "GeoDatabase"}}, {"type": "node", "id": 1150956769, "lat": 10.68333, "lon": 39.41667, "tags": {"is_in:country": "Ethiopia", "is_in:country_code": "ET", "name": "K'Ut'Aye", "place": "locality", "source": "GeoDatabase"}}, {"type": "node", "id": 1150957268, "lat": 10.5, "lon": 39.43333, "tags": {"is_in:country": "Ethiopia", "is_in:country_code": "ET", "name": "K'Ech'Ema", "place": "locality", "source": "GeoDatabase"}}, {"type": "node", "id": 1150957597, "lat": 10.6, "lon": 39.6, "tags": {"is_in:country": "Ethiopia", "is_in:country_code": "ET", "name": "Yesha", "place": "locality", "source": "GeoDatabase"}}, {"type": "node", "id": 1150958779, "lat": 10.66667, "lon": 39.41667, "tags": {"is_in:country": "Ethiopia", "is_in:country_code": "ET", "name": "Harewo", "place": "locality", "source": "GeoDatabase"}}, {"type": "node", "id": 1150958917, "lat": 10.51667, "lon": 39.66667, "tags": {"is_in:country": "Ethiopia", "is_in:country_code": "ET", "name": "Ayzosh Amora", "place": "locality", "source": "GeoDatabase"}}, {"type": "node", "id": 1150960060, "lat": 10.61667, "lon": 39.71667, "tags": {"is_in:country": "Ethiopia", "is_in:country_code": "ET", "name": "Hamus Gebeya", "place": "locality", "source": "GeoDatabase"}}, {"type": "node", "id": 1150963112, "lat": 10.4, "lon": 39.63333, "tags": {"is_in:country": "Ethiopia", "is_in:country_code": "ET", "name": "Segalat'", "place": "locality", "source": "GeoDatabase"}}, {"type": "node", "id": 1150968333, "lat": 10.6, "lon": 39.48333, "tags": {"is_in:country": "Ethiopia", "is_in:country_code": "ET", "name": "Hareno", "place": "locality", "source": "GeoDatabase"}}, {"type": "node", "id": 1150968624, "lat": 10.5, "lon": 39.41667, "tags": {"is_in:country": "Ethiopia", "is_in:country_code": "ET", "name": "Gimbi", "place": "locality", "source": "GeoDatabase"}}, {"type": "node", "id": 1150968816, "lat": 10.55, "lon": 39.58333, "tags": {"is_in:country": "Ethiopia", "is_in:country_code": "ET", "name": "Darat Abo Bete Kristiyan", "place": "locality", "source": "GeoDatabase"}}, {"type": "node", "id": 1150969238, "lat": 10.5, "lon": 39.53333, "tags": {"is_in:country": "Ethiopia", "is_in:country_code": "ET", "name": "Wembeda", "place": "locality", "source": "GeoDatabase"}}, {"type": "node", "id": 1150969848, "lat": 10.36667, "lon": 39.71667, "tags": {"is_in:country": "Ethiopia", "is_in:country_code": "ET", "name": "Arek'It", "place": "locality", "source": "GeoDatabase"}}, {"type": "node", "id": 1150969922, "lat": 10.58333, "lon": 39.4, "tags": {"is_in:country": "Ethiopia", "is_in:country_code": "ET", "name": "Mesno Amba", "place": "locality", "source": "GeoDatabase"}}, {"type": "node", "id": 1150971203, "lat": 10.4, "lon": 39.73333, "tags": {"is_in:country": "Ethiopia", "is_in:country_code": "ET", "name": "Melch'Et", "place": "locality", "source": "GeoDatabase"}}, {"type": "node", "id": 1150978774, "lat": 10.43333, "lon": 39.4, "tags": {"is_in:country": "Ethiopia", "is_in:country_code": "ET", "name": "Adama", "place": "locality", "source": "GeoDatabase"}}, {"type": "node", "id": 1150979940, "lat": 10.38333, "lon": 39.51667, "tags": {"is_in:country": "Ethiopia", "is_in:country_code": "ET", "name": "Amerguya", "place": "locality", "source": "GeoDatabase"}}, {"type": "node", "id": 1150980186, "lat": 10.41667, "lon": 39.53333, "tags": {"is_in:country": "Ethiopia", "is_in:country_code": "ET", "name": "Gedoye", "place": "locality", "source": "GeoDatabase"}}, {"type": "node", "id": 3320675142, "lat": 10.7238388, "lon": 39.4247414, "tags": {"name": "Imiye", "place": "town"}}, {"type": "node", "id": 11565266622, "lat": 10.642561, "lon": 39.7221054, "tags": {"place": "village"}}]}