{"version": 0.6, "generator": "Overpass API 0.7.62.1 084b4234", "osm3s": {"timestamp_osm_base": "2024-09-30T21:58:22Z", "copyright": "The data included in this document is from www.openstreetmap.org. The data is made available under ODbL."}, "elements": [{"type": "node", "id": 1150881736, "lat": 13.22047, "lon": 41.62059, "tags": {"is_in:country_code": "ET", "is_in:county": "Ethiopia", "name": "Daiburu", "place": "locality", "source": "GeoDatabase"}}, {"type": "node", "id": 1150883214, "lat": 13.31744, "lon": 41.56222, "tags": {"is_in:country_code": "ET", "is_in:county": "Ethiopia", "name": "Sakakto Yedur Bota", "place": "locality", "source": "GeoDatabase"}}, {"type": "node", "id": 1150887944, "lat": 13.25481, "lon": 41.62011, "tags": {"name": "Sarkali", "place": "locality"}}, {"type": "node", "id": 1150894692, "lat": 13.28333, "lon": 41.5, "tags": {"is_in:country_code": "ET", "is_in:county": "Ethiopia", "name": "Biru", "place": "locality", "source": "GeoDatabase"}}, {"type": "node", "id": 1150933195, "lat": 13.28358, "lon": 41.64839, "tags": {"is_in:country_code": "ET", "is_in:county": "Ethiopia", "name": "Aruku", "place": "locality", "source": "GeoDatabase"}}, {"type": "node", "id": 1150937480, "lat": 13.30219, "lon": 41.67604, "tags": {"is_in:country_code": "ET", "is_in:county": "Ethiopia", "name": "Sorcale", "place": "locality", "source": "GeoDatabase"}}, {"type": "node", "id": 1150938494, "lat": 13.27217, "lon": 41.65154, "tags": {"is_in:country_code": "ET", "is_in:county": "Ethiopia", "name": "Dara", "place": "locality", "source": "GeoDatabase"}}, {"type": "node", "id": 1150949349, "lat": 13.33984, "lon": 41.47497, "tags": {"is_in:country_code": "ET", "is_in:county": "Ethiopia", "name": "Pozzo Sireru", "place": "locality", "source": "GeoDatabase"}}, {"type": "node", "id": 1150969824, "lat": 13.21667, "lon": 41.51667, "tags": {"is_in:country_code": "ET", "is_in:county": "Ethiopia", "name": "Ghiriffo", "place": "locality"}}, {"type": "node", "id": 1150976581, "lat": 13.30017, "lon": 41.53763, "tags": {"is_in:country_code": "ET", "is_in:county": "Ethiopia", "name": "Sorgaale", "place": "locality", "source": "GeoDatabase"}}, {"type": "node", "id": 1150979657, "lat": 13.18272, "lon": 41.73043, "tags": {"is_in:country_code": "ET", "is_in:county": "Ethiopia", "name": "Asdaga", "place": "locality", "source": "GeoDatabase"}}, {"type": "node", "id": 9269523137, "lat": 13.1810936, "lon": 41.5407336, "tags": {"place": "hamlet"}}, {"type": "node", "id": 9269523144, "lat": 13.1720314, "lon": 41.5264428, "tags": {"name": "Duwa", "place": "hamlet"}}, {"type": "node", "id": 9269601575, "lat": 13.1674558, "lon": 41.4752501, "tags": {"place": "hamlet"}}, {"type": "node", "id": 9269704526, "lat": 13.1652776, "lon": 41.5028769, "tags": {"place": "hamlet"}}]}