{"version": 0.6, "generator": "Overpass API 0.7.62.1 084b4234", "osm3s": {"timestamp_osm_base": "2024-09-30T22:11:39Z", "copyright": "The data included in this document is from www.openstreetmap.org. The data is made available under ODbL."}, "elements": [{"type": "node", "id": 1150698189, "lat": 8.88333, "lon": 39.65, "tags": {"is_in:country": "Ethiopia", "name": "Kuyu Terara", "place": "locality", "source": "GeoDatabase"}}, {"type": "node", "id": 1150883441, "lat": 9.05, "lon": 39.55, "tags": {"is_in:country": "Ethiopia", "name": "Barya Motebet Shet'", "place": "locality", "source": "GeoDatabase"}}, {"type": "node", "id": 1150884054, "lat": 9.06667, "lon": 39.61667, "tags": {"is_in:country": "Ethiopia", "name": "Ch'Aba", "place": "locality", "source": "GeoDatabase"}}, {"type": "node", "id": 1150885645, "lat": 8.95, "lon": 39.4, "tags": {"is_in:country": "Ethiopia", "is_in:country_code": "ET", "name": "Gerbadi Shet'", "place": "locality", "source": "GeoDatabase"}}, {"type": "node", "id": 1150886141, "lat": 8.93333, "lon": 39.65, "tags": {"is_in:country": "Ethiopia", "name": "Melka Jilo Shet'", "place": "locality", "source": "GeoDatabase"}}, {"type": "node", "id": 1150886483, "lat": 8.91667, "lon": 39.58333, "tags": {"is_in:country": "Ethiopia", "name": "Godoburka", "place": "locality", "source": "GeoDatabase"}}, {"type": "node", "id": 1150887503, "lat": 8.78333, "lon": 39.46667, "tags": {"is_in:country": "Ethiopia", "name": "Gudedo", "place": "locality", "source": "GeoDatabase"}}, {"type": "node", "id": 1150887877, "lat": 9.01667, "lon": 39.58333, "tags": {"is_in:country": "Ethiopia", "name": "Akarmit", "place": "locality", "source": "GeoDatabase"}}, {"type": "node", "id": 1150889460, "lat": 8.88333, "lon": 39.48333, "tags": {"is_in:country": "Ethiopia", "name": "Gala K'Olk'Ol", "place": "locality", "source": "GeoDatabase"}}, {"type": "node", "id": 1150890867, "lat": 8.83333, "lon": 39.53333, "tags": {"is_in:country": "Ethiopia", "name": "Gala Terara", "place": "locality", "source": "GeoDatabase"}}, {"type": "node", "id": 1150892231, "lat": 8.86667, "lon": 39.4, "tags": {"is_in:country": "Ethiopia", "is_in:country_code": "ET", "name": "Balch' (2)", "place": "locality", "source": "GeoDatabase"}}, {"type": "node", "id": 1150892739, "lat": 9.08333, "lon": 39.5, "tags": {"is_in:country": "Ethiopia", "name": "Git'O", "place": "locality", "source": "GeoDatabase"}}, {"type": "node", "id": 1150896931, "lat": 8.8925486, "lon": 39.6210518, "tags": {"is_in:country": "Ethiopia", "name": "Malka Jillo", "place": "village", "source": "GeoDatabase"}}, {"type": "node", "id": 1150897766, "lat": 9.05, "lon": 39.43333, "tags": {"is_in:country": "Ethiopia", "is_in:country_code": "ET", "name": "Monte Guga", "place": "locality", "source": "GeoDatabase"}}, {"type": "node", "id": 1150898021, "lat": 9.06667, "lon": 39.7, "tags": {"is_in:country": "Ethiopia", "name": "Guroch", "place": "locality", "source": "GeoDatabase"}}, {"type": "node", "id": 1150898348, "lat": 8.95, "lon": 39.46667, "tags": {"is_in:country": "Ethiopia", "name": "Indod", "place": "locality", "source": "GeoDatabase"}}, {"type": "node", "id": 1150898552, "lat": 8.76667, "lon": 39.71667, "tags": {"is_in:country": "Ethiopia", "name": "Borshota", "place": "locality", "source": "GeoDatabase"}}, {"type": "node", "id": 1150902510, "lat": 9.01667, "lon": 39.65, "tags": {"is_in:country": "Ethiopia", "name": "Wirjine", "place": "locality", "source": "GeoDatabase"}}, {"type": "node", "id": 1150903238, "lat": 9.06667, "lon": 39.55, "tags": {"is_in:country": "Ethiopia", "name": "Mieti", "place": "locality", "source": "GeoDatabase"}}, {"type": "node", "id": 1150904315, "lat": 8.95, "lon": 39.63333, "tags": {"is_in:country": "Ethiopia", "name": "Ahimed Ager", "place": "locality", "source": "GeoDatabase"}}, {"type": "node", "id": 1150912874, "lat": 8.73333, "lon": 39.55, "tags": {"is_in:country": "Ethiopia", "is_in:country_code": "ET", "name": "Harbona", "place": "locality", "source": "GeoDatabase"}}, {"type": "node", "id": 1150913411, "lat": 9.03333, "lon": 39.58333, "tags": {"is_in:country": "Ethiopia", "name": "K'Wa Shet'", "place": "locality", "source": "GeoDatabase"}}, {"type": "node", "id": 1150915575, "lat": 8.76667, "lon": 39.4, "tags": {"is_in:country": "Ethiopia", "is_in:country_code": "ET", "name": "Aba Bora Ager", "place": "locality", "source": "GeoDatabase"}}, {"type": "node", "id": 1150917604, "lat": 8.96667, "lon": 39.38333, "tags": {"is_in:country": "Ethiopia", "is_in:country_code": "ET", "name": "Jima Gebri'El Bete Kristiyan", "place": "locality", "source": "GeoDatabase"}}, {"type": "node", "id": 1150918087, "lat": 8.86667, "lon": 39.51667, "tags": {"is_in:country": "Ethiopia", "name": "Dembi", "place": "locality", "source": "GeoDatabase"}}, {"type": "node", "id": 1150918315, "lat": 8.7215712, "lon": 39.463516, "tags": {"is_in:country": "Ethiopia", "is_in:country_code": "ET", "name": "Wegere", "place": "locality", "source": "GeoDatabase"}}, {"type": "node", "id": 1150919081, "lat": 8.86667, "lon": 39.66667, "tags": {"is_in:country": "Ethiopia", "name": "Gammi", "place": "locality", "source": "GeoDatabase"}}, {"type": "node", "id": 1150920420, "lat": 8.88333, "lon": 39.56666, "tags": {"is_in:country": "Ethiopia", "name": "Kuneti", "place": "locality", "source": "GeoDatabase"}}, {"type": "node", "id": 1150922332, "lat": 8.88333, "lon": 39.41667, "tags": {"is_in:country": "Ethiopia", "is_in:country_code": "ET", "name": "Wegidi (2)", "place": "locality", "source": "GeoDatabase"}}, {"type": "node", "id": 1150924236, "lat": 8.878224, "lon": 39.3966424, "tags": {"name": "\u1266\u120e \u1232\u120b\u1234 / Bollo Selassie", "name:am": "\u1266\u120e \u1232\u120b\u1234", "name:en": "Bollo Silassie", "name:fr": "Bollo Silassie", "place": "town", "source": "GeoDatabase"}}, {"type": "node", "id": 1150926839, "lat": 8.91667, "lon": 39.41667, "tags": {"is_in:country": "Ethiopia", "is_in:country_code": "ET", "name": "Mingiar", "place": "locality", "source": "GeoDatabase"}}, {"type": "node", "id": 1150927795, "lat": 8.83333, "lon": 39.65, "tags": {"is_in:country": "Ethiopia", "name": "Kora", "place": "locality", "source": "GeoDatabase"}}, {"type": "node", "id": 1150929300, "lat": 9.08333, "lon": 39.66667, "tags": {"is_in:country": "Ethiopia", "name": "Met'I Shet'", "place": "locality", "source": "GeoDatabase"}}, {"type": "node", "id": 1150930951, "lat": 9.0, "lon": 39.5, "tags": {"is_in:country": "Ethiopia", "name": "Say Ager", "place": "locality", "source": "GeoDatabase"}}, {"type": "node", "id": 1150934764, "lat": 9.08333, "lon": 39.45, "tags": {"is_in:country": "Ethiopia", "is_in:country_code": "ET", "name": "Selelo Mika'El Bete Kristiyan", "place": "locality", "source": "GeoDatabase"}}, {"type": "node", "id": 1150941247, "lat": 9.0, "lon": 39.41667, "tags": {"is_in:country": "Ethiopia", "is_in:country_code": "ET", "name": "K'Utere Shet'", "place": "locality", "source": "GeoDatabase"}}, {"type": "node", "id": 1150941620, "lat": 8.96667, "lon": 39.7, "tags": {"is_in:country": "Ethiopia", "name": "K'Urk'Ura Shet'", "place": "locality", "source": "GeoDatabase"}}, {"type": "node", "id": 1150943108, "lat": 9.08333, "lon": 39.53333, "tags": {"is_in:country": "Ethiopia", "name": "Doro Wiha Shet'", "place": "locality", "source": "GeoDatabase"}}, {"type": "node", "id": 1150944999, "lat": 9.05, "lon": 39.63333, "tags": {"is_in:country": "Ethiopia", "name": "Burk'Ik'E", "place": "locality", "source": "GeoDatabase"}}, {"type": "node", "id": 1150948638, "lat": 8.96667, "lon": 39.43333, "tags": {"is_in:country": "Ethiopia", "is_in:country_code": "ET", "name": "Welensu", "place": "locality", "source": "GeoDatabase"}}, {"type": "node", "id": 1150955664, "lat": 8.98333, "lon": 39.55, "tags": {"is_in:country": "Ethiopia", "name": "Cutebab", "place": "locality", "source": "GeoDatabase"}}, {"type": "node", "id": 1150956535, "lat": 8.75, "lon": 39.53333, "tags": {"is_in:country": "Ethiopia", "is_in:country_code": "ET", "name": "Edo Shelek'O", "place": "locality", "source": "GeoDatabase"}}, {"type": "node", "id": 1150957138, "lat": 9.0, "lon": 39.61667, "tags": {"is_in:country": "Ethiopia", "name": "Dire Mika'El Bete Kristiyan", "place": "locality", "source": "GeoDatabase"}}, {"type": "node", "id": 1150959437, "lat": 9.05, "lon": 39.38333, "tags": {"is_in:country": "Ethiopia", "is_in:country_code": "ET", "name": "Konisa Shet'", "place": "locality", "source": "GeoDatabase"}}, {"type": "node", "id": 1150960218, "lat": 8.91667, "lon": 39.53333, "tags": {"is_in:country": "Ethiopia", "name": "Dire Amba", "place": "locality", "source": "GeoDatabase"}}, {"type": "node", "id": 1150961483, "lat": 8.91667, "lon": 39.66667, "tags": {"is_in:country": "Ethiopia", "name": "K'One Isate Gomera Yefelek'Ebet Gudgwad", "place": "locality", "source": "GeoDatabase"}}, {"type": "node", "id": 1150962490, "lat": 8.83333, "lon": 39.6, "tags": {"is_in:country": "Ethiopia", "name": "Ch'Iro Bahir Shet'", "place": "locality", "source": "GeoDatabase"}}, {"type": "node", "id": 1150967978, "lat": 8.71667, "lon": 39.5, "tags": {"is_in:country": "Ethiopia", "is_in:country_code": "ET", "name": "Abole Shet'", "place": "locality", "source": "GeoDatabase"}}, {"type": "node", "id": 1150971381, "lat": 8.86667, "lon": 39.45, "tags": {"is_in:country": "Ethiopia", "is_in:country_code": "ET", "name": "Wegidi", "place": "locality", "source": "GeoDatabase"}}, {"type": "node", "id": 1150972543, "lat": 8.86667, "lon": 39.63333, "tags": {"is_in:country": "Ethiopia", "name": "Coaichi", "place": "locality", "source": "GeoDatabase"}}, {"type": "node", "id": 1150973307, "lat": 9.1, "lon": 39.7, "tags": {"is_in:country": "Ethiopia", "name": "Serkoma Shet'", "place": "locality", "source": "GeoDatabase"}}, {"type": "node", "id": 1151003428, "lat": 9.0, "lon": 39.43333, "tags": {"is_in:country": "Ethiopia", "is_in:country_code": "ET", "name": "Shenkora Shet'", "place": "locality", "source": "GeoDatabase"}}, {"type": "node", "id": 1151003688, "lat": 9.05, "lon": 39.7, "tags": {"is_in:country": "Ethiopia", "name": "Didi", "place": "locality", "source": "GeoDatabase"}}, {"type": "node", "id": 1910016973, "lat": 8.9285282, "lon": 39.4251614, "tags": {"name": "\u12a0\u1228\u122d\u1272 / Arerti", "name:am": "\u12a0\u1228\u122d\u1272", "name:en": "Arerti", "name:fr": "Arerti", "place": "town"}}, {"type": "node", "id": 1927233879, "lat": 8.7615706, "lon": 39.5572083, "tags": {"place": "village"}}, {"type": "node", "id": 1927234118, "lat": 8.7695553, "lon": 39.5546388, "tags": {"place": "village"}}, {"type": "node", "id": 1927234582, "lat": 8.7278707, "lon": 39.5633989, "tags": {"place": "village"}}, {"type": "node", "id": 1927234608, "lat": 8.725474, "lon": 39.5538449, "tags": {"place": "hamlet"}}, {"type": "node", "id": 1927235097, "lat": 8.7651813, "lon": 39.5463937, "tags": {"place": "village"}}]}