{"version": 0.6, "generator": "Overpass API 0.7.62.1 084b4234", "osm3s": {"timestamp_osm_base": "2024-09-30T20:09:58Z", "copyright": "The data included in this document is from www.openstreetmap.org. The data is made available under ODbL."}, "elements": [{"type": "node", "id": 1404221808, "lat": 8.705916, "lon": 50.072679, "tags": {"fixme": "Please, check location!", "name": "Godobyar", "pcode": "NC-3914-H13-001", "place": "hamlet", "source": "UNDP - 1997"}}, {"type": "node", "id": 1404223813, "lat": 8.652, "lon": 50.051899, "tags": {"fixme": "Please, check location!", "name": "Balli Scillin", "pcode": "NC-3914-J13-001", "place": "hamlet", "source": "UNDP - 1997"}}, {"type": "node", "id": 1404225574, "lat": 8.69985, "lon": 50.06859, "tags": {"name": "Baqbaq", "pcode": "NC-3914-H13-002", "place": "village", "source": "UNDP - 2006"}}, {"type": "node", "id": 1404227439, "lat": 8.4225, "lon": 49.8811, "tags": {"fixme": "Please, check location!", "name": "Cajin", "pcode": "NC-3914-P09-001", "place": "village", "source": "UNDP - 1997"}}, {"type": "node", "id": 1404231153, "lat": 8.3206, "lon": 50.16414, "tags": {"name": "Maraya", "pcode": "NC-3914-S15-001", "place": "village", "source": "FSAU"}}]}