{"version": 0.6, "generator": "Overpass API 0.7.62.1 084b4234", "osm3s": {"timestamp_osm_base": "2024-10-01T00:20:49Z", "copyright": "The data included in this document is from www.openstreetmap.org. The data is made available under ODbL."}, "elements": [{"type": "node", "id": 1150882719, "lat": 6.66667, "lon": 35.58333, "tags": {"is_in:country": "Ethiopia", "is_in:country_code": "ET", "name": "Geisha", "place": "locality", "source": "GeoDatabase"}}, {"type": "node", "id": 1150882813, "lat": 6.71667, "lon": 35.78333, "tags": {"is_in:country": "Ethiopia", "is_in:country_code": "ET", "name": "Ch'Ebera Bota", "place": "locality", "source": "GeoDatabase"}}, {"type": "node", "id": 1150882937, "lat": 6.86667, "lon": 35.86667, "tags": {"is_in:country": "Ethiopia", "is_in:country_code": "ET", "name": "Zhazh Bota", "place": "locality", "source": "GeoDatabase"}}, {"type": "node", "id": 1150883292, "lat": 6.63333, "lon": 35.66667, "tags": {"is_in:country": "Ethiopia", "is_in:country_code": "ET", "name": "Golda", "place": "locality", "source": "GeoDatabase"}}, {"type": "node", "id": 1150885438, "lat": 6.91667, "lon": 35.68333, "tags": {"is_in:country": "Ethiopia", "is_in:country_code": "ET", "name": "Gulusci", "place": "locality", "source": "GeoDatabase"}}, {"type": "node", "id": 1150886689, "lat": 6.76667, "lon": 35.8, "tags": {"is_in:country": "Ethiopia", "is_in:country_code": "ET", "name": "Goldya", "place": "village", "source": "GeoDatabase"}}, {"type": "node", "id": 1150889086, "lat": 6.81667, "lon": 35.61667, "tags": {"is_in:country": "Ethiopia", "is_in:country_code": "ET", "name": "Sire", "place": "locality", "source": "GeoDatabase"}}, {"type": "node", "id": 1150902077, "lat": 6.6453565, "lon": 35.7808746, "tags": {"is_in:country": "Ethiopia", "is_in:country_code": "ET", "name": "Jemu Katolik Misiyon", "place": "locality", "source": "GeoDatabase"}}, {"type": "node", "id": 1150902184, "lat": 6.6394241, "lon": 35.7831028, "tags": {"is_in:country": "Ethiopia", "is_in:country_code": "ET", "name": "Jemu", "place": "village", "source": "GeoDatabase"}}, {"type": "node", "id": 1150911154, "lat": 6.8311355, "lon": 35.8993999, "tags": {"GNS:id": "-610570", "alt_name": "Berciuma", "name": "Gachit", "place": "village", "source": "GeoDatabase"}}, {"type": "node", "id": 1150916829, "lat": 6.85, "lon": 35.56666, "tags": {"is_in:country": "Ethiopia", "is_in:country_code": "ET", "name": "Sire", "place": "locality", "source": "GeoDatabase"}}, {"type": "node", "id": 1150939516, "lat": 6.7, "lon": 35.9, "tags": {"is_in:country": "Ethiopia", "is_in:country_code": "ET", "name": "Giana", "place": "locality", "source": "GeoDatabase"}}, {"type": "node", "id": 1150939699, "lat": 6.65, "lon": 35.85, "tags": {"is_in:country": "Ethiopia", "is_in:country_code": "ET", "name": "Vumbaro", "place": "locality", "source": "GeoDatabase"}}, {"type": "node", "id": 1150953207, "lat": 6.85, "lon": 35.88333, "tags": {"is_in:country": "Ethiopia", "is_in:country_code": "ET", "name": "Caliccia", "place": "locality", "source": "GeoDatabase"}}, {"type": "node", "id": 1150958992, "lat": 6.9, "lon": 35.66667, "tags": {"is_in:country": "Ethiopia", "is_in:country_code": "ET", "name": "Feki", "place": "locality", "source": "GeoDatabase"}}, {"type": "node", "id": 1151002280, "lat": 6.75, "lon": 35.93333, "tags": {"is_in:country": "Ethiopia", "is_in:country_code": "ET", "name": "Ch'Ebera", "place": "locality", "source": "GeoDatabase"}}, {"type": "node", "id": 2208301635, "lat": 6.7678, "lon": 35.6343712, "tags": {"name": "South West Ethiopia Peoples' Region", "place": "region"}}, {"type": "node", "id": 12036322445, "lat": 6.8279205, "lon": 35.8764124, "tags": {"GNS:id": "11814616", "name": "Kamtato", "place": "hamlet"}}, {"type": "node", "id": 12036322446, "lat": 6.9231891, "lon": 35.8349883, "tags": {"name": "Kuka", "place": "hamlet"}}]}