{"version": 0.6, "generator": "Overpass API 0.7.62.1 084b4234", "osm3s": {"timestamp_osm_base": "2024-09-30T22:26:08Z", "copyright": "The data included in this document is from www.openstreetmap.org. The data is made available under ODbL."}, "elements": [{"type": "node", "id": 1104382516, "lat": 7.0072505, "lon": 39.3917175, "tags": {"name": "\u12a0\u12f3\u1263 / Adaba", "name:am": "\u12a0\u12f3\u1263", "name:en": "Adaba", "name:fr": "Adaba", "note": "Translation source: http://translator.abyssinica.com/.", "place": "town", "source": "300TDI"}}, {"type": "node", "id": 1150881656, "lat": 7.26667, "lon": 39.4, "tags": {"is_in:country": "Ethiopia", "is_in:country_code": "ET", "name": "Barado", "place": "locality", "source": "GeoDatabase"}}, {"type": "node", "id": 1150881720, "lat": 7.05, "lon": 39.5, "tags": {"is_in:country": "Ethiopia", "is_in:country_code": "ET", "name": "Dun Shet'", "place": "locality", "source": "GeoDatabase"}}, {"type": "node", "id": 1150882941, "lat": 7.25, "lon": 39.33333, "tags": {"is_in:country": "Ethiopia", "is_in:country_code": "ET", "name": "Kubsa", "place": "locality", "source": "GeoDatabase"}}, {"type": "node", "id": 1150884574, "lat": 7.16667, "lon": 39.53333, "tags": {"is_in:country": "Ethiopia", "is_in:country_code": "ET", "name": "Haco", "place": "locality", "source": "GeoDatabase"}}, {"type": "node", "id": 1150885467, "lat": 7.33333, "lon": 39.43333, "tags": {"is_in:country": "Ethiopia", "is_in:country_code": "ET", "name": "Sire", "place": "locality", "source": "GeoDatabase"}}, {"type": "node", "id": 1150886619, "lat": 7.2, "lon": 39.63333, "tags": {"is_in:country": "Ethiopia", "is_in:country_code": "ET", "name": "Lajo", "place": "locality", "source": "GeoDatabase"}}, {"type": "node", "id": 1150887899, "lat": 6.98333, "lon": 39.61667, "tags": {"is_in:country": "Ethiopia", "is_in:country_code": "ET", "name": "Monti Urgoma", "place": "locality", "source": "GeoDatabase"}}, {"type": "node", "id": 1150888081, "lat": 7.21667, "lon": 39.46667, "tags": {"is_in:country": "Ethiopia", "is_in:country_code": "ET", "name": "Hak'O Shet'", "place": "locality", "source": "GeoDatabase"}}, {"type": "node", "id": 1150890717, "lat": 7.06667, "lon": 39.26667, "tags": {"is_in:country": "Ethiopia", "is_in:country_code": "ET", "name": "Gedira Shet'", "place": "locality", "source": "GeoDatabase"}}, {"type": "node", "id": 1150893504, "lat": 7.06667, "lon": 39.36667, "tags": {"is_in:country": "Ethiopia", "is_in:country_code": "ET", "name": "Arba Shet'", "place": "locality", "source": "GeoDatabase"}}, {"type": "node", "id": 1150894039, "lat": 7.13333, "lon": 39.4, "tags": {"is_in:country": "Ethiopia", "is_in:country_code": "ET", "name": "Madeda Shet'", "place": "locality", "source": "GeoDatabase"}}, {"type": "node", "id": 1150902665, "lat": 6.98333, "lon": 39.23333, "tags": {"is_in:country": "Ethiopia", "is_in:country_code": "ET", "name": "Tuli", "place": "locality", "source": "GeoDatabase"}}, {"type": "node", "id": 1150908138, "lat": 7.3, "lon": 39.41667, "tags": {"is_in:country": "Ethiopia", "is_in:country_code": "ET", "name": "Lanchiccia", "place": "locality", "source": "GeoDatabase"}}, {"type": "node", "id": 1150910450, "lat": 7.01667, "lon": 39.41667, "tags": {"is_in:country": "Ethiopia", "is_in:country_code": "ET", "name": "Hunt'E", "place": "locality", "source": "GeoDatabase"}}, {"type": "node", "id": 1150910847, "lat": 7.31667, "lon": 39.28333, "tags": {"is_in:country": "Ethiopia", "is_in:country_code": "ET", "name": "Gedeb", "place": "locality", "source": "GeoDatabase"}}, {"type": "node", "id": 1150914939, "lat": 7.2, "lon": 39.48333, "tags": {"is_in:country": "Ethiopia", "is_in:country_code": "ET", "name": "`Urgo", "place": "locality", "source": "GeoDatabase"}}, {"type": "node", "id": 1150920247, "lat": 7.08333, "lon": 39.3, "tags": {"is_in:country": "Ethiopia", "is_in:country_code": "ET", "name": "Hursa", "place": "locality", "source": "GeoDatabase"}}, {"type": "node", "id": 1150924873, "lat": 7.11667, "lon": 39.43333, "tags": {"is_in:country": "Ethiopia", "is_in:country_code": "ET", "name": "Scelada", "place": "locality", "source": "GeoDatabase"}}, {"type": "node", "id": 1150941814, "lat": 6.98333, "lon": 39.26667, "tags": {"is_in:country": "Ethiopia", "is_in:country_code": "ET", "name": "Gedir Korebta", "place": "locality", "source": "GeoDatabase"}}, {"type": "node", "id": 1150943227, "lat": 7.1, "lon": 39.25, "tags": {"is_in:country": "Ethiopia", "is_in:country_code": "ET", "name": "Debara River", "place": "locality", "source": "GeoDatabase"}}, {"type": "node", "id": 1150947863, "lat": 7.08333, "lon": 39.35, "tags": {"is_in:country": "Ethiopia", "is_in:country_code": "ET", "name": "Ashilo Shet'", "place": "locality", "source": "GeoDatabase"}}, {"type": "node", "id": 1150952136, "lat": 7.1, "lon": 39.3, "tags": {"is_in:country": "Ethiopia", "is_in:country_code": "ET", "name": "Burbura Shet'", "place": "locality", "source": "GeoDatabase"}}, {"type": "node", "id": 1150957887, "lat": 7.15, "lon": 39.6, "tags": {"is_in:country": "Ethiopia", "is_in:country_code": "ET", "name": "Laggio", "place": "locality", "source": "GeoDatabase"}}, {"type": "node", "id": 1150959131, "lat": 7.35, "lon": 39.45, "tags": {"is_in:country": "Ethiopia", "is_in:country_code": "ET", "name": "Anciora", "place": "locality", "source": "GeoDatabase"}}, {"type": "node", "id": 1150962330, "lat": 6.96667, "lon": 39.45, "tags": {"is_in:country": "Ethiopia", "is_in:country_code": "ET", "name": "Weyge", "place": "locality", "source": "GeoDatabase"}}, {"type": "node", "id": 1150962884, "lat": 7.1, "lon": 39.41667, "tags": {"is_in:country": "Ethiopia", "is_in:country_code": "ET", "name": "Malca Hofi", "place": "locality", "source": "GeoDatabase"}}, {"type": "node", "id": 1150963202, "lat": 7.35, "lon": 39.36667, "tags": {"is_in:country": "Ethiopia", "is_in:country_code": "ET", "name": "Timbite", "place": "locality", "source": "GeoDatabase"}}, {"type": "node", "id": 1150968662, "lat": 7.08333, "lon": 39.58333, "tags": {"is_in:country": "Ethiopia", "is_in:country_code": "ET", "name": "Salmana", "place": "locality", "source": "GeoDatabase"}}, {"type": "node", "id": 1150969256, "lat": 7.2, "lon": 39.43333, "tags": {"is_in:country": "Ethiopia", "is_in:country_code": "ET", "name": "Dabaca", "place": "locality", "source": "GeoDatabase"}}, {"type": "node", "id": 1150978980, "lat": 7.05, "lon": 39.33333, "tags": {"is_in:country": "Ethiopia", "is_in:country_code": "ET", "name": "Erero Shet'", "place": "locality", "source": "GeoDatabase"}}, {"type": "node", "id": 1151003770, "lat": 7.0, "lon": 39.31666, "tags": {"is_in:country": "Ethiopia", "is_in:country_code": "ET", "name": "Keta", "place": "locality", "source": "GeoDatabase"}}, {"type": "node", "id": 1953127443, "lat": 7.3398126, "lon": 39.4317654, "tags": {"place": "village"}}, {"type": "node", "id": 1953309553, "lat": 7.2965426, "lon": 39.5753288, "tags": {"place": "village"}}, {"type": "node", "id": 1953310052, "lat": 7.1904723, "lon": 39.4301665, "tags": {"name": "Robe Gerjeda", "place": "town"}}, {"type": "node", "id": 1953311673, "lat": 7.2724262, "lon": 39.5339584, "tags": {"place": "village"}}, {"type": "node", "id": 1953349744, "lat": 7.0351853, "lon": 39.4731681, "tags": {"name": "Washa", "place": "town"}}, {"type": "node", "id": 1959385686, "lat": 7.1597431, "lon": 39.5388928, "tags": {"place": "town"}}, {"type": "node", "id": 1959416933, "lat": 7.124932, "lon": 39.4741246, "tags": {"place": "town"}}]}