{"version": 0.6, "generator": "Overpass API 0.7.62.1 084b4234", "osm3s": {"timestamp_osm_base": "2024-09-30T23:59:05Z", "copyright": "The data included in this document is from www.openstreetmap.org. The data is made available under ODbL."}, "elements": [{"type": "node", "id": 1150883482, "lat": 6.75611, "lon": 43.10139, "tags": {"is_in:country": "Ethiopia", "is_in:country_code": "ET", "name": "Dzhaballa", "place": "locality", "source": "GeoDatabase"}}, {"type": "node", "id": 1150889281, "lat": 6.57833, "lon": 42.82667, "tags": {"is_in:country": "Ethiopia", "is_in:country_code": "ET", "name": "Guasasali", "place": "locality", "source": "GeoDatabase"}}, {"type": "node", "id": 1150903259, "lat": 6.91972, "lon": 43.08472, "tags": {"is_in:country": "Ethiopia", "is_in:country_code": "ET", "name": "Bircul", "place": "locality", "source": "GeoDatabase"}}, {"type": "node", "id": 1150912377, "lat": 6.785, "lon": 42.98305, "tags": {"is_in:country": "Ethiopia", "is_in:country_code": "ET", "name": "Geli", "place": "locality", "source": "GeoDatabase"}}, {"type": "node", "id": 1150943274, "lat": 6.875, "lon": 43.11333, "tags": {"is_in:country": "Ethiopia", "is_in:country_code": "ET", "name": "Orbisso", "place": "locality", "source": "GeoDatabase"}}, {"type": "node", "id": 1150953322, "lat": 6.75083, "lon": 42.88111, "tags": {"is_in:country": "Ethiopia", "is_in:country_code": "ET", "name": "Semane", "place": "locality", "source": "GeoDatabase"}}, {"type": "node", "id": 1150955837, "lat": 6.89778, "lon": 43.00972, "tags": {"is_in:country": "Ethiopia", "is_in:country_code": "ET", "name": "Dabanac", "place": "locality", "source": "GeoDatabase"}}, {"type": "node", "id": 1151004549, "lat": 6.84056, "lon": 43.19028, "tags": {"is_in:country": "Ethiopia", "is_in:country_code": "ET", "name": "Gorra", "place": "locality", "source": "GeoDatabase"}}, {"type": "node", "id": 10599230988, "lat": 6.6146428, "lon": 43.1361061, "tags": {"name": "Elwayne", "place": "village"}}]}