{"version": 0.6, "generator": "Overpass API 0.7.62.1 084b4234", "osm3s": {"timestamp_osm_base": "2024-09-30T17:46:35Z", "copyright": "The data included in this document is from www.openstreetmap.org. The data is made available under ODbL."}, "elements": [{"type": "node", "id": 44924350, "lat": -2.0666, "lon": 38.25, "tags": {"name": "Ngwate", "place": "village", "wikidata": "Q7023167"}}, {"type": "node", "id": 44925748, "lat": -1.9333, "lon": 38.2666, "tags": {"name": "Muthue", "place": "village"}}, {"type": "node", "id": 44925794, "lat": -1.847369, "lon": 38.206433, "tags": {"name": "Mutomo", "place": "village", "wikidata": "Q15045710"}}, {"type": "node", "id": 44925841, "lat": -2.133265, "lon": 38.1165696, "tags": {"name": "Mwangini", "place": "village", "wikidata": "Q6944672"}}, {"type": "node", "id": 44927480, "lat": -1.9333, "lon": 38.1333, "tags": {"name": "Mubuko", "place": "village", "wikidata": "Q15045705"}}, {"type": "node", "id": 44933071, "lat": -1.9, "lon": 38.1833, "tags": {"name": "Kitoo", "place": "village"}}, {"type": "node", "id": 44933073, "lat": -2.1334262, "lon": 38.1166237, "tags": {"name": "Kitute", "place": "village", "wikidata": "Q6418656"}}, {"type": "node", "id": 44933226, "lat": -2.1333677, "lon": 38.1163718, "tags": {"name": "Kituti", "place": "village"}}, {"type": "node", "id": 44933429, "lat": -2.0955076, "lon": 38.2524247, "tags": {"name": "Kisou", "place": "village"}}, {"type": "node", "id": 44992680, "lat": -2.1357659, "lon": 38.0821788, "tags": {"name": "Kilawa", "place": "village", "wikidata": "Q6406522"}}, {"type": "node", "id": 44997079, "lat": -2.1333, "lon": 38.2666, "tags": {"name": "Kasala", "place": "village"}}, {"type": "node", "id": 44997121, "lat": -1.9166, "lon": 38.2333, "tags": {"name": "Kasilia", "place": "village", "wikidata": "Q6374530"}}, {"type": "node", "id": 44998950, "lat": -2.15, "lon": 38.2833, "tags": {"name": "Imale", "place": "village", "wikidata": "Q15045674"}}, {"type": "node", "id": 44999222, "lat": -2.065031, "lon": 38.179304, "tags": {"name": "Ikutha", "place": "village", "wikidata": "Q5996406"}}, {"type": "node", "id": 44999227, "lat": -2.0166, "lon": 38.1, "tags": {"name": "Kalivu", "place": "village", "wikidata": "Q6353272"}}, {"type": "node", "id": 44999431, "lat": -2.041244, "lon": 38.228002, "tags": {"name": "Kaluluini", "place": "village", "wikidata": "Q6354588"}}, {"type": "node", "id": 44999513, "lat": -2.20119, "lon": 38.0605597, "tags": {"name": "Kailembwa", "place": "village", "wikidata": "Q6347946"}}, {"type": "node", "id": 44999544, "lat": -1.9166, "lon": 38.1666, "tags": {"name": "Kakunio", "place": "village", "wikidata": "Q15045686"}}, {"type": "node", "id": 45005771, "lat": -2.2, "lon": 38.05, "tags": {"name": "Athi", "place": "village", "wikidata": "Q4813643"}}, {"type": "node", "id": 45005793, "lat": -2.2, "lon": 38.05, "tags": {"name": "Athi New Bridge", "place": "village"}}, {"type": "node", "id": 1640012690, "lat": -1.9099331, "lon": 38.1722276, "tags": {"name": "Kyoani", "place": "village"}}, {"type": "node", "id": 2139441045, "lat": -1.9375232, "lon": 38.1764614, "tags": {"place": "village"}}, {"type": "node", "id": 2139441048, "lat": -1.9445464, "lon": 38.1778755, "tags": {"place": "village"}}, {"type": "node", "id": 2139441083, "lat": -1.9915299, "lon": 38.1887588, "tags": {"name": "Kiangu", "place": "village"}}, {"type": "node", "id": 4823795975, "lat": -1.8514881, "lon": 38.2028927}, {"type": "node", "id": 4823795976, "lat": -1.8538257, "lon": 38.205811}, {"type": "node", "id": 4823795977, "lat": -1.8533968, "lon": 38.2099738}, {"type": "node", "id": 4823795978, "lat": -1.847499, "lon": 38.21242}, {"type": "node", "id": 4823795979, "lat": -1.8410221, "lon": 38.2099952}, {"type": "node", "id": 4823795980, "lat": -1.8413867, "lon": 38.2042875}, {"type": "node", "id": 4823795981, "lat": -1.8458476, "lon": 38.200983}, {"type": "node", "id": 4823814841, "lat": -2.0915362, "lon": 38.0695588}, {"type": "node", "id": 4823814842, "lat": -2.0910001, "lon": 38.0649239}, {"type": "node", "id": 4823814843, "lat": -2.0929729, "lon": 38.0635721}, {"type": "node", "id": 4823814844, "lat": -2.0945704, "lon": 38.0693764}, {"type": "node", "id": 4829673554, "lat": -2.2101833, "lon": 38.2349428}, {"type": "node", "id": 4829673555, "lat": -2.2118021, "lon": 38.2364877}, {"type": "node", "id": 4829673556, "lat": -2.212767, "lon": 38.2353987}, {"type": "node", "id": 4829673557, "lat": -2.212038, "lon": 38.2345351}, {"type": "node", "id": 4829673558, "lat": -2.2106175, "lon": 38.2340844}, {"type": "node", "id": 4829673559, "lat": -2.2104245, "lon": 38.234578}, {"type": "node", "id": 4829673936, "lat": -2.0537955, "lon": 37.9835554}, {"type": "node", "id": 4829673937, "lat": -2.0527555, "lon": 37.982386}, {"type": "node", "id": 4829673938, "lat": -2.0514688, "lon": 37.9841991}, {"type": "node", "id": 4829673939, "lat": -2.0533023, "lon": 37.9859157}, {"type": "node", "id": 4829673940, "lat": -2.0552644, "lon": 37.9881903}, {"type": "node", "id": 4829673941, "lat": -2.0570764, "lon": 37.9884799}, {"type": "node", "id": 4829673942, "lat": -2.0572587, "lon": 37.9874285}, {"type": "node", "id": 4829673943, "lat": -2.0549964, "lon": 37.9862698}, {"type": "node", "id": 4831250144, "lat": -1.8493135, "lon": 38.1866738}, {"type": "node", "id": 4831250145, "lat": -1.8492908, "lon": 38.1870681}, {"type": "node", "id": 4831250146, "lat": -1.8491219, "lon": 38.1871646}, {"type": "node", "id": 4831250147, "lat": -1.8488484, "lon": 38.1869527}, {"type": "node", "id": 4831250148, "lat": -1.848949, "lon": 38.1867623}, {"type": "way", "id": 490204719, "nodes": [4823795981, 4823795980, 4823795979, 4823795978, 4823795977, 4823795976, 4823795975, 4823795981], "tags": {"name": "Mutomo", "place": "town", "source": "local knowledge", "wikidata": "Q15045710", "wikipedia": "en:Mutomo"}}, {"type": "way", "id": 490206679, "nodes": [4823814844, 4823814843, 4823814842, 4823814841, 4823814844], "tags": {"place": "village"}}, {"type": "way", "id": 490778717, "nodes": [4829673559, 4829673558, 4829673557, 4829673556, 4829673555, 4829673554, 4829673559], "tags": {"place": "village"}}, {"type": "way", "id": 490778728, "nodes": [4829673943, 4829673942, 4829673941, 4829673940, 4829673939, 4829673938, 4829673937, 4829673936, 4829673943], "tags": {"place": "village"}}, {"type": "way", "id": 490960794, "nodes": [4831250148, 4831250147, 4831250146, 4831250145, 4831250144, 4831250148], "tags": {"place": "hamlet"}}]}