{"version": 0.6, "generator": "Overpass API 0.7.62.1 084b4234", "osm3s": {"timestamp_osm_base": "2024-09-30T20:05:59Z", "copyright": "The data included in this document is from www.openstreetmap.org. The data is made available under ODbL."}, "elements": [{"type": "node", "id": 43528150, "lat": 9.1706823, "lon": 45.5375166, "tags": {"name": "Togdheer \u062a\u0648\u062c\u062f\u064a\u0631", "name:ar": "\u062a\u0648\u062c\u062f\u064a\u0631", "name:en": "Togdheer", "name:fr": "Togdheer", "name:ru": "\u0422\u043e\u0433\u0434\u0435\u0440", "place": "state", "ref": "TG", "state_code": "TG"}}, {"type": "node", "id": 348404512, "lat": 8.5794232, "lon": 45.267553}, {"type": "node", "id": 348404516, "lat": 8.262866, "lon": 46.2247272}, {"type": "node", "id": 348404520, "lat": 8.0015542, "lon": 46.9931464}, {"type": "node", "id": 348404524, "lat": 8.0006638, "lon": 47.0136256}, {"type": "node", "id": 1404221791, "lat": 8.9552536, "lon": 46.4095874, "tags": {"alt_name": "Caynaba;Aynaba;Ainaba;Ainabo;Aynabo", "name": "Caynabo", "pcode": "NC-3815-B32-001", "place": "city", "source": "UNDP - 2006, GTZ - 2002, UNDP - 1997", "wikidata": "Q4058907"}}, {"type": "node", "id": 1404224477, "lat": 8.474261, "lon": 47.355194, "tags": {"alt_name": "Las Anod;Laas Caanood;Laas Anood;Lasanod;Laas Aanood", "name": "Laascaanood \u0644\u0627\u0633 \u0639\u0627\u0646\u0648\u062f", "name:ar": "\u0644\u0627\u0633 \u0639\u0627\u0646\u0648\u062f", "name:de": "Las Anod", "name:en": "Las Anod", "name:es": "Las Anod", "name:fr": "Las Anod", "name:it": "Las Anod", "name:pt": "Las Anod", "name:ru": "\u041b\u0430\u0441-\u0410\u043d\u043e\u0434", "name:uk": "\u041b\u0430\u0441'\u0430\u043d\u043e\u0434", "pcode": "NC-3816-N19-001", "place": "town", "source": "GTZ - 2002, UNDP - 1997, FSAU", "wikidata": "Q1017223", "wikipedia": "ar:\u0644\u0627\u0633 \u0639\u0627\u0646\u0648\u062f"}}, {"type": "node", "id": 1406050750, "lat": 10.0299997, "lon": 45.8300018}, {"type": "node", "id": 1406050752, "lat": 10.0445204, "lon": 46.0546112}, {"type": "node", "id": 1406050755, "lat": 10.0494404, "lon": 46.0484314}, {"type": "node", "id": 1406050784, "lat": 10.080015, "lon": 46.0100289}, {"type": "node", "id": 1406050787, "lat": 10.0869198, "lon": 45.8932495}, {"type": "node", "id": 1406050790, "lat": 10.0988197, "lon": 45.9064713}, {"type": "node", "id": 1406056924, "lat": 8.0, "lon": 47.9199982}, {"type": "node", "id": 1406056938, "lat": 8.0007395, "lon": 47.0118848}, {"type": "node", "id": 1406056943, "lat": 8.0200005, "lon": 47.9399986}, {"type": "node", "id": 1406056995, "lat": 8.21, "lon": 48.1300011}, {"type": "node", "id": 1406057002, "lat": 8.2543942, "lon": 46.250015}, {"type": "node", "id": 1406057004, "lat": 8.2555838, "lon": 46.25}, {"type": "node", "id": 1406057020, "lat": 8.2700005, "lon": 46.25}, {"type": "node", "id": 1406057141, "lat": 8.5600004, "lon": 47.0999985}, {"type": "node", "id": 1406057145, "lat": 8.57202, "lon": 45.2900009}, {"type": "node", "id": 1406057169, "lat": 8.6000004, "lon": 45.2900009}, {"type": "node", "id": 1406057202, "lat": 8.75, "lon": 47.0}, {"type": "node", "id": 1406057203, "lat": 8.7600002, "lon": 46.9199982}, {"type": "node", "id": 1406057222, "lat": 8.7725346, "lon": 44.6899986}, {"type": "node", "id": 1406057227, "lat": 8.7799997, "lon": 48.7299995}, {"type": "node", "id": 1406057242, "lat": 8.781579, "lon": 46.9199982}, {"type": "node", "id": 1406057244, "lat": 8.8199785, "lon": 46.1899986}, {"type": "node", "id": 1406057246, "lat": 8.8199997, "lon": 46.9199982}, {"type": "node", "id": 1406057250, "lat": 8.8422422, "lon": 46.9196281}, {"type": "node", "id": 1406057314, "lat": 9.0, "lon": 46.2200012}, {"type": "node", "id": 1406057339, "lat": 9.1395245, "lon": 49.0800591}, {"type": "node", "id": 1406057379, "lat": 9.3100004, "lon": 44.6899986}, {"type": "node", "id": 1406057396, "lat": 9.4099998, "lon": 45.2799988}, {"type": "node", "id": 1406057409, "lat": 9.4399996, "lon": 46.1500015}, {"type": "node", "id": 1406057410, "lat": 9.4399991, "lon": 47.0700082}, {"type": "node", "id": 1406057411, "lat": 9.4418116, "lon": 47.0998993}, {"type": "node", "id": 1406057414, "lat": 9.4655085, "lon": 47.4908791}, {"type": "node", "id": 1406057437, "lat": 9.4961977, "lon": 46.7441711}, {"type": "node", "id": 1406057438, "lat": 9.5, "lon": 48.0600014}, {"type": "node", "id": 1406057439, "lat": 9.5014782, "lon": 48.0784798}, {"type": "node", "id": 1406057446, "lat": 9.54, "lon": 48.5600014}, {"type": "node", "id": 1406057453, "lat": 9.5411053, "lon": 48.5784302}, {"type": "node", "id": 1406057457, "lat": 9.5699997, "lon": 49.0600014}, {"type": "node", "id": 1406057459, "lat": 9.5889339, "lon": 46.6275482}, {"type": "node", "id": 1406057490, "lat": 9.7426643, "lon": 46.4342194}, {"type": "node", "id": 1406057492, "lat": 9.7799997, "lon": 45.8499985}, {"type": "node", "id": 1406057561, "lat": 9.8599997, "lon": 44.8300018}, {"type": "node", "id": 1406057562, "lat": 9.8699999, "lon": 45.2799988}, {"type": "node", "id": 1406057572, "lat": 9.8970165, "lon": 46.2401085}, {"type": "node", "id": 1406057576, "lat": 9.9099998, "lon": 44.8699989}, {"type": "node", "id": 1406057582, "lat": 9.9200001, "lon": 45.7999992}, {"type": "node", "id": 1406057589, "lat": 9.9399996, "lon": 44.9000015}, {"type": "node", "id": 1406057591, "lat": 9.9401941, "lon": 44.8967523}, {"type": "node", "id": 2208326505, "lat": 8.9604812, "lon": 47.5857827, "tags": {"name": "Sool \u0633\u0648\u0644", "name:ar": "\u0633\u0648\u0644", "name:en": "Sool", "name:fr": "Sool", "name:ru": "\u0421\u043e\u043b\u044c", "place": "state", "ref": "SL", "state_code": "SL"}}, {"type": "node", "id": 2510212530, "lat": 8.4617456, "lon": 45.6262438}, {"type": "node", "id": 7354143874, "lat": 8.6497213, "lon": 45.2893876}, {"type": "node", "id": 7354143875, "lat": 8.7004762, "lon": 45.2887614}, {"type": "node", "id": 7354143876, "lat": 8.8008924, "lon": 45.2875223}, {"type": "node", "id": 7354143877, "lat": 9.2109371, "lon": 45.282459}, {"type": "node", "id": 7354143878, "lat": 9.005316, "lon": 45.2849987}, {"type": "node", "id": 7909094096, "lat": 8.4703528, "lon": 45.6002341}, {"type": "node", "id": 7909094097, "lat": 8.4712024, "lon": 45.5978975}, {"type": "node", "id": 7909094098, "lat": 8.4306598, "lon": 45.7196234}, {"type": "node", "id": 7909827774, "lat": 8.4707637, "lon": 45.5990713}, {"type": "node", "id": 7909978494, "lat": 8.4710001, "lon": 45.5984781}, {"type": "node", "id": 9025124153, "lat": 8.2899305, "lon": 46.1435209}, {"type": "node", "id": 9026659039, "lat": 8.2296251, "lon": 46.3244172, "tags": {"alt_name": "Bohotle", "name": "Buuhoodle \u0628\u0648\u0648\u0647\u0648\u062f\u0644 \u1266\u1206\u1275\u1208", "name:ar": "\u0628\u0648\u0648\u0647\u0648\u062f\u0644", "name:ca": "Buuhoodle", "name:de": "Buhoodle", "name:en": "Buuhoodle", "name:fr": "Buuhoodle", "name:hr": "Buuhoodle", "name:it": "Buhoodle", "name:ko": "\ubd80\ud6c4\ub4e4", "name:pl": "Buuhoodle", "name:ru": "\u0411\u0443\u0445\u043e\u0434\u043b\u0435", "name:sv": "Buuhoodle", "name:uk": "\u0411\u0443\u0445\u043e\u0434\u043b\u0435", "name:ur": "\u0628\u0648\u0648\u06c1\u0648\u062f\u0644", "name:zh": "\u5e03\u4faf\u5fb7\u5217", "name:zu": "Buuhoodle", "pcode": "NC-3815-T29-001", "place": "city", "source": "UNDP - 2006, GTZ - 2002, UNDP - 1997", "wikidata": "Q1002700", "wikipedia": "so:Buuhoodle"}}, {"type": "node", "id": 9251392790, "lat": 8.4437907, "lon": 48.375996, "tags": {"name": "Nugaal-sool provisional  border"}}, {"type": "node", "id": 11900396205, "lat": 9.4200197, "lon": 46.8399756}, {"type": "node", "id": 11900396207, "lat": 9.4399954, "lon": 47.0699268}, {"type": "node", "id": 11900396208, "lat": 9.430001, "lon": 46.9100066}, {"type": "node", "id": 11900396210, "lat": 8.7966025, "lon": 46.6345541}, {"type": "node", "id": 11900396217, "lat": 9.4642122, "lon": 47.4694913}, {"type": "node", "id": 11900664306, "lat": 9.4642098, "lon": 47.4694709}, {"type": "node", "id": 12031126314, "lat": 9.5277644, "lon": 45.5381093}, {"type": "way", "id": 126924862, "nodes": [1406057145, 7909094097, 7909978494, 7909827774, 7909094096, 2510212530], "tags": {"admin_level": "2", "border_type": "nation", "boundary": "administrative", "left:country": "\u0627\u0644\u0635\u0648\u0645\u0627\u0644", "name": "Ethiopia - Jamhuuriyadda Soomaaliland", "name:ar": "\u0625\u062b\u064a\u0648\u0628\u064a\u0627 - \u062c\u0645\u0647\u0648\u0631\u064a\u0629 \u0635\u0648\u0645\u0627\u0644\u064a\u0644\u0627\u0646\u062f", "name:en": "Ethiopia - Somaliland", "name:fr": "\u00c9thiopie - Somaliland", "right:country": "Ethiopia", "right:state": "Somali", "source": "maplibrary.org"}}, {"type": "way", "id": 126924865, "nodes": [1406056938, 348404524, 1406056924], "tags": {"admin_level": "2", "border_type": "nation", "boundary": "administrative", "left:country": "\u0627\u0644\u0635\u0648\u0645\u0627\u0644", "name": "Ethiopia - Jamhuuriyadda Soomaaliland", "name:ar": "\u0625\u062b\u064a\u0648\u0628\u064a\u0627 - \u062c\u0645\u0647\u0648\u0631\u064a\u0629 \u0635\u0648\u0645\u0627\u0644\u064a\u0644\u0627\u0646\u062f", "name:en": "Ethiopia - Republic of Somaliland", "name:fr": "\u00c9thiopie - Somaliland", "right:country": "Ethiopia", "right:state": "Somali", "source": "maplibrary.org"}}, {"type": "way", "id": 126924866, "nodes": [1406057222, 348404512, 1406057145], "tags": {"admin_level": "2", "border_type": "nation", "boundary": "administrative", "left:country": "\u0627\u0644\u0635\u0648\u0645\u0627\u0644", "name": "Ethiopia - Jamhuuriyadda Soomaaliland", "name:ar": "\u0625\u062b\u064a\u0648\u0628\u064a\u0627 - \u062c\u0645\u0647\u0648\u0631\u064a\u0629 \u0635\u0648\u0645\u0627\u0644\u064a\u0644\u0627\u0646\u062f", "name:en": "Ethiopia - Republic of Somaliland", "name:fr": "\u00c9thiopie - Somaliland", "right:country": "Ethiopia", "right:state": "Somali", "source": "maplibrary.org"}}, {"type": "way", "id": 126924873, "nodes": [1406057002, 348404520, 1406056938], "tags": {"admin_level": "2", "border_type": "nation", "boundary": "administrative", "left:country": "\u0627\u0644\u0635\u0648\u0645\u0627\u0644", "name": "Ethiopia - Jamhuuriyadda Soomaaliland", "name:ar": "\u0625\u062b\u064a\u0648\u0628\u064a\u0627 - \u062c\u0645\u0647\u0648\u0631\u064a\u0629 \u0635\u0648\u0645\u0627\u0644\u064a\u0644\u0627\u0646\u062f", "name:en": "Ethiopia - Republic of Somaliland", "name:fr": "\u00c9thiopie - Somaliland", "right:country": "Ethiopia", "right:state": "Somali", "source": "maplibrary.org"}}, {"type": "way", "id": 126925010, "nodes": [1406057453, 1406057457], "tags": {"admin_level": "4", "boundary": "administrative"}}, {"type": "way", "id": 126925018, "nodes": [1406057339, 1406057457], "tags": {"admin_level": "2", "boundary": "administrative", "name": "\u0627\u0644\u0635\u0648\u0645\u0627\u0644 - \u0635\u0648\u0645\u0627\u0644\u064a\u0644\u0627\u0646\u062f", "name:ar": "\u0627\u0644\u0635\u0648\u0645\u0627\u0644 - \u0635\u0648\u0645\u0627\u0644\u064a\u0644\u0627\u0646\u062f", "name:en": "Somalia - Republic of Somaliland", "name:so": "Soomaaliya - Jamhuuriyadda Soomaaliland"}}, {"type": "way", "id": 126925034, "nodes": [11900396210, 1406057242], "tags": {"admin_level": "4", "boundary": "administrative"}}, {"type": "way", "id": 126925037, "nodes": [11900396208, 1406057250], "tags": {"admin_level": "6", "boundary": "administrative"}}, {"type": "way", "id": 126925048, "nodes": [1406050784, 1406050755], "tags": {"admin_level": "4", "boundary": "administrative"}}, {"type": "way", "id": 126925081, "nodes": [1406050790, 1406050784], "tags": {"admin_level": "4", "boundary": "administrative"}}, {"type": "way", "id": 126925205, "nodes": [1406057562, 1406057589, 1406057591], "tags": {"admin_level": "4", "boundary": "administrative"}}, {"type": "way", "id": 126925233, "nodes": [1406057250, 1406057246, 1406057242]}, {"type": "way", "id": 126925244, "nodes": [1406057439, 1406057446, 1406057453], "tags": {"admin_level": "4", "boundary": "administrative"}}, {"type": "way", "id": 126925250, "nodes": [11900396208, 11900396207, 1406057410, 1406057411], "tags": {"admin_level": "4", "boundary": "administrative"}}, {"type": "way", "id": 126925326, "nodes": [1406050755, 1406057409, 1406057314, 1406057244], "tags": {"admin_level": "4", "boundary": "administrative"}}, {"type": "way", "id": 126925336, "nodes": [1406056995, 1406056943, 1406056924], "tags": {"admin_level": "2", "boundary": "administrative", "name": "Somalia - Somaliland"}}, {"type": "way", "id": 126925343, "nodes": [1406057145, 1406057169, 7354143874, 7354143875, 7354143876, 7354143878, 7354143877, 1406057396, 1406057562], "tags": {"admin_level": "6", "boundary": "administrative"}}, {"type": "way", "id": 126925354, "nodes": [1406057411, 11900664306, 11900396217, 1406057414, 1406057438, 1406057439], "tags": {"admin_level": "4", "boundary": "administrative"}}, {"type": "way", "id": 126925396, "nodes": [1406057244, 1406057020, 1406057004, 1406057002], "tags": {"admin_level": "6", "boundary": "administrative"}}, {"type": "way", "id": 126925443, "nodes": [1406057222, 1406057379, 1406057561, 1406057576, 1406057591], "tags": {"admin_level": "4", "boundary": "administrative"}}, {"type": "way", "id": 126925499, "nodes": [1406057242, 1406057203, 1406057202, 1406057141, 1406056938], "tags": {"admin_level": "4", "boundary": "administrative"}}, {"type": "way", "id": 126925561, "nodes": [1406050790, 1406050787, 1406050750, 1406057582, 1406057492, 1406057562], "tags": {"admin_level": "4", "boundary": "administrative"}}, {"type": "way", "id": 126925624, "nodes": [1406050755, 1406050752, 1406057572, 1406057490, 1406057459, 1406057437, 11900396205, 11900396208], "tags": {"admin_level": "4", "boundary": "administrative"}}, {"type": "way", "id": 243641305, "nodes": [2510212530, 7909094098, 9025124153, 348404516, 1406057002], "tags": {"admin_level": "2", "border_type": "nation", "boundary": "administrative", "left:country": "\u0627\u0644\u0635\u0648\u0645\u0627\u0644", "name": "Ethiopia - Jamhuuriyadda Soomaaliland", "name:ar": "\u0625\u062b\u064a\u0648\u0628\u064a\u0627 - \u062c\u0645\u0647\u0648\u0631\u064a\u0629 \u0635\u0648\u0645\u0627\u0644\u064a\u0644\u0627\u0646\u062f", "name:en": "Ethiopia - Republic of Somaliland", "name:fr": "\u00c9thiopie - Republique du Somaliland", "right:country": "Ethiopia", "right:state": "Somali", "source": "maplibrary.org"}}, {"type": "way", "id": 1002440399, "nodes": [1406057227, 9251392790, 1406056995], "tags": {"admin_level": "2", "boundary": "administrative", "name": "Somalia - Republic of Somaliland"}}, {"type": "way", "id": 1007453958, "nodes": [1406057227, 1406057339], "tags": {"admin_level": "2", "boundary": "administrative", "left:country": "Somaliland", "name": "Somalia - Republic of Somaliland", "right:country": "Somalia"}}, {"type": "way", "id": 1218014088, "nodes": [1406057244, 11900396210], "tags": {"admin_level": "4", "boundary": "administrative"}}, {"type": "relation", "id": 1720066, "members": [{"type": "node", "ref": 1404224477, "role": "admin_centre"}, {"type": "node", "ref": 2208326505, "role": "label"}, {"type": "way", "ref": 126925244, "role": "outer"}, {"type": "way", "ref": 126925354, "role": "outer"}, {"type": "way", "ref": 126925250, "role": "outer"}, {"type": "way", "ref": 126925624, "role": "outer"}, {"type": "way", "ref": 126925326, "role": "outer"}, {"type": "way", "ref": 1218014088, "role": "outer"}, {"type": "way", "ref": 126925034, "role": "outer"}, {"type": "way", "ref": 126925499, "role": "outer"}, {"type": "way", "ref": 126924865, "role": "outer"}, {"type": "way", "ref": 126925336, "role": "outer"}, {"type": "way", "ref": 1002440399, "role": "outer"}, {"type": "way", "ref": 1007453958, "role": "outer"}, {"type": "way", "ref": 126925018, "role": "outer"}, {"type": "way", "ref": 126925010, "role": "outer"}], "tags": {"ISO3166-2": "SO-SO", "admin_level": "5", "boundary": "administrative", "name": "Sool \u0633\u0648\u0644", "name:ar": "\u0633\u0648\u0644", "name:de": "Sool", "name:en": "Sool", "name:es": "Sool", "name:fr": "Sool", "name:ru": "\u0421\u043e\u043b\u044c", "name:zh": "\u82cf\u5c14\u5dde", "source": "UN OCHA COD", "type": "boundary", "wikidata": "Q848864", "wikipedia": "ar:\u0635\u0648\u0644 (\u0627\u0644\u0635\u0648\u0645\u0627\u0644)"}}, {"type": "relation", "id": 1720067, "members": [{"type": "node", "ref": 43528150, "role": "label"}, {"type": "node", "ref": 12031126314, "role": "admin_centre"}, {"type": "way", "ref": 126924862, "role": "outer"}, {"type": "way", "ref": 126924866, "role": "outer"}, {"type": "way", "ref": 126925443, "role": "outer"}, {"type": "way", "ref": 126925205, "role": "outer"}, {"type": "way", "ref": 126925561, "role": "outer"}, {"type": "way", "ref": 126925081, "role": "outer"}, {"type": "way", "ref": 126925048, "role": "outer"}, {"type": "way", "ref": 126925326, "role": "outer"}, {"type": "way", "ref": 1218014088, "role": "outer"}, {"type": "way", "ref": 126925034, "role": "outer"}, {"type": "way", "ref": 126925499, "role": "outer"}, {"type": "way", "ref": 126924873, "role": "outer"}, {"type": "way", "ref": 243641305, "role": "outer"}], "tags": {"ISO3166-2": "SO-TO", "admin_level": "5", "boundary": "administrative", "name": "\u062a\u0648\u062c\u062f\u064a\u0631 Togdheer", "name:ar": "\u062a\u0648\u062c\u062f\u064a\u0631", "name:de": "Togdheer", "name:en": "Togdheer", "name:es": "Togdheer", "name:fr": "Togdheer", "name:ru": "\u0422\u043e\u0433\u0434\u0435\u0440", "name:zh": "\u6258\u683c\u4ee3\u5c14\u5dde", "source": "UN OCHA COD", "type": "boundary", "wikidata": "Q865590", "wikipedia": "ar:\u062a\u0648\u062c\u062f\u064a\u0631"}}, {"type": "relation", "id": 1720086, "members": [{"type": "way", "ref": 243641305, "role": "outer"}, {"type": "way", "ref": 126924862, "role": "outer"}, {"type": "way", "ref": 126925343, "role": "outer"}, {"type": "way", "ref": 126925561, "role": "outer"}, {"type": "way", "ref": 126925081, "role": "outer"}, {"type": "way", "ref": 126925048, "role": "outer"}, {"type": "way", "ref": 126925326, "role": "outer"}, {"type": "way", "ref": 126925396, "role": "outer"}, {"type": "node", "ref": 12031126314, "role": "admin_centre"}], "tags": {"admin_level": "6", "boundary": "administrative", "name": "Burco \u0628\u0631\u0639\u0648", "name:ar": "\u0628\u0631\u0639\u0648", "name:de": "Burao", "name:en": "Burao District", "name:fr": "Burao", "name:zh": "\u5e03\u62c9\u5965\u533a", "name:zu": "Burao District", "source": "UN OCHA COD", "type": "boundary", "wikidata": "Q4998120", "wikipedia": "en:Burao District"}}, {"type": "relation", "id": 1720088, "members": [{"type": "way", "ref": 126924873, "role": "outer"}, {"type": "way", "ref": 126925396, "role": "outer"}, {"type": "way", "ref": 1218014088, "role": "outer"}, {"type": "way", "ref": 126925034, "role": "outer"}, {"type": "way", "ref": 126925499, "role": "outer"}, {"type": "node", "ref": 9026659039, "role": "admin_centre"}], "tags": {"admin_level": "6", "alt_name": "Cayn", "alt_name:en": "Cayn", "alt_name:fr": "Cayn", "boundary": "administrative", "name": "Buuhoodle", "name:en": "Buhoodle District", "name:fr": "Buhoodle", "name:ru": "\u0411\u0443\u0445\u043e\u0434\u043b\u0435", "name:zh": "\u5e03\u80e1\u5fb7\u96f7\u5340", "name:zu": "Buhoodle District", "source": "UN OCHA COD", "type": "boundary", "wikidata": "Q4100542", "wikipedia": "en:Buhoodle District"}}, {"type": "relation", "id": 1720094, "members": [{"type": "node", "ref": 1404221791, "role": "admin_centre"}, {"type": "way", "ref": 126925037, "role": "outer"}, {"type": "way", "ref": 126925233, "role": "outer"}, {"type": "way", "ref": 126925034, "role": "outer"}, {"type": "way", "ref": 1218014088, "role": "outer"}, {"type": "way", "ref": 126925326, "role": "outer"}, {"type": "way", "ref": 126925624, "role": "outer"}], "tags": {"admin_level": "6", "boundary": "administrative", "name": "Caynabo", "name:en": "Aynabo District", "name:fr": "Aynabo", "source": "UN OCHA COD", "type": "boundary", "wikidata": "Q4831514"}}]}