{"version": 0.6, "generator": "Overpass API 0.7.62.1 084b4234", "osm3s": {"timestamp_osm_base": "2024-09-30T23:46:51Z", "copyright": "The data included in this document is from www.openstreetmap.org. The data is made available under ODbL."}, "elements": [{"type": "node", "id": 1150887988, "lat": 4.45, "lon": 39.75, "tags": {"is_in:country": "Ethiopia", "is_in:country_code": "ET", "name": "Gobbo", "place": "locality", "source": "GeoDatabase"}}, {"type": "node", "id": 1150893068, "lat": 4.28333, "lon": 39.93333, "tags": {"is_in:country": "Ethiopia", "is_in:country_code": "ET", "name": "El Ango", "place": "locality", "source": "GeoDatabase"}}, {"type": "node", "id": 1150893951, "lat": 4.16667, "lon": 39.71667, "tags": {"is_in:country": "Ethiopia", "is_in:country_code": "ET", "name": "Moyale Bota", "place": "locality", "source": "GeoDatabase"}}, {"type": "node", "id": 1150899950, "lat": 4.16667, "lon": 39.6, "tags": {"is_in:country": "Ethiopia", "is_in:country_code": "ET", "name": "Gebel Aliarma", "place": "locality", "source": "GeoDatabase"}}, {"type": "node", "id": 1150912930, "lat": 4.5, "lon": 39.8, "tags": {"is_in:country": "Ethiopia", "is_in:country_code": "ET", "name": "Guba Gulgullo", "place": "locality", "source": "GeoDatabase"}}, {"type": "node", "id": 1150914743, "lat": 4.51667, "lon": 39.56666, "tags": {"is_in:country": "Ethiopia", "is_in:country_code": "ET", "name": "Salole", "place": "locality", "source": "GeoDatabase"}}, {"type": "node", "id": 1150924751, "lat": 4.21667, "lon": 39.71667, "tags": {"is_in:country": "Ethiopia", "is_in:country_code": "ET", "name": "Gebel Dodo", "place": "locality", "source": "GeoDatabase"}}, {"type": "node", "id": 1150936314, "lat": 4.25, "lon": 39.55, "tags": {"is_in:country": "Ethiopia", "is_in:country_code": "ET", "name": "Cara", "place": "locality", "source": "GeoDatabase"}}, {"type": "node", "id": 1150956566, "lat": 4.51667, "lon": 39.8, "tags": {"is_in:country": "Ethiopia", "is_in:country_code": "ET", "name": "Mitata", "place": "locality", "source": "GeoDatabase"}}, {"type": "node", "id": 1150969162, "lat": 4.28861, "lon": 39.65, "tags": {"is_in:country": "Ethiopia", "is_in:country_code": "ET", "name": "Dambaldoro", "place": "locality", "source": "GeoDatabase"}}, {"type": "node", "id": 1150978919, "lat": 4.25, "lon": 39.83333, "tags": {"is_in:country": "Ethiopia", "is_in:country_code": "ET", "name": "El Dera", "place": "locality", "source": "GeoDatabase"}}, {"type": "node", "id": 1150980119, "lat": 4.28333, "lon": 39.7, "tags": {"is_in:country": "Ethiopia", "is_in:country_code": "ET", "name": "Dakka Dima", "place": "locality", "source": "GeoDatabase"}}, {"type": "node", "id": 2083625947, "lat": 4.4775447, "lon": 39.5931456, "tags": {"place": "village"}}, {"type": "node", "id": 2083937475, "lat": 4.5122971, "lon": 39.8637617, "tags": {"place": "village"}}, {"type": "node", "id": 2083937775, "lat": 4.4735567, "lon": 39.6209682, "tags": {"place": "village"}}]}