{"version": 0.6, "generator": "Overpass API 0.7.62.1 084b4234", "osm3s": {"timestamp_osm_base": "2024-09-30T21:10:24Z", "copyright": "The data included in this document is from www.openstreetmap.org. The data is made available under ODbL."}, "elements": [{"type": "node", "id": 1404221591, "lat": 1.4176, "lon": 43.199699, "tags": {"name": "Merefle Gumer", "pcode": "NA-3809-P27-001", "place": "village", "source": "UNDP - 1997"}}, {"type": "node", "id": 1404221613, "lat": 1.51165, "lon": 43.00997, "tags": {"name": "Buulo-Fuur", "pcode": "NA-3809-M23-002", "place": "hamlet", "source": "UNDP - 2006"}}, {"type": "node", "id": 1404223112, "lat": 1.4603, "lon": 43.16366, "tags": {"name": "Deerow Sanle", "pcode": "NA-3809-N26-001", "place": "village", "source": "UNDP - 2006"}}, {"type": "node", "id": 1404224517, "lat": 1.50787, "lon": 43.03394, "tags": {"name": "Buulo-Oomane", "pcode": "NA-3809-M23-001", "place": "hamlet", "source": "UNDP - 2006"}}, {"type": "node", "id": 1404224646, "lat": 1.168, "lon": 43.127998, "tags": {"name": "Cadduudo", "pcode": "NA-3809-V25-001", "place": "village", "source": "UNDP - 1997"}}, {"type": "node", "id": 1404229948, "lat": 1.52474, "lon": 43.28705, "tags": {"name": "Waambato", "pcode": "NA-3809-M29-001", "place": "village", "source": "UNDP - 2006"}}, {"type": "node", "id": 1404233182, "lat": 1.52478, "lon": 43.0288, "tags": {"name": "Buulo-Cadey", "pcode": "NA-3809-M23-003", "place": "hamlet", "source": "UNDP - 2006"}}]}