{"version": 0.6, "generator": "Overpass API 0.7.62.1 084b4234", "osm3s": {"timestamp_osm_base": "2024-09-30T17:05:00Z", "copyright": "The data included in this document is from www.openstreetmap.org. The data is made available under ODbL."}, "elements": [{"type": "node", "id": 44914393, "lat": 0.1933, "lon": 34.1894, "tags": {"is_in": "Siaya,Kenya", "name": "Ukwala", "place": "village", "wikidata": "Q3547884"}}, {"type": "node", "id": 44915463, "lat": 0.2025, "lon": 34.3636, "tags": {"name": "Sigomere", "place": "village"}}, {"type": "node", "id": 44915568, "lat": 0.1786216, "lon": 34.2120673, "tags": {"is_in": "Siaya,Kenya", "name": "Saranga", "place": "village"}}, {"type": "node", "id": 44922208, "lat": 0.1533608, "lon": 34.3345791, "tags": {"is_in": "Siaya,Kenya", "name": "Rang'ala", "place": "village"}}, {"type": "node", "id": 44924415, "lat": 0.0166, "lon": 34.35, "tags": {"name": "Nyang'oma", "place": "village"}}, {"type": "node", "id": 44925563, "lat": 0.1, "lon": 34.2, "tags": {"name": "Muweri", "place": "village", "wikidata": "Q6944290"}}, {"type": "node", "id": 44929649, "lat": 0.3266, "lon": 34.3155, "tags": {"created_by": "JOSM", "is_in": "Busia,Kenya", "name": "Marach", "place": "village"}}, {"type": "node", "id": 44998874, "lat": 0.2861, "lon": 34.2625, "tags": {"name": "Jera", "place": "village"}}, {"type": "node", "id": 44999839, "lat": 0.0236, "lon": 34.1858, "tags": {"name": "Kadenge", "place": "village", "wikidata": "Q6345370"}}, {"type": "node", "id": 45004897, "lat": 0.0666, "lon": 34.4333, "tags": {"name": "Akala", "place": "village"}}, {"type": "node", "id": 45004942, "lat": 0.17713, "lon": 34.272529, "tags": {"is_in": "Siaya,Kenya", "name": "Ambira", "place": "village", "wikidata": "Q4741500"}}, {"type": "node", "id": 45005146, "lat": 0.0593318, "lon": 34.2835138, "tags": {"name": "Siaya", "place": "town", "population": "22586", "wikidata": "Q2422035", "wikipedia": "en:Siaya"}}, {"type": "node", "id": 45005152, "lat": 0.2558, "lon": 34.2258, "tags": {"name": "Sega", "place": "town"}}, {"type": "node", "id": 45006071, "lat": 0.0858, "lon": 34.235, "tags": {"name": "Boro", "place": "village"}}, {"type": "node", "id": 45006108, "lat": 0.1888, "lon": 34.3341, "tags": {"is_in": "Siaya,Kenya", "name": "Buholo", "place": "village", "wikidata": "Q4986319"}}, {"type": "node", "id": 45006138, "lat": 0.3031139, "lon": 34.2024041, "tags": {"is_in": "Busia,Kenya", "name": "Bumala", "place": "town", "wikidata": "Q4997233", "wikipedia": "en:Bumala"}}, {"type": "node", "id": 45006532, "lat": 0.0275, "lon": 34.3161, "tags": {"name": "Baragulu", "place": "village", "wikidata": "Q4858187"}}, {"type": "node", "id": 45007131, "lat": 0.1166, "lon": 34.2666, "tags": {"created_by": "JOSM", "is_in": "Siaya,Kenya", "name": "Barkowino", "place": "village"}}, {"type": "node", "id": 45007139, "lat": 0.0, "lon": 34.2, "tags": {"name": "Bar Olengo", "place": "village", "wikidata": "Q4857955"}}, {"type": "node", "id": 45007145, "lat": 0.1086, "lon": 34.2816, "tags": {"is_in": "Siaya,Kenya", "name": "Baroseno", "place": "village", "wikidata": "Q4863058"}}, {"type": "node", "id": 1180574846, "lat": 0.0529253, "lon": 34.4337351, "tags": {"name": "Wagai", "place": "village"}}, {"type": "node", "id": 1850329991, "lat": 0.1567748, "lon": 34.3646202, "tags": {"name": "Simenya centre", "place": "village"}}, {"type": "node", "id": 1854160605, "lat": 0.1811616, "lon": 34.2964709, "tags": {"name": "Ugunja", "place": "town", "wikidata": "Q7193602"}}, {"type": "node", "id": 1855232674, "lat": 0.1563726, "lon": 34.3453001, "tags": {"name": "Simerro", "place": "village"}}, {"type": "node", "id": 1863967788, "lat": 0.1548411, "lon": 34.3807269, "tags": {"designation": "Market Centre", "name": "Sidindi", "place": "town"}}, {"type": "node", "id": 1875638260, "lat": 0.1575579, "lon": 34.3535213, "tags": {"name": "kakoth", "place": "village"}}, {"type": "node", "id": 2144233519, "lat": 0.3612657, "lon": 34.4007793, "tags": {"place": "village"}}, {"type": "node", "id": 3641109254, "lat": -0.0082658, "lon": 34.344402, "tags": {"name": "K'ogelo", "place": "village"}}, {"type": "node", "id": 3864633958, "lat": 0.037036, "lon": 34.4230416, "tags": {"name": "Komouk", "place": "village"}}, {"type": "node", "id": 3864633967, "lat": -0.003004, "lon": 34.3970628, "tags": {"name": "Apouche/Apuoyo", "place": "village"}}, {"type": "node", "id": 3865297078, "lat": -0.001362, "lon": 34.2633647, "tags": {"name": "Mur Malanga", "place": "village"}}, {"type": "node", "id": 3865297281, "lat": -0.0236994, "lon": 34.2835993, "tags": {"name": "Tin'Gwangi", "place": "village"}}, {"type": "node", "id": 3865297309, "lat": -0.0282055, "lon": 34.3119234, "tags": {"name": "Gori", "place": "village"}}, {"type": "node", "id": 10537901139, "lat": 0.0456132, "lon": 34.3706372, "tags": {"name": "Ng'iya", "place": "village"}}, {"type": "node", "id": 10583871535, "lat": 0.0164596, "lon": 34.3231518, "tags": {"name": "Barding", "place": "village"}}, {"type": "node", "id": 10606649833, "lat": 0.2142908, "lon": 34.2672463, "tags": {"name": "Ligega", "place": "village"}}, {"type": "node", "id": 10606705550, "lat": 0.0959387, "lon": 34.4347115, "tags": {"name": "Nyawara", "place": "village"}}, {"type": "node", "id": 10718462041, "lat": 0.056722, "lon": 34.2750065, "tags": {"name": "Awelo", "place": "village"}}, {"type": "node", "id": 10718514268, "lat": 0.0404996, "lon": 34.3344104, "tags": {"name": "Dondi", "place": "village"}}, {"type": "node", "id": 10718541086, "lat": -0.0113678, "lon": 34.3039839, "tags": {"name": "Pap Gori", "place": "village"}}, {"type": "node", "id": 10718550816, "lat": 0.0219353, "lon": 34.3457527, "tags": {"name": "Pap Nyadiel", "place": "village"}}, {"type": "node", "id": 10718742596, "lat": 0.1363916, "lon": 34.380143, "tags": {"name": "Ndere", "place": "village"}}, {"type": "node", "id": 10718765388, "lat": 0.0979947, "lon": 34.2235664, "tags": {"name": "Nyangoma", "place": "village"}}, {"type": "node", "id": 10718881451, "lat": 0.1783149, "lon": 34.2099286, "tags": {"name": "Siranga", "place": "village"}}, {"type": "node", "id": 10718883273, "lat": 0.2268265, "lon": 34.2492227, "tags": {"name": "Got Nanga", "place": "village"}}, {"type": "node", "id": 10718898099, "lat": 0.2716002, "lon": 34.2439938, "tags": {"name": "Udira", "place": "village"}}, {"type": "node", "id": 10718923200, "lat": 0.1528579, "lon": 34.3252868, "tags": {"name": "Rangala", "place": "village"}}, {"type": "node", "id": 10718953190, "lat": 0.1372004, "lon": 34.3809791, "tags": {"name": "Ndere", "place": "village"}}, {"type": "node", "id": 10718979568, "lat": 0.0235493, "lon": 34.1747078, "tags": {"name": "Ratuoro", "place": "village"}}, {"type": "node", "id": 10719004191, "lat": 0.20685, "lon": 34.268762, "tags": {"name": "Ulumba", "place": "village"}}, {"type": "node", "id": 10719037320, "lat": 0.2069327, "lon": 34.3038918, "tags": {"name": "Rambula", "place": "village"}}, {"type": "node", "id": 10719049686, "lat": 0.2250307, "lon": 34.3512198, "tags": {"name": "Asango", "place": "village"}}, {"type": "node", "id": 10719087332, "lat": 0.3024617, "lon": 34.3808262, "tags": {"name": "Kodongo", "place": "village"}}, {"type": "node", "id": 10719100224, "lat": 0.2863584, "lon": 34.293281, "tags": {"name": "Ramunde", "place": "village"}}, {"type": "node", "id": 10720565135, "lat": 0.194433, "lon": 34.1895265, "tags": {"name": "Ukwala", "place": "village"}}, {"type": "node", "id": 10720573705, "lat": 0.2663161, "lon": 34.1866255, "tags": {"name": "Kagonya", "place": "village"}}, {"type": "node", "id": 10725043914, "lat": 0.0758938, "lon": 34.1729767, "tags": {"name": "Nyalaji", "place": "village"}}, {"type": "node", "id": 10732339366, "lat": 0.1972598, "lon": 34.4322551, "tags": {"name": "Mayingo", "place": "village"}}, {"type": "node", "id": 10734563255, "lat": 0.1913352, "lon": 34.4223279, "tags": {"name": "Wang'tong", "place": "village"}}, {"type": "node", "id": 10756116472, "lat": 0.1988699, "lon": 34.2813315, "tags": {"name": "Dendyo", "place": "village"}}, {"type": "node", "id": 10790035136, "lat": 0.0782079, "lon": 34.3695096, "tags": {"name": "Usula", "place": "village"}}, {"type": "node", "id": 10819745567, "lat": 0.2481817, "lon": 34.1819413, "tags": {"name": "Uyundo", "place": "village"}}, {"type": "node", "id": 10826663994, "lat": 0.2010113, "lon": 34.3734358, "tags": {"name": "Bungasi", "place": "village"}}, {"type": "node", "id": 10826754076, "lat": 0.0695599, "lon": 34.2487249, "tags": {"name": "Lwanda", "place": "village"}}, {"type": "node", "id": 10826782643, "lat": 0.2546382, "lon": 34.2516426, "tags": {"name": "Ligala", "place": "village"}}, {"type": "node", "id": 10826933010, "lat": 0.1620443, "lon": 34.271316, "tags": {"name": "Ngunya", "place": "village"}}, {"type": "node", "id": 10827086837, "lat": 0.2700778, "lon": 34.292694, "tags": {"name": "Urenga", "place": "village"}}, {"type": "node", "id": 10827089665, "lat": 0.168801, "lon": 34.4056085, "tags": {"name": "Sikalame", "place": "village"}}, {"type": "node", "id": 10827138108, "lat": 0.2978796, "lon": 34.3254319, "tags": {"name": "Kathieno A", "place": "village"}}, {"type": "node", "id": 10827138109, "lat": 0.2666391, "lon": 34.3366448, "tags": {"name": "Kathieno B", "place": "village"}}, {"type": "node", "id": 10827138110, "lat": 0.281552, "lon": 34.3700196, "tags": {"name": "Kathieno C", "place": "village"}}, {"type": "node", "id": 10827138111, "lat": 0.0457197, "lon": 34.283806, "tags": {"name": "Lwala", "place": "neighbourhood"}}, {"type": "node", "id": 10827138112, "lat": 0.0693304, "lon": 34.2480197, "tags": {"name": "Lwanda", "place": "village"}}, {"type": "node", "id": 10827138115, "lat": 0.072632, "lon": 34.317639, "tags": {"name": "Ogwato", "place": "village"}}, {"type": "node", "id": 10827138117, "lat": 0.0620935, "lon": 34.2803257, "tags": {"name": "Siaya Police Lines", "place": "neighbourhood"}}, {"type": "node", "id": 10827138118, "lat": 0.0878599, "lon": 34.3921318, "tags": {"name": "Sirembe", "place": "village"}}, {"type": "node", "id": 10827138119, "lat": 0.0144088, "lon": 34.2098942, "tags": {"name": "Ugumba", "place": "village"}}, {"type": "node", "id": 10827138121, "lat": 0.0610461, "lon": 34.2396379, "tags": {"name": "Urim", "place": "village"}}, {"type": "node", "id": 10827138122, "lat": -0.0205516, "lon": 34.2747686, "tags": {"name": "Uyemba", "place": "village"}}, {"type": "node", "id": 10827138123, "lat": 0.0311102, "lon": 34.2701346, "tags": {"name": "Achage", "place": "village"}}, {"type": "node", "id": 10827138124, "lat": 0.0486702, "lon": 34.3277803, "tags": {"name": "Agage", "place": "village"}}, {"type": "node", "id": 10827138125, "lat": 0.0402229, "lon": 34.2999275, "tags": {"name": "Agoro-Lieye", "place": "village"}}, {"type": "node", "id": 10827138126, "lat": 0.0587582, "lon": 34.3390115, "tags": {"name": "Aluny", "place": "village"}}, {"type": "node", "id": 10827138127, "lat": 0.037714, "lon": 34.2832924, "tags": {"name": "Anduro", "place": "village"}}, {"type": "node", "id": 10827138128, "lat": 0.0665531, "lon": 34.2670359, "tags": {"name": "Futro", "place": "village"}}, {"type": "node", "id": 10827138129, "lat": 0.0750281, "lon": 34.2090654, "tags": {"name": "Kalenjuok", "place": "village"}}, {"type": "node", "id": 10827138130, "lat": 0.1169697, "lon": 34.2093672, "tags": {"name": "Nyasita", "place": "village"}}, {"type": "node", "id": 10827138131, "lat": 0.090245, "lon": 34.2070403, "tags": {"name": "Unyolo", "place": "village"}}, {"type": "node", "id": 10827138132, "lat": 0.0526101, "lon": 34.2158343, "tags": {"name": "Kubar", "place": "village"}}, {"type": "node", "id": 10827138133, "lat": 0.1436992, "lon": 34.1906762, "tags": {"name": "Malomba", "place": "village"}}, {"type": "node", "id": 10827138136, "lat": 0.0099476, "lon": 34.3601345, "tags": {"name": "Nduru", "place": "village"}}, {"type": "node", "id": 10827138137, "lat": 0.1299462, "lon": 34.2475551, "tags": {"name": "Ngura", "place": "village"}}, {"type": "node", "id": 10827138138, "lat": 0.1938724, "lon": 34.3441863, "tags": {"name": "Ninga", "place": "village"}}, {"type": "node", "id": 10827138139, "lat": 0.0449916, "lon": 34.2332731, "tags": {"name": "Nyakongo", "place": "village"}}, {"type": "node", "id": 10827138140, "lat": -0.0190452, "lon": 34.2711972, "tags": {"name": "Ochilo", "place": "village"}}, {"type": "node", "id": 10827138141, "lat": 0.0704249, "lon": 34.2503151, "tags": {"name": "Pap Kakan", "place": "village"}}, {"type": "node", "id": 10827138143, "lat": -0.000175, "lon": 34.2698373, "tags": {"name": "Rakuom", "place": "village"}}, {"type": "node", "id": 10827138144, "lat": 0.0698445, "lon": 34.3699826, "tags": {"name": "Tula", "place": "village"}}, {"type": "node", "id": 10827138145, "lat": 0.189181, "lon": 34.3172665, "tags": {"name": "Uref", "place": "village"}}, {"type": "node", "id": 10829991095, "lat": 0.0437893, "lon": 34.2491014, "tags": {"name": "Nyandiwa", "place": "village"}}, {"type": "node", "id": 10829991097, "lat": 0.0758798, "lon": 34.4293222, "tags": {"name": "Siriwo", "place": "village"}}, {"type": "node", "id": 10840009020, "lat": 0.0936529, "lon": 34.424396, "tags": {"name": "Ndagaria B", "place": "village"}}, {"type": "node", "id": 10840009033, "lat": 0.1323325, "lon": 34.4176391, "tags": {"name": "Nalo B", "place": "village"}}, {"type": "node", "id": 10844510251, "lat": 0.1449325, "lon": 34.3991762, "tags": {"name": "Wamure", "place": "village"}}, {"type": "node", "id": 10844510252, "lat": 0.1387277, "lon": 34.38116, "tags": {"name": "Waudi", "place": "village"}}, {"type": "node", "id": 10844510253, "lat": 0.1336468, "lon": 34.3734889, "tags": {"name": "Ukungu", "place": "village"}}, {"type": "node", "id": 10859999371, "lat": 0.2564046, "lon": 34.2893337, "tags": {"name": "Nyabera", "place": "village"}}, {"type": "node", "id": 10859999372, "lat": 0.277094, "lon": 34.2618824, "tags": {"name": "Nyamsenda", "place": "village"}}, {"type": "node", "id": 10859999374, "lat": 0.2568196, "lon": 34.2241371, "tags": {"name": "Kogere", "place": "village"}}, {"type": "node", "id": 10859999376, "lat": 0.1738602, "lon": 34.2584336, "tags": {"name": "Umina", "place": "village"}}, {"type": "node", "id": 10859999378, "lat": 0.2442729, "lon": 34.394915, "tags": {"name": "Ngop Msengini", "place": "village"}}, {"type": "node", "id": 10859999380, "lat": 0.2647181, "lon": 34.3910155, "tags": {"name": "Ukalama", "place": "village"}}, {"type": "node", "id": 10859999381, "lat": 0.2077432, "lon": 34.3110918, "tags": {"name": "Uwala", "place": "village"}}, {"type": "node", "id": 10859999383, "lat": 0.1934818, "lon": 34.4296751, "tags": {"name": "Ruwe", "place": "village"}}, {"type": "node", "id": 10859999392, "lat": 0.0192594, "lon": 34.3443355, "tags": {"name": "Pap Nyadiel", "place": "village"}}, {"type": "node", "id": 10859999408, "lat": 0.1377766, "lon": 34.2582353, "tags": {"name": "Agulu", "place": "village"}}, {"type": "node", "id": 10878120536, "lat": 0.1203607, "lon": 34.3683769, "tags": {"name": "Ujimbe", "place": "village"}}, {"type": "node", "id": 10878152812, "lat": 0.1131484, "lon": 34.3861888, "tags": {"name": "Asayi", "place": "village"}}, {"type": "node", "id": 10882937148, "lat": 0.0046185, "lon": 34.320426, "tags": {"name": "Nyamsenda", "place": "village"}}, {"type": "node", "id": 10882974061, "lat": 0.0773348, "lon": 34.4037959, "tags": {"name": "Kamatindo B", "place": "village"}}, {"type": "node", "id": 10882980871, "lat": 0.051014, "lon": 34.4148498, "tags": {"name": "Kadhasi A1", "place": "village"}}, {"type": "node", "id": 10883068141, "lat": 0.0682515, "lon": 34.3941276, "tags": {"name": "Kawiri", "place": "village"}}, {"type": "node", "id": 10883080257, "lat": 0.0547338, "lon": 34.4330757, "tags": {"name": "Wi Aluor A1", "place": "village"}}, {"type": "node", "id": 10883094872, "lat": -0.0243836, "lon": 34.3907331, "tags": {"name": "Konyango B", "place": "village"}}, {"type": "node", "id": 10883131028, "lat": 0.0613749, "lon": 34.3788688, "tags": {"name": "Ahono", "place": "village"}}, {"type": "node", "id": 10883146738, "lat": -0.0002467, "lon": 34.4289881, "tags": {"name": "Kotoo C", "place": "village"}}, {"type": "node", "id": 10883161673, "lat": -0.0241881, "lon": 34.4164784, "tags": {"name": "Kasiwa", "place": "village"}}, {"type": "node", "id": 10883607476, "lat": 0.0229556, "lon": 34.4189676, "tags": {"name": "Kamsao B", "place": "village"}}, {"type": "node", "id": 10883611362, "lat": 0.0512944, "lon": 34.4124893, "tags": {"name": "Kakwany A", "place": "village"}}, {"type": "node", "id": 10883615878, "lat": 0.0525476, "lon": 34.4326199, "tags": {"name": "Ginga B1", "place": "village"}}, {"type": "node", "id": 10883617841, "lat": 0.0130408, "lon": 34.4290905, "tags": {"name": "Kanyanaya", "place": "village"}}, {"type": "node", "id": 10883640214, "lat": 0.0489064, "lon": 34.4104675, "tags": {"name": "Kadhasi A11", "place": "village"}}, {"type": "node", "id": 10883640323, "lat": -0.0021289, "lon": 34.4237408, "tags": {"name": "Kotoo B", "place": "village"}}, {"type": "node", "id": 10883686537, "lat": 0.002517, "lon": 34.431964, "tags": {"name": "Kanyilaji A", "place": "village"}}, {"type": "node", "id": 10883960007, "lat": -0.0026419, "lon": 34.3968597, "tags": {"name": "Kadibuo", "place": "village"}}, {"type": "node", "id": 10888940258, "lat": 0.2124825, "lon": 34.2447034, "tags": {"name": "Mban/Masambra", "place": "village"}}, {"type": "node", "id": 10888943376, "lat": 0.2008237, "lon": 34.3984741, "tags": {"name": "Busaasi", "place": "village"}}, {"type": "node", "id": 10888959349, "lat": 0.107342, "lon": 34.1967039, "tags": {"name": "Kolal", "place": "village"}}, {"type": "node", "id": 10888969368, "lat": 0.1080727, "lon": 34.1858393, "tags": {"name": "Tangla", "place": "village"}}, {"type": "node", "id": 10888974774, "lat": 0.1269829, "lon": 34.2169268, "tags": {"name": "Miyonga", "place": "village"}}, {"type": "node", "id": 10888978541, "lat": 0.1389193, "lon": 34.2765606, "tags": {"name": "Uhembo", "place": "village"}}, {"type": "node", "id": 10888988922, "lat": 0.1412957, "lon": 34.193968, "tags": {"name": "Komenya/Rabar", "place": "village"}}, {"type": "node", "id": 10888989056, "lat": 0.153298, "lon": 34.3345545, "tags": {"name": "Jamba", "place": "village"}}, {"type": "node", "id": 10888996885, "lat": 0.1039392, "lon": 34.3062097, "tags": {"name": "Kikomba", "place": "village"}}, {"type": "node", "id": 10899156019, "lat": 0.1812465, "lon": 34.3595854, "tags": {"name": "Mung'ao", "place": "village"}}, {"type": "node", "id": 10899209426, "lat": 0.3081552, "lon": 34.3350515, "tags": {"name": "Inungo", "place": "village"}}, {"type": "node", "id": 10907418140, "lat": 0.1760673, "lon": 34.1760015, "tags": {"name": "Sikinga A", "place": "village"}}, {"type": "node", "id": 10907436545, "lat": 0.2369513, "lon": 34.2698955, "tags": {"name": "Mtam", "place": "village"}}, {"type": "node", "id": 10907438879, "lat": 0.0989378, "lon": 34.3524802, "tags": {"name": "Ondero", "place": "village"}}, {"type": "node", "id": 10907439033, "lat": 0.267504, "lon": 34.2657039, "tags": {"name": "Kirindo A", "place": "village"}}, {"type": "node", "id": 10907439053, "lat": 0.2238425, "lon": 34.2411886, "tags": {"name": "Ugogwa", "place": "village"}}, {"type": "node", "id": 10907441524, "lat": 0.2780909, "lon": 34.2142087, "tags": {"name": "Kakumba/Nyambiro/Urunga Uhwak/Obwogere", "place": "village"}}, {"type": "node", "id": 10907458234, "lat": 0.1481777, "lon": 34.2436667, "tags": {"name": "Ouru Wo Roya", "place": "village"}}, {"type": "node", "id": 10907460292, "lat": 0.3184801, "lon": 34.2803086, "tags": {"name": "Buhalalire", "place": "village"}}, {"type": "node", "id": 10907470175, "lat": 0.1109187, "lon": 34.2152102, "tags": {"name": "Kodiero", "place": "village"}}, {"type": "node", "id": 10917781728, "lat": 0.3446264, "lon": 34.343103, "tags": {"name": "Butula", "place": "village"}}, {"type": "node", "id": 10946832716, "lat": -0.0226544, "lon": 34.3227758, "tags": {"name": "Ojwando A", "place": "village"}}, {"type": "node", "id": 10992169612, "lat": 0.2555493, "lon": 34.1793831, "tags": {"name": "Kwadielman", "place": "village"}}, {"type": "node", "id": 10992169616, "lat": 0.2604639, "lon": 34.226884, "tags": {"name": "Nyamwang", "place": "village"}}, {"type": "node", "id": 11116036499, "lat": 0.2260746, "lon": 34.2679997, "tags": {"name": "Nyawara", "place": "village"}}, {"type": "node", "id": 11140327938, "lat": 0.361306, "lon": 34.1808861, "tags": {"name": "Okoa", "place": "village"}}, {"type": "node", "id": 11491220326, "lat": 0.2467631, "lon": 34.4070914, "tags": {"name": "Sundusia B", "place": "village"}}, {"type": "node", "id": 11491220327, "lat": 0.2562729, "lon": 34.4115464, "tags": {"name": "Khushipari A", "place": "village"}}, {"type": "node", "id": 11491220330, "lat": 0.2248563, "lon": 34.3945484, "tags": {"name": "Umala Gul", "place": "village"}}]}