{"version": 0.6, "generator": "Overpass API 0.7.62.1 084b4234", "osm3s": {"timestamp_osm_base": "2024-09-30T22:09:45Z", "copyright": "The data included in this document is from www.openstreetmap.org. The data is made available under ODbL."}, "elements": [{"type": "node", "id": 1150882037, "lat": 11.66667, "lon": 39.85, "tags": {"is_in:country_code": "ET", "is_in:county": "Ethiopia", "name": "Belina", "place": "locality", "source": "GeoDatabase"}}, {"type": "node", "id": 1150882768, "lat": 11.5, "lon": 39.93333, "tags": {"is_in:country": "Ethiopia", "is_in:country_code": "ET", "name": "Lewlew", "place": "locality", "source": "GeoDatabase"}}, {"type": "node", "id": 1150885659, "lat": 11.48333, "lon": 39.95, "tags": {"is_in:country": "Ethiopia", "is_in:country_code": "ET", "name": "Lige", "place": "locality", "source": "GeoDatabase"}}, {"type": "node", "id": 1150885730, "lat": 11.5, "lon": 39.91667, "tags": {"is_in:country": "Ethiopia", "is_in:country_code": "ET", "name": "Dodota", "place": "locality", "source": "GeoDatabase"}}, {"type": "node", "id": 1150886330, "lat": 11.43333, "lon": 39.88333, "tags": {"is_in:country": "Ethiopia", "is_in:country_code": "ET", "name": "Ejersa", "place": "locality", "source": "GeoDatabase"}}, {"type": "node", "id": 1150886389, "lat": 11.41667, "lon": 40.05, "tags": {"is_in:country": "Ethiopia", "is_in:country_code": "ET", "name": "Dermadu", "place": "locality", "source": "GeoDatabase"}}, {"type": "node", "id": 1150888165, "lat": 11.58333, "lon": 40.0, "tags": {"is_in:country_code": "ET", "is_in:county": "Ethiopia", "name": "Ambasel Awraja", "place": "locality", "source": "GeoDatabase"}}, {"type": "node", "id": 1150889486, "lat": 11.6, "lon": 39.96667, "tags": {"is_in:country_code": "ET", "is_in:county": "Ethiopia", "name": "Hamarko Terara", "place": "locality", "source": "GeoDatabase"}}, {"type": "node", "id": 1150892279, "lat": 11.58333, "lon": 40.06666, "tags": {"is_in:country_code": "ET", "is_in:county": "Ethiopia", "name": "Ch'Ifra Meda", "place": "locality", "source": "GeoDatabase"}}, {"type": "node", "id": 1150895880, "lat": 11.6, "lon": 39.95, "tags": {"is_in:country_code": "ET", "is_in:county": "Ethiopia", "name": "Wekelo Shet'", "place": "locality", "source": "GeoDatabase"}}, {"type": "node", "id": 1150898950, "lat": 11.65, "lon": 40.0, "tags": {"is_in:country_code": "ET", "is_in:county": "Ethiopia", "name": "Bulbula", "place": "locality", "source": "GeoDatabase"}}, {"type": "node", "id": 1150899369, "lat": 11.6986552, "lon": 39.8751672, "tags": {"GNS:id": "-615047", "alt_name": "Kilawa", "name": "K'Ilawa", "place": "hamlet"}}, {"type": "node", "id": 1150901324, "lat": 11.56667, "lon": 39.81666, "tags": {"is_in:country_code": "ET", "is_in:county": "Ethiopia", "name": "Waho", "place": "locality", "source": "GeoDatabase"}}, {"type": "node", "id": 1150902113, "lat": 11.55, "lon": 39.93333, "tags": {"is_in:country_code": "ET", "is_in:county": "Ethiopia", "name": "K'Urmi", "place": "locality", "source": "GeoDatabase"}}, {"type": "node", "id": 1150908798, "lat": 11.51667, "lon": 39.95, "tags": {"is_in:country_code": "ET", "is_in:county": "Ethiopia", "name": "K'Elk'Esha", "place": "locality", "source": "GeoDatabase"}}, {"type": "node", "id": 1150908882, "lat": 11.5, "lon": 39.88333, "tags": {"is_in:country": "Ethiopia", "is_in:country_code": "ET", "name": "Sheh Kemal Mesgid", "place": "locality", "source": "GeoDatabase"}}, {"type": "node", "id": 1150909085, "lat": 11.48333, "lon": 40.0, "tags": {"is_in:country": "Ethiopia", "is_in:country_code": "ET", "name": "Dembel", "place": "locality", "source": "GeoDatabase"}}, {"type": "node", "id": 1150909232, "lat": 11.53333, "lon": 39.91667, "tags": {"is_in:country_code": "ET", "is_in:county": "Ethiopia", "name": "Mengudo", "place": "locality", "source": "GeoDatabase"}}, {"type": "node", "id": 1150915176, "lat": 11.6033251, "lon": 40.0162457, "tags": {"name": "Chifra", "place": "town", "source": "GeoDatabase"}}, {"type": "node", "id": 1150917897, "lat": 11.45, "lon": 40.0, "tags": {"is_in:country": "Ethiopia", "is_in:country_code": "ET", "name": "Bila", "place": "locality", "source": "GeoDatabase"}}, {"type": "node", "id": 1150918208, "lat": 11.6, "lon": 39.98333, "tags": {"is_in:country_code": "ET", "is_in:county": "Ethiopia", "name": "Geriro", "place": "locality", "source": "GeoDatabase"}}, {"type": "node", "id": 1150926649, "lat": 11.45, "lon": 39.96667, "tags": {"is_in:country": "Ethiopia", "is_in:country_code": "ET", "name": "Gedida", "place": "locality", "source": "GeoDatabase"}}, {"type": "node", "id": 1150926925, "lat": 11.53333, "lon": 39.96667, "tags": {"is_in:country_code": "ET", "is_in:county": "Ethiopia", "name": "Ch'Ini", "place": "locality", "source": "GeoDatabase"}}, {"type": "node", "id": 1150931444, "lat": 11.53333, "lon": 39.83333, "tags": {"is_in:country_code": "ET", "is_in:county": "Ethiopia", "name": "Meneyo", "place": "locality", "source": "GeoDatabase"}}, {"type": "node", "id": 1150934342, "lat": 11.58333, "lon": 40.05, "tags": {"is_in:country_code": "ET", "is_in:county": "Ethiopia", "name": "Uodedsca", "place": "locality", "source": "GeoDatabase"}}, {"type": "node", "id": 1150936408, "lat": 11.7, "lon": 39.85, "tags": {"is_in:country_code": "ET", "is_in:county": "Ethiopia", "name": "Sebensa", "place": "locality", "source": "GeoDatabase"}}, {"type": "node", "id": 1150939275, "lat": 11.56667, "lon": 39.93333, "tags": {"is_in:country_code": "ET", "is_in:county": "Ethiopia", "name": "Ilala", "place": "locality", "source": "GeoDatabase"}}, {"type": "node", "id": 1150949006, "lat": 11.55, "lon": 39.86667, "tags": {"is_in:country_code": "ET", "is_in:county": "Ethiopia", "name": "Gelana Shet'", "place": "locality", "source": "GeoDatabase"}}, {"type": "node", "id": 1150959983, "lat": 11.46667, "lon": 40.01667, "tags": {"is_in:country": "Ethiopia", "is_in:country_code": "ET", "name": "Delay Mele", "place": "locality", "source": "GeoDatabase"}}, {"type": "node", "id": 1150960293, "lat": 11.63333, "lon": 39.96667, "tags": {"is_in:country_code": "ET", "is_in:county": "Ethiopia", "name": "K'Urk'Ura Shet'", "place": "locality", "source": "GeoDatabase"}}, {"type": "node", "id": 1150960466, "lat": 11.45, "lon": 39.91667, "tags": {"is_in:country": "Ethiopia", "is_in:country_code": "ET", "name": "Gende Gora", "place": "locality", "source": "GeoDatabase"}}, {"type": "node", "id": 1150971102, "lat": 11.43333, "lon": 39.98333, "tags": {"is_in:country": "Ethiopia", "is_in:country_code": "ET", "name": "Hamerko", "place": "locality", "source": "GeoDatabase"}}, {"type": "node", "id": 1150971459, "lat": 11.53333, "lon": 39.98333, "tags": {"is_in:country_code": "ET", "is_in:county": "Ethiopia", "name": "Ch'Iftu", "place": "locality", "source": "GeoDatabase"}}, {"type": "node", "id": 1150973853, "lat": 11.56667, "lon": 39.83333, "tags": {"is_in:country_code": "ET", "is_in:county": "Ethiopia", "name": "Waho", "place": "locality", "source": "GeoDatabase"}}, {"type": "node", "id": 1150975857, "lat": 11.5, "lon": 40.0, "tags": {"is_in:country": "Ethiopia", "is_in:country_code": "ET", "name": "Welo Kifle Hager", "place": "locality", "source": "GeoDatabase"}}, {"type": "node", "id": 1150977118, "lat": 11.6, "lon": 40.05, "tags": {"is_in:country_code": "ET", "is_in:county": "Ethiopia", "name": "Mede'Ani Shet'", "place": "locality", "source": "GeoDatabase"}}, {"type": "node", "id": 1151002103, "lat": 11.66667, "lon": 39.91667, "tags": {"is_in:country_code": "ET", "is_in:county": "Ethiopia", "name": "Jeggiu", "place": "locality", "source": "GeoDatabase"}}, {"type": "node", "id": 2148000745, "lat": 11.4409736, "lon": 39.8793269, "tags": {"name": "Bokoksa", "place": "town"}}, {"type": "node", "id": 2148000749, "lat": 11.4929442, "lon": 39.9559293, "tags": {"name": "Arabati", "place": "village"}}, {"type": "node", "id": 3241267265, "lat": 11.7042756, "lon": 39.8739473, "tags": {"place": "hamlet"}}]}