{"version": 0.6, "generator": "Overpass API 0.7.62.1 084b4234", "osm3s": {"timestamp_osm_base": "2024-09-30T23:14:58Z", "copyright": "The data included in this document is from www.openstreetmap.org. The data is made available under ODbL."}, "elements": [{"type": "node", "id": 1150880739, "lat": 5.03333, "lon": 41.83333, "tags": {"is_in:country": "Ethiopia", "is_in:country_code": "ET", "name": "Dugacio", "place": "locality", "source": "GeoDatabase"}}, {"type": "node", "id": 1150882743, "lat": 5.06667, "lon": 41.7, "tags": {"is_in:country": "Ethiopia", "is_in:country_code": "ET", "name": "Udo", "place": "locality", "source": "GeoDatabase"}}, {"type": "node", "id": 1150886023, "lat": 5.3, "lon": 41.9, "tags": {"is_in:country": "Ethiopia", "is_in:country_code": "ET", "name": "Giapto", "place": "locality", "source": "GeoDatabase"}}, {"type": "node", "id": 1150887803, "lat": 5.03333, "lon": 41.98333, "tags": {"is_in:country": "Ethiopia", "is_in:country_code": "ET", "name": "Elgodudo", "place": "locality", "source": "GeoDatabase"}}, {"type": "node", "id": 1150898622, "lat": 5.0659677, "lon": 41.8928364, "tags": {"is_in:country": "Ethiopia", "is_in:country_code": "ET", "name": "Ballei", "place": "locality", "source": "GeoDatabase"}}, {"type": "node", "id": 1150902086, "lat": 5.13333, "lon": 41.81666, "tags": {"is_in:country": "Ethiopia", "is_in:country_code": "ET", "name": "Marmaro", "place": "locality", "source": "GeoDatabase"}}, {"type": "node", "id": 1150909627, "lat": 5.3213195, "lon": 41.8865669, "tags": {"country": "ET", "name": "Irdolei", "place": "village", "source": "GeoDatabase"}}, {"type": "node", "id": 1150913124, "lat": 5.06667, "lon": 41.96667, "tags": {"is_in:country": "Ethiopia", "is_in:country_code": "ET", "name": "Dimtu", "place": "locality", "source": "GeoDatabase"}}, {"type": "node", "id": 1150920455, "lat": 5.4, "lon": 41.98333, "tags": {"is_in:country": "Ethiopia", "is_in:country_code": "ET", "name": "Scimber Belei", "place": "locality", "source": "GeoDatabase"}}, {"type": "node", "id": 1150922696, "lat": 5.31667, "lon": 42.06666, "tags": {"is_in:country": "Ethiopia", "is_in:country_code": "ET", "name": "Hargele", "place": "locality", "source": "GeoDatabase"}}, {"type": "node", "id": 1150925152, "lat": 5.16667, "lon": 41.73333, "tags": {"is_in:country": "Ethiopia", "is_in:country_code": "ET", "name": "Erer", "place": "locality", "source": "GeoDatabase"}}, {"type": "node", "id": 1150956719, "lat": 5.1, "lon": 41.95, "tags": {"is_in:country": "Ethiopia", "is_in:country_code": "ET", "name": "Coldei", "place": "locality", "source": "GeoDatabase"}}, {"type": "node", "id": 1150961116, "lat": 5.33333, "lon": 41.83333, "tags": {"is_in:country": "Ethiopia", "is_in:country_code": "ET", "name": "Malka Ciratti", "place": "locality", "source": "GeoDatabase"}}, {"type": "node", "id": 1150966851, "lat": 5.35, "lon": 42.01667, "tags": {"is_in:country": "Ethiopia", "is_in:country_code": "ET", "name": "Bolcot", "place": "locality", "source": "GeoDatabase"}}, {"type": "node", "id": 1150968281, "lat": 5.0986475, "lon": 41.8741372, "tags": {"is_in:country": "Ethiopia", "is_in:country_code": "ET", "name": "Malca Badiere", "place": "locality", "source": "GeoDatabase"}}, {"type": "node", "id": 1150982119, "lat": 5.23333, "lon": 41.91667, "tags": {"is_in:country": "Ethiopia", "is_in:country_code": "ET", "name": "Malca Geligodud", "place": "locality", "source": "GeoDatabase"}}, {"type": "node", "id": 3192091040, "lat": 5.363136, "lon": 41.8603778, "tags": {"place": "hamlet"}}, {"type": "node", "id": 3192091042, "lat": 5.3370032, "lon": 41.8827508, "tags": {"alt_name": "Melka Chereti;Cherati;Chireti;Cherti;Cherti;Malca Chiratti;Malka Chiratti", "name": "Melka Chireti", "place": "town", "population": "5152", "wikidata": "Q96392566"}}, {"type": "node", "id": 3192104173, "lat": 5.2385338, "lon": 41.866572, "tags": {"place": "hamlet"}}, {"type": "node", "id": 3192104187, "lat": 5.0874829, "lon": 41.8802538, "tags": {"place": "hamlet"}}, {"type": "node", "id": 6689778305, "lat": 5.3033431, "lon": 41.8979555, "tags": {"place": "hamlet"}}, {"type": "node", "id": 6689778330, "lat": 5.2604417, "lon": 41.8916094, "tags": {"place": "village"}}, {"type": "node", "id": 6689778715, "lat": 5.2768674, "lon": 41.9014543, "tags": {"place": "hamlet"}}, {"type": "node", "id": 6691877326, "lat": 5.3710984, "lon": 41.8491501, "tags": {"place": "hamlet"}}, {"type": "node", "id": 6697660698, "lat": 5.3545228, "lon": 41.6793475, "tags": {"place": "hamlet"}}, {"type": "node", "id": 6699202113, "lat": 5.3847762, "lon": 41.8434423, "tags": {"place": "hamlet"}}]}