{"version": 0.6, "generator": "Overpass API 0.7.62.1 084b4234", "osm3s": {"timestamp_osm_base": "2024-09-30T17:13:14Z", "copyright": "The data included in this document is from www.openstreetmap.org. The data is made available under ODbL."}, "elements": [{"type": "node", "id": 1404221589, "lat": 0.5319, "lon": 41.497799, "tags": {"name": "Sencor Gherbic", "pcode": "NA-3716-M22-001", "place": "village", "source": "UNDP - 1997"}}, {"type": "node", "id": 1404221907, "lat": 0.2483, "lon": 41.4529, "tags": {"name": "Cuis Dera", "pcode": "NA-3716-U21-002", "place": "locality", "source": "UNDP - 1997"}}, {"type": "node", "id": 1404222788, "lat": 0.3046243, "lon": 41.4393408, "tags": {"alt_name": "Taabta;Taabto", "name": "Tabta", "pcode": "NA-3716-S21-001", "place": "village", "source": "FSAU"}}, {"type": "node", "id": 1404224362, "lat": 0.2997, "lon": 41.297199, "tags": {"name": "Gheldezza", "pcode": "NA-3716-S18-001", "place": "locality", "source": "UNDP - 1997"}}, {"type": "node", "id": 1404224592, "lat": 0.1679, "lon": 41.4217, "tags": {"name": "Baddana", "pcode": "NA-3716-V21-001", "place": "village", "source": "UNDP - 1997"}}, {"type": "node", "id": 1404225063, "lat": 0.2296, "lon": 41.43, "tags": {"name": "Gale Bussi", "pcode": "NA-3716-U21-001", "place": "locality", "source": "UNDP - 1997"}}, {"type": "node", "id": 1404225715, "lat": 0.55, "lon": 41.548901, "tags": {"name": "Sencor Melbe", "pcode": "NA-3716-L24-001", "place": "village", "source": "UNDP - 1997"}}, {"type": "node", "id": 1404227185, "lat": 0.5311, "lon": 41.430099, "tags": {"name": "Bogi Bacadle", "pcode": "NA-3716-M21-001", "place": "village", "source": "UNDP - 1997"}}, {"type": "node", "id": 1404229931, "lat": 0.1517, "lon": 41.420601, "tags": {"name": "Danis Sipi", "pcode": "NA-3716-W21-001", "place": "village", "source": "UNDP - 1997"}}, {"type": "node", "id": 1404231152, "lat": 0.3043499, "lon": 41.4828334, "tags": {"name": "Diriye", "pcode": "NA-3716-S22-001", "place": "locality", "source": "FSAU"}}, {"type": "node", "id": 1404231480, "lat": 0.5526, "lon": 41.4193, "tags": {"name": "Caw", "pcode": "NA-3716-L21-001", "place": "village", "source": "UNDP - 1997"}}, {"type": "node", "id": 1404231773, "lat": 0.1724, "lon": 41.319, "tags": {"name": "Camora Bali", "pcode": "NA-3716-V19-001", "place": "village", "source": "UNDP - 1997"}}, {"type": "node", "id": 1404231955, "lat": 0.27944, "lon": 41.26965, "tags": {"name": "Hawindha", "pcode": "NA-3716-T17-001", "place": "locality", "source": "FSAU"}}, {"type": "node", "id": 1404232788, "lat": 0.5283, "lon": 41.252701, "tags": {"name": "Dicu", "pcode": "NA-3716-M17-001", "place": "village", "source": "UNDP - 1997"}}, {"type": "node", "id": 9980041916, "lat": 0.3008184, "lon": 41.4352079, "tags": {"place": "hamlet"}}, {"type": "node", "id": 9980042361, "lat": 0.2866737, "lon": 41.3311137, "tags": {"place": "hamlet"}}, {"type": "node", "id": 9986237886, "lat": 0.4982596, "lon": 41.4309414, "tags": {"place": "isolated_dwelling"}}, {"type": "node", "id": 10091786952, "lat": 0.432596, "lon": 41.1563838, "tags": {"place": "isolated_dwelling"}}, {"type": "node", "id": 10091891150, "lat": 0.3767591, "lon": 41.2020189, "tags": {"place": "isolated_dwelling"}}, {"type": "node", "id": 10109371752, "lat": 0.3144874, "lon": 41.2312871, "tags": {"place": "isolated_dwelling"}}, {"type": "node", "id": 10111879277, "lat": 0.4908543, "lon": 41.1503434, "tags": {"place": "isolated_dwelling"}}, {"type": "node", "id": 10113653496, "lat": 0.4006276, "lon": 41.1725628, "tags": {"place": "isolated_dwelling"}}, {"type": "node", "id": 10113653548, "lat": 0.3895315, "lon": 41.1894044, "tags": {"place": "isolated_dwelling"}}, {"type": "node", "id": 10119073068, "lat": 0.3360789, "lon": 41.2010828, "tags": {"place": "isolated_dwelling"}}, {"type": "node", "id": 10119073076, "lat": 0.3437338, "lon": 41.1979151, "tags": {"place": "isolated_dwelling"}}, {"type": "node", "id": 10119073101, "lat": 0.3420225, "lon": 41.198068, "tags": {"place": "isolated_dwelling"}}, {"type": "node", "id": 10119086752, "lat": 0.3327315, "lon": 41.1832166, "tags": {"place": "isolated_dwelling"}}, {"type": "node", "id": 10119086778, "lat": 0.3263319, "lon": 41.1822778, "tags": {"place": "hamlet"}}, {"type": "node", "id": 10125485115, "lat": 0.4196734, "lon": 41.171498, "tags": {"place": "isolated_dwelling"}}, {"type": "node", "id": 10768743128, "lat": 0.4509462, "lon": 41.5376689, "tags": {"place": "isolated_dwelling"}}, {"type": "node", "id": 10768743129, "lat": 0.452397, "lon": 41.5318274, "tags": {"place": "isolated_dwelling"}}, {"type": "node", "id": 10768743597, "lat": 0.4432367, "lon": 41.5325898, "tags": {"place": "isolated_dwelling"}}]}