{"version": 0.6, "generator": "Overpass API 0.7.62.1 084b4234", "osm3s": {"timestamp_osm_base": "2024-09-30T20:10:57Z", "copyright": "The data included in this document is from www.openstreetmap.org. The data is made available under ODbL."}, "elements": [{"type": "node", "id": 1404221488, "lat": 8.9975224, "lon": 49.2715572, "tags": {"name": "Oisame", "pcode": "NC-3913-A28-001", "place": "hamlet", "source": "UNDP - 1997"}}, {"type": "node", "id": 1404222118, "lat": 8.8209, "lon": 48.9328, "tags": {"fixme": "Please, check location!", "name": "Nar", "pcode": "NC-3913-E21-001", "place": "village", "source": "UNDP - 1997"}}, {"type": "node", "id": 1404222567, "lat": 8.985661, "lon": 49.262687, "tags": {"fixme": "Please, check location!", "name": "Qabaal", "pcode": "NC-3913-A28-002", "place": "hamlet", "source": "UNDP - 1997"}}, {"type": "node", "id": 1404223236, "lat": 8.81879, "lon": 48.89346, "tags": {"alt_name": "Guun", "name": "Cuun", "pcode": "NC-3913-E20-002", "place": "village", "source": "KEMRI - 2007, UNDP - 2006"}}, {"type": "node", "id": 1404223438, "lat": 8.8011, "lon": 48.871498, "tags": {"name": "El Chebed", "pcode": "NC-3913-E20-001", "place": "village", "source": "UNDP - 1997"}}, {"type": "node", "id": 1404223876, "lat": 8.7698, "lon": 49.202499, "tags": {"fixme": "Please, check location!", "name": "Kelyexeed", "pcode": "NC-3913-F27-001", "place": "village", "source": "UNDP - 1997"}}, {"type": "node", "id": 1404225090, "lat": 8.99713, "lon": 48.89067, "tags": {"name": "Yibaal", "pcode": "NC-3913-A20-002", "place": "hamlet", "source": "UNDP - 2006"}}, {"type": "node", "id": 1404226059, "lat": 8.99413, "lon": 49.26637, "tags": {"alt_name": "Xaji Kheyr", "name": "Xaaji Khayr", "pcode": "NC-3913-A28-003", "place": "village", "source": "UNDP - 2006, UNDP - 1997, FSAU"}}, {"type": "node", "id": 1404229002, "lat": 8.8227, "lon": 49.0228, "tags": {"name": "Laas Dalbshan", "pcode": "NC-3913-E23-001", "place": "locality", "source": "UNDP - 1997"}}, {"type": "node", "id": 1404229521, "lat": 9.09009, "lon": 49.21289, "tags": {"alt_name": "Iskushub", "name": "Shire", "pcode": "NC-3909-X27-001", "place": "village", "source": "UNDP - 2006, UNDP - 1997, FSAU"}}, {"type": "node", "id": 1404230028, "lat": 8.99743, "lon": 48.896624, "tags": {"alt_name": "Bar Madobeh", "name": "Baar Madoobeye", "pcode": "NC-3913-A20-001", "place": "hamlet", "source": "GTZ - 2002, UNDP - 1997"}}, {"type": "node", "id": 1404230755, "lat": 8.9784, "lon": 49.0014, "tags": {"fixme": "Please, check location!", "name": "Farahgeri", "pcode": "NC-3913-A23-001", "place": "village", "source": "UNDP - 1997"}}, {"type": "node", "id": 1404231984, "lat": 8.7285, "lon": 49.117802, "tags": {"fixme": "Please, check location!", "name": "Bihiyo", "pcode": "NC-3913-G25-001", "place": "locality", "source": "UNDP - 1997"}}, {"type": "node", "id": 9817150892, "lat": 8.7158474, "lon": 48.9960676, "tags": {"place": "hamlet"}}]}