{"version": 0.6, "generator": "Overpass API 0.7.62.1 084b4234", "osm3s": {"timestamp_osm_base": "2024-09-30T18:14:26Z", "copyright": "The data included in this document is from www.openstreetmap.org. The data is made available under ODbL."}, "elements": [{"type": "node", "id": 44915195, "lat": 3.562807, "lon": 38.6436056, "tags": {"is_in": "Marsabit,Kenya", "name": "Sololo", "place": "village", "wikidata": "Q7558520", "wikipedia": "en:Sololo"}}, {"type": "node", "id": 1150883050, "lat": 3.55, "lon": 38.88333, "tags": {"is_in:country": "Ethiopia", "is_in:country_code": "ET", "name": "Odo Waichu", "place": "locality", "source": "GeoDatabase"}}, {"type": "node", "id": 1150883491, "lat": 3.61667, "lon": 38.88333, "tags": {"is_in:country": "Ethiopia", "is_in:country_code": "ET", "name": "Hilintu", "place": "locality", "source": "GeoDatabase"}}, {"type": "node", "id": 1150892181, "lat": 3.63333, "lon": 38.8, "tags": {"is_in:country": "Ethiopia", "is_in:country_code": "ET", "name": "Tuk'A", "place": "locality", "source": "GeoDatabase"}}, {"type": "node", "id": 1150899196, "lat": 3.61667, "lon": 38.8, "tags": {"is_in:country": "Ethiopia", "is_in:country_code": "ET", "name": "Mudo", "place": "locality", "source": "GeoDatabase"}}, {"type": "node", "id": 1150903260, "lat": 3.6, "lon": 38.9, "tags": {"is_in:country": "Ethiopia", "is_in:country_code": "ET", "name": "Obo", "place": "locality", "source": "GeoDatabase"}}, {"type": "node", "id": 1150920461, "lat": 3.63333, "lon": 38.91667, "tags": {"is_in:country": "Ethiopia", "is_in:country_code": "ET", "name": "Ketala", "place": "locality", "source": "GeoDatabase"}}, {"type": "node", "id": 1150925219, "lat": 3.55, "lon": 38.91667, "tags": {"is_in:country": "Ethiopia", "is_in:country_code": "ET", "name": "Golole", "place": "locality", "source": "GeoDatabase"}}, {"type": "node", "id": 1150931240, "lat": 3.6, "lon": 38.93333, "tags": {"is_in:country": "Ethiopia", "is_in:country_code": "ET", "name": "Daka Baru", "place": "locality", "source": "GeoDatabase"}}, {"type": "node", "id": 1150943285, "lat": 3.65, "lon": 38.9, "tags": {"is_in:country": "Ethiopia", "is_in:country_code": "ET", "name": "Tuk'A", "place": "locality", "source": "GeoDatabase"}}, {"type": "node", "id": 1150945672, "lat": 3.61667, "lon": 38.6, "tags": {"is_in:country": "Ethiopia", "is_in:country_code": "ET", "name": "Werda", "place": "locality", "source": "GeoDatabase"}}, {"type": "node", "id": 1150949900, "lat": 3.65, "lon": 38.8, "tags": {"is_in:country": "Ethiopia", "is_in:country_code": "ET", "name": "Tuk'A", "place": "locality", "source": "GeoDatabase"}}, {"type": "node", "id": 1150953839, "lat": 3.56667, "lon": 38.83333, "tags": {"is_in:country": "Ethiopia", "is_in:country_code": "ET", "name": "Kilta", "place": "locality", "source": "GeoDatabase"}}, {"type": "node", "id": 1150955838, "lat": 3.61667, "lon": 38.86667, "tags": {"is_in:country": "Ethiopia", "is_in:country_code": "ET", "name": "O'Odesi", "place": "locality", "source": "GeoDatabase"}}]}