{"version": 0.6, "generator": "Overpass API 0.7.62.1 084b4234", "osm3s": {"timestamp_osm_base": "2024-09-30T23:01:43Z", "copyright": "The data included in this document is from www.openstreetmap.org. The data is made available under ODbL."}, "elements": [{"type": "node", "id": 1150881428, "lat": 8.71028, "lon": 41.63722, "tags": {"is_in:country": "Ethiopia", "is_in:country_code": "ET", "name": "Obo", "place": "locality", "source": "GeoDatabase"}}, {"type": "node", "id": 1150882321, "lat": 8.79111, "lon": 41.56917, "tags": {"is_in:country": "Ethiopia", "is_in:country_code": "ET", "name": "Jido", "place": "locality", "source": "GeoDatabase"}}, {"type": "node", "id": 1150882697, "lat": 8.72694, "lon": 41.70722, "tags": {"is_in:country": "Ethiopia", "is_in:country_code": "ET", "name": "Deneba Shet'", "place": "locality", "source": "GeoDatabase"}}, {"type": "node", "id": 1150883294, "lat": 8.76111, "lon": 41.74805, "tags": {"is_in:country": "Ethiopia", "is_in:country_code": "ET", "name": "Burana", "place": "locality", "source": "GeoDatabase"}}, {"type": "node", "id": 1150886604, "lat": 8.67722, "lon": 41.79167, "tags": {"is_in:country": "Ethiopia", "is_in:country_code": "ET", "name": "Gorogarbi", "place": "locality", "source": "GeoDatabase"}}, {"type": "node", "id": 1150887502, "lat": 8.98306, "lon": 41.81055, "tags": {"is_in:country": "Ethiopia", "is_in:country_code": "ET", "name": "Ch'Irecha", "place": "locality", "source": "GeoDatabase"}}, {"type": "node", "id": 1150891252, "lat": 8.76583, "lon": 41.56666, "tags": {"is_in:country": "Ethiopia", "is_in:country_code": "ET", "name": "Uarreris", "place": "locality", "source": "GeoDatabase"}}, {"type": "node", "id": 1150893510, "lat": 8.8046755, "lon": 41.7887246, "tags": {"is_in:country": "Ethiopia", "is_in:country_code": "ET", "name": "Doroba Shet'", "place": "locality", "source": "GeoDatabase"}}, {"type": "node", "id": 1150896787, "lat": 8.86667, "lon": 41.55, "tags": {"is_in:country": "Ethiopia", "is_in:country_code": "ET", "name": "Turturagutta", "place": "locality", "source": "GeoDatabase"}}, {"type": "node", "id": 1150896976, "lat": 8.8775, "lon": 41.77333, "tags": {"is_in:country": "Ethiopia", "is_in:country_code": "ET", "name": "Lafto Shet'", "place": "locality", "source": "GeoDatabase"}}, {"type": "node", "id": 1150898411, "lat": 8.67278, "lon": 41.8475, "tags": {"is_in:country": "Ethiopia", "is_in:country_code": "ET", "name": "Sengo Ch'Ulul", "place": "locality", "source": "GeoDatabase"}}, {"type": "node", "id": 1150899847, "lat": 8.97778, "lon": 41.78055, "tags": {"is_in:country": "Ethiopia", "is_in:country_code": "ET", "name": "Lafto (2)", "place": "locality", "source": "GeoDatabase"}}, {"type": "node", "id": 1150900221, "lat": 8.72722, "lon": 41.5575, "tags": {"is_in:country": "Ethiopia", "is_in:country_code": "ET", "name": "Bereda Bota", "place": "locality", "source": "GeoDatabase"}}, {"type": "node", "id": 1150907951, "lat": 8.95472, "lon": 41.68361, "tags": {"is_in:country": "Ethiopia", "is_in:country_code": "ET", "name": "Kembolcha", "place": "locality", "source": "GeoDatabase"}}, {"type": "node", "id": 1150908146, "lat": 8.7, "lon": 41.65, "tags": {"is_in:country": "Ethiopia", "is_in:country_code": "ET", "name": "Gola", "place": "locality", "source": "GeoDatabase"}}, {"type": "node", "id": 1150912192, "lat": 8.68389, "lon": 41.89194, "tags": {"is_in:country": "Ethiopia", "is_in:country_code": "ET", "name": "Dero", "place": "locality", "source": "GeoDatabase"}}, {"type": "node", "id": 1150912211, "lat": 8.75444, "lon": 41.54056, "tags": {"is_in:country": "Ethiopia", "is_in:country_code": "ET", "name": "Bereda", "place": "locality", "source": "GeoDatabase"}}, {"type": "node", "id": 1150912254, "lat": 8.67917, "lon": 41.71722, "tags": {"is_in:country": "Ethiopia", "is_in:country_code": "ET", "name": "Modzho Sheleko", "place": "locality", "source": "GeoDatabase"}}, {"type": "node", "id": 1150920157, "lat": 8.91306, "lon": 41.705, "tags": {"is_in:country": "Ethiopia", "is_in:country_code": "ET", "name": "Bifedo", "place": "locality", "source": "GeoDatabase"}}, {"type": "node", "id": 1150920802, "lat": 8.93278, "lon": 41.80361, "tags": {"is_in:country": "Ethiopia", "is_in:country_code": "ET", "name": "Gerbi", "place": "locality", "source": "GeoDatabase"}}, {"type": "node", "id": 1150923220, "lat": 9.00861, "lon": 41.69028, "tags": {"is_in:country": "Ethiopia", "is_in:country_code": "ET", "name": "Bedeno", "place": "locality", "source": "GeoDatabase"}}, {"type": "node", "id": 1150927872, "lat": 8.89722, "lon": 41.76166, "tags": {"is_in:country": "Ethiopia", "is_in:country_code": "ET", "name": "Lafto (1)", "place": "locality", "source": "GeoDatabase"}}, {"type": "node", "id": 1150933908, "lat": 8.93333, "lon": 41.81666, "tags": {"is_in:country": "Ethiopia", "is_in:country_code": "ET", "name": "Haweysa Yeterara Senselet", "place": "locality", "source": "GeoDatabase"}}, {"type": "node", "id": 1150942348, "lat": 8.70972, "lon": 41.71028, "tags": {"is_in:country": "Ethiopia", "is_in:country_code": "ET", "name": "Doroba", "place": "locality", "source": "GeoDatabase"}}, {"type": "node", "id": 1150942768, "lat": 9.01694, "lon": 41.64278, "tags": {"is_in:country": "Ethiopia", "is_in:country_code": "ET", "name": "Mumicha", "place": "locality", "source": "GeoDatabase"}}, {"type": "node", "id": 1150946616, "lat": 8.82389, "lon": 41.79028, "tags": {"is_in:country": "Ethiopia", "is_in:country_code": "ET", "name": "Ciulul", "place": "locality", "source": "GeoDatabase"}}, {"type": "node", "id": 1150963206, "lat": 8.92972, "lon": 41.65833, "tags": {"is_in:country": "Ethiopia", "is_in:country_code": "ET", "name": "Deneba (1)", "place": "locality", "source": "GeoDatabase"}}, {"type": "node", "id": 1150968732, "lat": 8.95, "lon": 41.55, "tags": {"is_in:country": "Ethiopia", "is_in:country_code": "ET", "name": "Genemi Mika'El Bete Kristiyan", "place": "locality", "source": "GeoDatabase"}}, {"type": "node", "id": 1150969121, "lat": 8.96306, "lon": 41.63389, "tags": {"is_in:country": "Ethiopia", "is_in:country_code": "ET", "name": "Tortora Yeterara Senselet", "place": "locality", "source": "GeoDatabase"}}, {"type": "node", "id": 1150969672, "lat": 8.64806, "lon": 41.855, "tags": {"is_in:country": "Ethiopia", "is_in:country_code": "ET", "name": "Gugufi Shet'", "place": "locality", "source": "GeoDatabase"}}, {"type": "node", "id": 1150969722, "lat": 8.84222, "lon": 41.84444, "tags": {"is_in:country": "Ethiopia", "is_in:country_code": "ET", "name": "Gicha Terara", "place": "locality", "source": "GeoDatabase"}}, {"type": "node", "id": 1151002741, "lat": 8.805, "lon": 41.605, "tags": {"is_in:country": "Ethiopia", "is_in:country_code": "ET", "name": "Sebro Terara", "place": "locality", "source": "GeoDatabase"}}, {"type": "node", "id": 1151004071, "lat": 8.87722, "lon": 41.77333, "tags": {"is_in:country": "Ethiopia", "is_in:country_code": "ET", "name": "Kile Shet'", "place": "locality", "source": "GeoDatabase"}}, {"type": "node", "id": 2150450301, "lat": 8.8193918, "lon": 41.56828, "tags": {"name": "Burka", "place": "town"}}, {"type": "node", "id": 2151469173, "lat": 8.9485069, "lon": 41.5546271, "tags": {"name": "Genemi", "place": "village"}}, {"type": "node", "id": 2151469236, "lat": 8.966879, "lon": 41.5587041, "tags": {"place": "village"}}, {"type": "node", "id": 2151469245, "lat": 8.6577798, "lon": 41.8465354, "tags": {"name": "Huse", "place": "town"}}, {"type": "node", "id": 2151480909, "lat": 9.020176, "lon": 41.6077131, "tags": {"place": "village"}}, {"type": "node", "id": 2151481322, "lat": 8.9406543, "lon": 41.6576237, "tags": {"place": "village"}}, {"type": "node", "id": 2151527640, "lat": 9.0155137, "lon": 41.8387049, "tags": {"place": "village"}}, {"type": "node", "id": 2151527698, "lat": 8.9468649, "lon": 41.8276006, "tags": {"place": "village"}}, {"type": "node", "id": 10296983812, "lat": 8.9320829, "lon": 41.5401029, "tags": {"place": "hamlet"}}, {"type": "node", "id": 10296983815, "lat": 8.9121559, "lon": 41.5758089, "tags": {"place": "village"}}]}