{"version": 0.6, "generator": "Overpass API 0.7.62.1 084b4234", "osm3s": {"timestamp_osm_base": "2024-09-30T20:45:58Z", "copyright": "The data included in this document is from www.openstreetmap.org. The data is made available under ODbL."}, "elements": [{"type": "node", "id": 1404221651, "lat": 2.13908, "lon": 43.566872, "tags": {"name": "Jaag Ura", "pcode": "NA-3806-W02-001", "place": "village", "source": "UNDP - 1997"}}, {"type": "node", "id": 1404221972, "lat": 2.170891, "lon": 43.565394, "tags": {"name": "Hilowkey", "pcode": "NA-3806-V02-001", "place": "village", "source": "UNDP - 2006"}}, {"type": "node", "id": 1404222212, "lat": 2.14518, "lon": 43.72095, "tags": {"name": "Nusbiile", "pcode": "NA-3806-W05-006", "place": "village", "source": "UNDP - 2006"}}, {"type": "node", "id": 1404222547, "lat": 2.1206, "lon": 43.54725, "tags": {"name": "Xagar", "pcode": "NA-3806-X02-001", "place": "hamlet", "source": "UNDP - 2006"}}, {"type": "node", "id": 1404222716, "lat": 2.06118, "lon": 43.56254, "tags": {"name": "Dhoomale", "pcode": "NA-3806-Y02-001", "place": "village", "source": "UNDP - 2006"}}, {"type": "node", "id": 1404223295, "lat": 2.16602, "lon": 43.68329, "tags": {"name": "Yaaqlow", "pcode": "NA-3806-W05-008", "place": "village", "source": "UNDP - 2006"}}, {"type": "node", "id": 1404223375, "lat": 2.14495, "lon": 43.69432, "tags": {"name": "Qalan Gashe", "pcode": "NA-3806-W05-005", "place": "village", "source": "UNDP - 2006"}}, {"type": "node", "id": 1404223886, "lat": 2.14437, "lon": 43.69096, "tags": {"name": "Caliyow Yuuqow", "pcode": "NA-3806-W05-004", "place": "village", "source": "UNDP - 2006"}}, {"type": "node", "id": 1404224059, "lat": 2.12846, "lon": 43.62844, "tags": {"name": "Shimbir Shiigshiig", "pcode": "NA-3806-W03-001", "place": "village", "source": "UNDP - 2006"}}, {"type": "node", "id": 1404224169, "lat": 2.13876, "lon": 43.62843, "tags": {"name": "Garas Bule", "pcode": "NA-3806-W03-002", "place": "village", "source": "UNDP - 2006"}}, {"type": "node", "id": 1404224580, "lat": 2.1418, "lon": 43.68922, "tags": {"name": "Burgood", "pcode": "NA-3806-W05-003", "place": "village", "source": "UNDP - 2006"}}, {"type": "node", "id": 1404224820, "lat": 2.10971, "lon": 43.5714, "tags": {"name": "Warshaamow", "pcode": "NA-3806-X02-002", "place": "locality", "source": "UNDP - 2006"}}, {"type": "node", "id": 1404225083, "lat": 2.15099, "lon": 43.68927, "tags": {"name": "Gel-Geli Wiin", "pcode": "NA-3806-W05-007", "place": "village", "source": "UNDP - 2006"}}, {"type": "node", "id": 1404225178, "lat": 2.17843, "lon": 43.63261, "tags": {"name": "Degi-Iriiley", "pcode": "NA-3806-V03-002", "place": "village", "source": "UNDP - 2006"}}, {"type": "node", "id": 1404225254, "lat": 2.11459, "lon": 43.5695, "tags": {"name": "Iskaashiti", "pcode": "NA-3806-X02-004", "place": "hamlet", "source": "UNDP - 2006"}}, {"type": "node", "id": 1404225529, "lat": 2.0795903, "lon": 43.7811651, "tags": {"name": "Bulaabul", "pcode": "NA-3806-Y07-001", "place": "village", "source": "UNDP - 2006"}}, {"type": "node", "id": 1404227256, "lat": 2.13829, "lon": 43.68507, "tags": {"name": "Buulo Caliyow Sheekh", "pcode": "NA-3806-W05-002", "place": "village", "source": "UNDP - 2006"}}, {"type": "node", "id": 1404227343, "lat": 2.17296, "lon": 43.56841, "tags": {"name": "Kuul-Macalin", "pcode": "NA-3806-V02-004", "place": "village", "source": "UNDP - 2006"}}, {"type": "node", "id": 1404227692, "lat": 2.11183, "lon": 43.57115, "tags": {"name": "Barked", "pcode": "NA-3806-X02-003", "place": "hamlet", "source": "UNDP - 2006"}}, {"type": "node", "id": 1404227696, "lat": 2.13816, "lon": 43.71205, "tags": {"name": "Buulo Galooshi", "pcode": "NA-3806-W05-001", "place": "village", "source": "UNDP - 2006"}}, {"type": "node", "id": 1404229805, "lat": 2.11657, "lon": 43.68972, "tags": {"name": "Buulo Cabdiyow Bore", "pcode": "NA-3806-X05-001", "place": "village", "source": "UNDP - 2006"}}, {"type": "node", "id": 1404229957, "lat": 2.12054, "lon": 43.56322, "tags": {"name": "Quudiga", "pcode": "NA-3806-X02-006", "place": "village", "source": "UNDP - 2006"}}, {"type": "node", "id": 1404230135, "lat": 2.17749, "lon": 43.62724, "tags": {"name": "Tofiiq", "pcode": "NA-3806-V03-001", "place": "village", "source": "UNDP - 2006"}}, {"type": "node", "id": 1404230142, "lat": 2.13535, "lon": 43.68165, "tags": {"name": "Burqod-Wiin", "pcode": "NA-3806-W04-001", "place": "village", "source": "UNDP - 2006"}}, {"type": "node", "id": 1404230273, "lat": 2.17246, "lon": 43.56461, "tags": {"name": "Hilowkey-Wiin", "pcode": "NA-3806-V02-002", "place": "village", "source": "UNDP - 2006"}}, {"type": "node", "id": 1404230841, "lat": 2.11512, "lon": 43.56851, "tags": {"name": "Yeel Dhaayow", "pcode": "NA-3806-X02-005", "place": "hamlet", "source": "UNDP - 2006"}}, {"type": "node", "id": 1404231150, "lat": 2.17038, "lon": 43.570457, "tags": {"name": "Buulo-Gurbi", "pcode": "NA-3806-V02-003", "place": "village", "source": "UNDP - 2006"}}, {"type": "node", "id": 1404231701, "lat": 2.10179, "lon": 43.67905, "tags": {"name": "Galool-Eedin Mahad", "pcode": "NA-3806-X04-001", "place": "village", "source": "UNDP - 2006"}}, {"type": "node", "id": 1404231859, "lat": 2.12381, "lon": 43.68796, "tags": {"name": "Buulo Garas", "pcode": "NA-3806-X05-003", "place": "village", "source": "UNDP - 2006"}}, {"type": "node", "id": 1404232253, "lat": 2.2662, "lon": 43.646149, "tags": {"name": "Ramo Dheer", "pcode": "NA-3806-T04-001", "place": "village", "source": "UNDP - 1997"}}, {"type": "node", "id": 1404232827, "lat": 2.10394, "lon": 43.72933, "tags": {"name": "Buulo-Eebin-Kabey", "pcode": "NA-3806-X06-001", "place": "village", "source": "UNDP - 2006"}}, {"type": "node", "id": 1404233018, "lat": 2.12257, "lon": 43.63379, "tags": {"name": "Adabli-Oomin", "pcode": "NA-3806-X03-001", "place": "village", "source": "UNDP - 2006"}}, {"type": "node", "id": 1404233453, "lat": 2.12283, "lon": 43.69075, "tags": {"name": "Buulo-Aw Yusuf", "pcode": "NA-3806-X05-002", "place": "village", "source": "UNDP - 2006"}}, {"type": "node", "id": 1404233492, "lat": 2.20198, "lon": 43.600639, "tags": {"name": "Xagarow", "pcode": "NA-3806-V03-003", "place": "village", "source": "UNDP - 1997"}}, {"type": "node", "id": 1404233529, "lat": 2.16485, "lon": 43.68178, "tags": {"name": "Lowi-Kuus", "pcode": "NA-3806-W04-002", "place": "village", "source": "UNDP - 2006"}}, {"type": "node", "id": 1404233809, "lat": 2.0227, "lon": 43.652699, "tags": {"name": "Goloole Bar", "pcode": "NA-3806-Z04-001", "place": "village", "source": "UNDP - 1997"}}]}