{"version": 0.6, "generator": "Overpass API 0.7.62.1 084b4234", "osm3s": {"timestamp_osm_base": "2024-09-30T17:38:13Z", "copyright": "The data included in this document is from www.openstreetmap.org. The data is made available under ODbL."}, "elements": [{"type": "node", "id": 44924190, "lat": -2.4696758, "lon": 40.190509, "tags": {"is_in:county": "Tana River", "name": "Oda", "place": "village"}}, {"type": "node", "id": 44924982, "lat": -2.4099015, "lon": 40.2001525, "tags": {"name": "Ngao", "place": "village", "wikidata": "Q7022018"}}, {"type": "node", "id": 44925804, "lat": -2.4333, "lon": 40.2, "tags": {"name": "Mwanathumba", "place": "village", "wikidata": "Q6944651"}}, {"type": "node", "id": 44927907, "lat": -2.3166, "lon": 40.1166, "tags": {"name": "Minjila", "place": "village", "wikidata": "Q15253476"}}, {"type": "node", "id": 44933441, "lat": -2.3523386, "lon": 40.1436313, "tags": {"name": "Kibusu", "place": "village", "wikidata": "Q6416687"}}, {"type": "node", "id": 44990031, "lat": -2.3484279, "lon": 40.1249855, "tags": {"is_in:county": "Tana River", "name": "Shirikisho", "place": "village"}}, {"type": "node", "id": 44996428, "lat": -2.6440391, "lon": 40.1952267, "tags": {"name": "Karawa", "place": "village"}}, {"type": "node", "id": 45001823, "lat": -2.455131, "lon": 40.1916292, "tags": {"name": "Golbanti", "place": "village", "wikidata": "Q5578443"}}, {"type": "node", "id": 45004572, "lat": -2.4852661, "lon": 40.2052123, "tags": {"name": "Furaha", "place": "village", "wikidata": "Q5509468"}}, {"type": "node", "id": 45006084, "lat": -2.4499565, "lon": 40.1999631, "tags": {"name": "Borobini", "place": "village", "wikidata": "Q4946191"}}, {"type": "node", "id": 4690286670, "lat": -2.4805765, "lon": 40.2144492, "tags": {"place": "hamlet"}}, {"type": "node", "id": 4691242468, "lat": -2.438199, "lon": 40.1513478, "tags": {"place": "hamlet"}}, {"type": "node", "id": 11123677739, "lat": -2.3208079, "lon": 40.2058184}, {"type": "node", "id": 11123677740, "lat": -2.3236263, "lon": 40.2013165}, {"type": "node", "id": 11123677741, "lat": -2.3268366, "lon": 40.2049217}, {"type": "node", "id": 11123677742, "lat": -2.3269672, "lon": 40.2090874}, {"type": "node", "id": 11123677743, "lat": -2.3219465, "lon": 40.2093862}, {"type": "node", "id": 11123677744, "lat": -2.3212185, "lon": 40.2078358}, {"type": "node", "id": 11136275105, "lat": -2.4346468, "lon": 40.2084338}, {"type": "node", "id": 11136275106, "lat": -2.4343296, "lon": 40.2098581}, {"type": "node", "id": 11136275107, "lat": -2.4351134, "lon": 40.2098674}, {"type": "node", "id": 11136275108, "lat": -2.4352534, "lon": 40.2084104}, {"type": "node", "id": 11217883455, "lat": -2.3389252, "lon": 40.1577526, "tags": {"name": "Chalalu", "place": "village"}}, {"type": "node", "id": 11217883456, "lat": -2.3385306, "lon": 40.1481282, "tags": {"name": "Sofia", "place": "village"}}, {"type": "node", "id": 11217933958, "lat": -2.4946014, "lon": 40.2370723, "tags": {"name": "Manono", "place": "village"}}, {"type": "node", "id": 11217950104, "lat": -2.443397, "lon": 40.1693547, "tags": {"name": "Tarasaa", "place": "village"}}, {"type": "node", "id": 11217950105, "lat": -2.4510769, "lon": 40.1747746, "tags": {"name": "Tarassa Bula", "place": "village"}}, {"type": "node", "id": 11217964241, "lat": -2.4843283, "lon": 40.2003254, "tags": {"name": "Gubani", "place": "village"}}, {"type": "node", "id": 11217964242, "lat": -2.4884748, "lon": 40.1997393, "tags": {"name": "Kikoroto", "place": "village"}}, {"type": "node", "id": 11217964243, "lat": -2.4564597, "lon": 40.1992781, "tags": {"name": "Bura Krash", "place": "village"}}, {"type": "node", "id": 11217977771, "lat": -2.4788647, "lon": 40.2348597, "tags": {"name": "Maderte", "place": "village"}}, {"type": "node", "id": 11217978926, "lat": -2.4642316, "lon": 40.208564, "tags": {"name": "Bura Kofira", "place": "village"}}, {"type": "node", "id": 11217978927, "lat": -2.4628084, "lon": 40.188555, "tags": {"name": "Guba Muse", "place": "village"}}, {"type": "node", "id": 11219799826, "lat": -2.3154885, "lon": 40.1966822, "tags": {"flood_prone": "yes", "name": "Onkolde", "place": "village"}}, {"type": "node", "id": 11219799828, "lat": -2.3367071, "lon": 40.2163384, "tags": {"flood_prone": "yes", "name": "Galili", "place": "village"}}, {"type": "node", "id": 11219799831, "lat": -2.3491454, "lon": 40.1980845, "tags": {"evacuation_center": "Balo village", "name": "Balo", "place": "village"}}, {"type": "node", "id": 11219822117, "lat": -2.3627207, "lon": 40.2164106, "tags": {"name": "Gomesa", "place": "village"}}, {"type": "node", "id": 11219822118, "lat": -2.3719693, "lon": 40.2231576, "tags": {"name": "Baliyangete", "place": "village"}}, {"type": "node", "id": 11219822119, "lat": -2.4331478, "lon": 40.2153441, "tags": {"name": "Kipao", "place": "village"}}, {"type": "node", "id": 11219840627, "lat": -2.47184, "lon": 40.2229419, "tags": {"name": "Bura Gumba", "place": "village"}}, {"type": "node", "id": 11221740712, "lat": -2.3565426, "lon": 40.1331795, "tags": {"name": "Sophia", "place": "village"}}, {"type": "node", "id": 11648827317, "lat": -2.4325064, "lon": 40.2181946, "tags": {"evacuation_centre": "yes", "name": "Kibera ndogo", "place": "village", "source": "KRCS2023"}}, {"type": "node", "id": 11648827318, "lat": -2.4348843, "lon": 40.213479, "tags": {"evacuation_centre": "yes", "name": "Kipao B", "place": "village", "source": "KRCS2023"}}, {"type": "node", "id": 11648827324, "lat": -2.4307046, "lon": 40.217139, "tags": {"evacuation_centre": "yes", "name": "Kipao A", "place": "village", "source": "KRCS2023"}}, {"type": "node", "id": 11648827329, "lat": -2.4669011, "lon": 40.1888991, "tags": {"evacuation_centre": "yes", "name": "Guba muse", "place": "village", "source": "KRCS2023"}}, {"type": "node", "id": 11648827330, "lat": -2.3845519, "lon": 40.1790281, "tags": {"evacuation_centre": "yes", "name": "Dibe", "place": "village", "source": "KRCS2023"}}, {"type": "node", "id": 11648827335, "lat": -2.4555728, "lon": 40.2005036, "tags": {"evacuation_centre": "no", "name": "Bura aneni", "place": "village", "source": "KRCS2023"}}, {"type": "node", "id": 11648827341, "lat": -2.433138, "lon": 40.2147964, "tags": {"evacuation_centre": "yes", "name": "Kibera", "place": "village", "source": "KRCS2023"}}, {"type": "node", "id": 11648827343, "lat": -2.4634306, "lon": 40.2071572, "tags": {"evacuation_centre": "no", "name": "Bura kofira", "place": "village", "source": "KRCS2023"}}, {"type": "node", "id": 11648827344, "lat": -2.4569317, "lon": 40.1991447, "tags": {"evacuation_centre": "yes", "name": "Bura aneniB", "place": "village", "source": "KRCS2023"}}, {"type": "node", "id": 11648827346, "lat": -2.3835064, "lon": 40.1838264, "tags": {"evacuation_centre": "yes", "name": "Dibe B", "place": "village", "source": "KRCS2023"}}, {"type": "way", "id": 1199260681, "nodes": [11123677739, 11123677740, 11123677741, 11123677742, 11123677743, 11123677744, 11123677739], "tags": {"name": "Forest", "place": "village", "population": "0", "source": "survey"}}, {"type": "way", "id": 1201087303, "nodes": [11136275105, 11136275106, 11136275107, 11136275108, 11136275105], "tags": {"place": "village"}}]}