{"version": 0.6, "generator": "Overpass API 0.7.62.1 084b4234", "osm3s": {"timestamp_osm_base": "2024-09-30T20:27:30Z", "copyright": "The data included in this document is from www.openstreetmap.org. The data is made available under ODbL."}, "elements": [{"type": "node", "id": 43528320, "lat": 6.769726, "lon": 47.430826, "tags": {"name": "Gaalkacyo \u062c\u0627\u0644\u0643\u0639\u064a\u0648", "name:ar": "\u062c\u0627\u0644\u0643\u0639\u064a\u0648", "name:de": "Gaalkacyo", "name:en": "Galkayo", "name:es": "Gaalkacyo", "name:fr": "Gaalkacyo", "name:it": "Galcaio", "name:ko": "\uac08\uce74\uc694", "name:ru": "\u0413\u0430\u043b\u044c\u043a\u0430\u0439\u043e", "name:uk": "\u0413\u0430\u043b\u044c\u043a\u0430\u0439\u043e", "place": "city", "wikidata": "Q865586", "wikipedia": "ar:\u062c\u0627\u0644\u0643\u0639\u064a\u0648"}}, {"type": "node", "id": 348404535, "lat": 7.3606344, "lon": 47.316366}, {"type": "node", "id": 1404230920, "lat": 7.06284, "lon": 47.13276, "tags": {"alt_name": "Galdogob", "name": "Gal Dhuumood", "pcode": "NB-3804-Y14-002", "place": "village", "source": "UNDP - 2006"}}, {"type": "node", "id": 1406056566, "lat": 6.2800002, "lon": 47.5999985}, {"type": "node", "id": 1406056578, "lat": 6.5165248, "lon": 46.5403709}, {"type": "node", "id": 1406056579, "lat": 6.5305194, "lon": 46.5214741}, {"type": "node", "id": 1406056586, "lat": 6.6100001, "lon": 47.6899986}, {"type": "node", "id": 1406056603, "lat": 6.73, "lon": 47.1100006}, {"type": "node", "id": 1406056608, "lat": 6.7399998, "lon": 48.4900017}, {"type": "node", "id": 1406056614, "lat": 6.77, "lon": 47.8899994}, {"type": "node", "id": 1406056639, "lat": 6.8829842, "lon": 46.8975182}, {"type": "node", "id": 1406056641, "lat": 6.9077268, "lon": 46.8728619}, {"type": "node", "id": 1406056676, "lat": 7.1900001, "lon": 47.5299988}, {"type": "node", "id": 1406056699, "lat": 7.3826211, "lon": 47.337517}, {"type": "node", "id": 1406056714, "lat": 7.4099998, "lon": 48.5}, {"type": "node", "id": 1406056718, "lat": 7.4272199, "lon": 48.5304184}, {"type": "node", "id": 1406056739, "lat": 7.5594931, "lon": 47.56567}, {"type": "node", "id": 1406056743, "lat": 7.5607128, "lon": 47.5580406}, {"type": "node", "id": 1406056776, "lat": 7.5609488, "lon": 47.557065}, {"type": "node", "id": 10748261994, "lat": 7.2499897, "lon": 47.4700614}, {"type": "node", "id": 11771954438, "lat": 6.8252536, "lon": 47.1969373}, {"type": "node", "id": 11771954439, "lat": 6.8493216, "lon": 47.2189066}, {"type": "way", "id": 126924840, "nodes": [1406056776, 1406056699], "tags": {"admin_level": "2", "border_type": "nation", "boundary": "administrative", "left:country": "\u0627\u0644\u0635\u0648\u0645\u0627\u0644", "name": "Ethiopia - \u0627\u0644\u0635\u0648\u0645\u0627\u0644", "name:ar": "\u0625\u062b\u064a\u0648\u0628\u064a\u0627 - \u0627\u0644\u0635\u0648\u0645\u0627\u0644", "name:en": "Ethiopia - Somalia", "name:fr": "\u00c9thiopie - Somalie", "right:country": "Ethiopia", "right:state": "Somali", "source": "maplibrary.org"}}, {"type": "way", "id": 126924859, "nodes": [1406056641, 1406056579], "tags": {"admin_level": "2", "border_type": "nation", "boundary": "administrative", "left:country": "\u0627\u0644\u0635\u0648\u0645\u0627\u0644", "name": "Ethiopia - \u0627\u0644\u0635\u0648\u0645\u0627\u0644", "name:ar": "\u0625\u062b\u064a\u0648\u0628\u064a\u0627 - \u0627\u0644\u0635\u0648\u0645\u0627\u0644", "name:en": "Ethiopia - Somalia", "name:fr": "\u00c9thiopie - Somalie", "right:country": "Ethiopia", "right:state": "Somali", "source": "maplibrary.org"}}, {"type": "way", "id": 126924869, "nodes": [1406056699, 348404535, 1406056641], "tags": {"admin_level": "2", "border_type": "nation", "boundary": "administrative", "left:country": "\u0627\u0644\u0635\u0648\u0645\u0627\u0644", "name": "Ethiopia - \u0627\u0644\u0635\u0648\u0645\u0627\u0644", "name:ar": "\u0625\u062b\u064a\u0648\u0628\u064a\u0627 - \u0627\u0644\u0635\u0648\u0645\u0627\u0644", "name:en": "Ethiopia - Somalia", "name:fr": "\u00c9thiopie - Somalie", "right:country": "Ethiopia", "right:state": "Somali", "source": "maplibrary.org"}}, {"type": "way", "id": 126925045, "nodes": [1406056608, 1406056718], "tags": {"admin_level": "6", "boundary": "administrative"}}, {"type": "way", "id": 126925231, "nodes": [1406056566, 1406056578, 1406056579], "tags": {"admin_level": "4", "boundary": "administrative", "description": "Regional border between Puntland and Galmudug", "name": "Galmudug - Puntland"}}, {"type": "way", "id": 126925319, "nodes": [1406056608, 1406056614, 1406056586, 1406056566], "tags": {"admin_level": "6", "boundary": "administrative"}}, {"type": "way", "id": 126925461, "nodes": [1406056718, 1406056714, 1406056739, 1406056743, 1406056776], "tags": {"admin_level": "4", "boundary": "administrative"}}, {"type": "way", "id": 126925507, "nodes": [1406056699, 10748261994, 1406056676, 11771954439, 11771954438, 1406056603, 1406056639, 1406056641]}, {"type": "way", "id": 1267495602, "nodes": [1406056641, 1406056603, 11771954439, 1406056586, 1406056614, 1406056608], "tags": {"boundary": "administrative", "name": "puntland - galmudug"}}, {"type": "relation", "id": 1720106, "members": [{"type": "way", "ref": 126924869, "role": "outer"}, {"type": "way", "ref": 126925507, "role": "outer"}, {"type": "node", "ref": 1404230920, "role": "admin_centre"}], "tags": {"admin_level": "6", "boundary": "administrative", "name": "Galdogob \u062c\u0644\u062f\u062c\u0628", "name:ar": "\u062c\u0644\u062f\u062c\u0628", "name:en": "Galdogob District", "name:fr": "Galdogob", "source": "UN OCHA COD", "type": "boundary", "wikidata": "Q5518248"}}, {"type": "relation", "id": 1720107, "members": [{"type": "way", "ref": 126924859, "role": "outer"}, {"type": "way", "ref": 126925507, "role": "outer"}, {"type": "way", "ref": 126924840, "role": "outer"}, {"type": "way", "ref": 126925461, "role": "outer"}, {"type": "way", "ref": 126925045, "role": "outer"}, {"type": "way", "ref": 126925319, "role": "outer"}, {"type": "way", "ref": 126925231, "role": "outer"}, {"type": "node", "ref": 43528320, "role": "admin_centre"}], "tags": {"admin_level": "6", "boundary": "administrative", "name": "Galkaacyo \u062c\u0627\u0644\u0643\u0639\u064a\u0648", "name:ar": "\u062c\u0627\u0644\u0643\u0639\u064a\u0648", "name:en": "Galkayo District", "name:fr": "Galkayo", "name:zh": "\u52a0\u52d2\u5361\u7ea6\u533a", "source": "UN OCHA COD", "type": "boundary", "wikidata": "Q5518793", "wikipedia": "en:Galkayo District"}}]}