{"version": 0.6, "generator": "Overpass API 0.7.62.1 084b4234", "osm3s": {"timestamp_osm_base": "2024-09-30T21:22:41Z", "copyright": "The data included in this document is from www.openstreetmap.org. The data is made available under ODbL."}, "elements": [{"type": "node", "id": 1404221377, "lat": 0.9523, "lon": 41.529202, "tags": {"name": "Uar Corah Irai", "pcode": "NA-3716-B23-001", "place": "village", "source": "UNDP - 1997"}}, {"type": "node", "id": 1404221886, "lat": 0.8215, "lon": 41.597599, "tags": {"name": "Culume Allango", "pcode": "NA-3716-E25-001", "place": "village", "source": "UNDP - 1997"}}, {"type": "node", "id": 1404223368, "lat": 0.7713, "lon": 41.428501, "tags": {"name": "Girma", "pcode": "NA-3716-F21-001", "place": "village", "source": "UNDP - 1997"}}, {"type": "node", "id": 1404225668, "lat": 1.12628, "lon": 41.73424, "tags": {"name": "Xasanbaraki", "pcode": "NA-3712-W28-001", "place": "village", "source": "FSAU"}}, {"type": "node", "id": 1404225756, "lat": 0.9907, "lon": 41.5308, "tags": {"name": "Korohirey", "pcode": "NA-3716-A23-001", "place": "village", "source": "FSAU"}}, {"type": "node", "id": 1404225987, "lat": 0.8229, "lon": 41.577499, "tags": {"name": "Culume Dagaga", "pcode": "NA-3716-E24-001", "place": "village", "source": "UNDP - 1997"}}, {"type": "node", "id": 1404231434, "lat": 1.03847, "lon": 41.57359, "tags": {"name": "Welharey", "pcode": "NA-3712-Z24-001", "place": "village", "source": "FSAU"}}, {"type": "node", "id": 1404231944, "lat": 0.72797, "lon": 41.54273, "tags": {"alt_name": "Godaya Diriye", "name": "Godaya", "pcode": "NA-3716-G23-001", "place": "village", "source": "FSAU"}}, {"type": "node", "id": 1404232583, "lat": 0.8205, "lon": 41.829498, "tags": {"name": "Uel Gori", "pcode": "NA-3716-E30-001", "place": "village", "source": "UNDP - 1997"}}, {"type": "node", "id": 1404233489, "lat": 0.7297, "lon": 41.527199, "tags": {"name": "Araroba", "pcode": "NA-3716-G23-002", "place": "village", "source": "UNDP - 1997"}}]}