{"version": 0.6, "generator": "Overpass API 0.7.62.1 084b4234", "osm3s": {"timestamp_osm_base": "2024-09-30T22:53:30Z", "copyright": "The data included in this document is from www.openstreetmap.org. The data is made available under ODbL."}, "elements": [{"type": "node", "id": 316868800, "lat": 9.0870642, "lon": 40.8675244, "tags": {"alt_name": "Asba Littorio", "name": "Chiro", "old_name": "Asebe Teferi", "place": "town", "source": "landsat", "wikidata": "Q764231", "wikipedia": "en:Chiro (town)"}}, {"type": "node", "id": 316869349, "lat": 9.217435, "lon": 41.101796, "tags": {"name": "Hirna", "place": "town", "wikidata": "Q5769883", "wikipedia": "en:Hirna"}}, {"type": "node", "id": 323431664, "lat": 9.2934715, "lon": 40.834284, "tags": {"is_in": "Ethiopia", "name": "Mullu", "place": "village"}}, {"type": "node", "id": 1150880946, "lat": 9.23333, "lon": 40.86667, "tags": {"is_in:country": "Ethiopia", "is_in:country_code": "ET", "name": "Roma Boru", "place": "locality", "source": "GeoDatabase"}}, {"type": "node", "id": 1150881367, "lat": 9.1, "lon": 41.01667, "tags": {"is_in:country": "Ethiopia", "is_in:country_code": "ET", "name": "Gara Nigus", "place": "locality", "source": "GeoDatabase"}}, {"type": "node", "id": 1150882157, "lat": 9.46667, "lon": 40.9, "tags": {"is_in:country": "Ethiopia", "is_in:country_code": "ET", "name": "Magon", "place": "locality", "source": "GeoDatabase"}}, {"type": "node", "id": 1150882491, "lat": 9.1, "lon": 41.13333, "tags": {"is_in:country": "Ethiopia", "is_in:country_code": "ET", "name": "Luch'O", "place": "locality", "source": "GeoDatabase"}}, {"type": "node", "id": 1150885621, "lat": 9.33333, "lon": 41.1, "tags": {"is_in:country": "Ethiopia", "is_in:country_code": "ET", "name": "Dadi", "place": "locality", "source": "GeoDatabase"}}, {"type": "node", "id": 1150885821, "lat": 9.16667, "lon": 40.86667, "tags": {"is_in:country": "Ethiopia", "is_in:country_code": "ET", "name": "Dejazmach Amet'Eli", "place": "locality", "source": "GeoDatabase"}}, {"type": "node", "id": 1150885984, "lat": 9.2, "lon": 40.81666, "tags": {"is_in:country": "Ethiopia", "is_in:country_code": "ET", "name": "Huse", "place": "locality", "source": "GeoDatabase"}}, {"type": "node", "id": 1150886400, "lat": 9.13333, "lon": 41.08333, "tags": {"is_in:country": "Ethiopia", "is_in:country_code": "ET", "name": "Gara K'Ufa", "place": "locality", "source": "GeoDatabase"}}, {"type": "node", "id": 1150887167, "lat": 9.2, "lon": 41.0, "tags": {"is_in:country": "Ethiopia", "is_in:country_code": "ET", "name": "Babile", "place": "locality", "source": "GeoDatabase"}}, {"type": "node", "id": 1150889301, "lat": 9.31667, "lon": 41.01667, "tags": {"is_in:country": "Ethiopia", "is_in:country_code": "ET", "name": "Dalo Shet'", "place": "locality", "source": "GeoDatabase"}}, {"type": "node", "id": 1150892278, "lat": 9.2, "lon": 40.93333, "tags": {"is_in:country": "Ethiopia", "is_in:country_code": "ET", "name": "Irna", "place": "locality", "source": "GeoDatabase"}}, {"type": "node", "id": 1150895289, "lat": 9.18333, "lon": 41.16667, "tags": {"is_in:country": "Ethiopia", "is_in:country_code": "ET", "name": "Dunk'Uk'U", "place": "locality", "source": "GeoDatabase"}}, {"type": "node", "id": 1150898764, "lat": 9.31667, "lon": 40.91667, "tags": {"is_in:country": "Ethiopia", "is_in:country_code": "ET", "name": "Gulube Terara", "place": "locality", "source": "GeoDatabase"}}, {"type": "node", "id": 1150900235, "lat": 9.38333, "lon": 41.15, "tags": {"is_in:country": "Ethiopia", "is_in:country_code": "ET", "name": "Ch'Isa Shet'", "place": "locality", "source": "GeoDatabase"}}, {"type": "node", "id": 1150903208, "lat": 9.4626315, "lon": 40.9980751, "tags": {"name": "\u12a0\u134d\u12f0\u121d / \u0100fdem", "name:am": "\u12a0\u134d\u12f0\u121d", "name:de": "Afdem", "name:en": "\u0100fdem", "name:fr": "Afdem", "place": "town", "wikidata": "Q382131", "wikipedia": "en:\u0100fdem"}}, {"type": "node", "id": 1150908602, "lat": 9.36667, "lon": 41.08333, "tags": {"is_in:country": "Ethiopia", "is_in:country_code": "ET", "name": "Dalo Terara", "place": "locality", "source": "GeoDatabase"}}, {"type": "node", "id": 1150909414, "lat": 9.38333, "lon": 40.9, "tags": {"is_in:country": "Ethiopia", "is_in:country_code": "ET", "name": "Wanga Shet'", "place": "locality", "source": "GeoDatabase"}}, {"type": "node", "id": 1150909581, "lat": 9.26667, "lon": 40.81666, "tags": {"is_in:country": "Ethiopia", "is_in:country_code": "ET", "name": "Sodoma Shet'", "place": "locality", "source": "GeoDatabase"}}, {"type": "node", "id": 1150910346, "lat": 9.15, "lon": 41.08333, "tags": {"is_in:country": "Ethiopia", "is_in:country_code": "ET", "name": "Adis Amba", "place": "locality", "source": "GeoDatabase"}}, {"type": "node", "id": 1150912247, "lat": 9.25, "lon": 41.0, "tags": {"is_in:country": "Ethiopia", "is_in:country_code": "ET", "name": "Golek'Eha", "place": "locality", "source": "GeoDatabase"}}, {"type": "node", "id": 1150917708, "lat": 9.31667, "lon": 41.05, "tags": {"is_in:country": "Ethiopia", "is_in:country_code": "ET", "name": "Burk'A Abdosh", "place": "locality", "source": "GeoDatabase"}}, {"type": "node", "id": 1150918643, "lat": 9.13333, "lon": 40.81666, "tags": {"is_in:country": "Ethiopia", "is_in:country_code": "ET", "name": "Yabdo", "place": "locality", "source": "GeoDatabase"}}, {"type": "node", "id": 1150918664, "lat": 9.38333, "lon": 40.83333, "tags": {"is_in:country": "Ethiopia", "is_in:country_code": "ET", "name": "Kalladu", "place": "locality", "source": "GeoDatabase"}}, {"type": "node", "id": 1150922327, "lat": 9.4, "lon": 40.95, "tags": {"is_in:country": "Ethiopia", "is_in:country_code": "ET", "name": "T'Eladi Yebabur T'Abiya", "place": "locality", "source": "GeoDatabase"}}, {"type": "node", "id": 1150922600, "lat": 9.25, "lon": 40.93333, "tags": {"is_in:country": "Ethiopia", "is_in:country_code": "ET", "name": "Dirba", "place": "locality", "source": "GeoDatabase"}}, {"type": "node", "id": 1150924898, "lat": 9.4, "lon": 41.1, "tags": {"is_in:country": "Ethiopia", "is_in:country_code": "ET", "name": "Ojo", "place": "locality", "source": "GeoDatabase"}}, {"type": "node", "id": 1150926406, "lat": 9.21667, "lon": 41.1, "tags": {"amenity": "place_of_worship", "denomination": "orthodox", "is_in:country": "Ethiopia", "is_in:country_code": "ET", "name": "Hirna Silase Bete Kristiyan", "place": "locality", "religion": "christian", "source": "GeoDatabase"}}, {"type": "node", "id": 1150931506, "lat": 9.1423126, "lon": 41.0087647, "tags": {"is_in:country": "Ethiopia", "is_in:country_code": "ET", "name": "Debaso", "place": "village", "source": "GPS"}}, {"type": "node", "id": 1150934338, "lat": 9.31667, "lon": 40.83333, "tags": {"is_in:country": "Ethiopia", "is_in:country_code": "ET", "name": "Kebira", "place": "locality", "source": "GeoDatabase"}}, {"type": "node", "id": 1150936784, "lat": 9.36667, "lon": 41.16667, "tags": {"is_in:country": "Ethiopia", "is_in:country_code": "ET", "name": "Biyo Karaba", "place": "locality", "source": "GeoDatabase"}}, {"type": "node", "id": 1150938138, "lat": 9.11667, "lon": 41.13333, "tags": {"is_in:country": "Ethiopia", "is_in:country_code": "ET", "name": "Midedu Shet'", "place": "locality", "source": "GeoDatabase"}}, {"type": "node", "id": 1150943406, "lat": 9.1, "lon": 40.93333, "tags": {"is_in:country": "Ethiopia", "is_in:country_code": "ET", "name": "Shola Terara", "place": "locality", "source": "GeoDatabase"}}, {"type": "node", "id": 1150948448, "lat": 9.23333, "lon": 41.16667, "tags": {"is_in:country": "Ethiopia", "is_in:country_code": "ET", "name": "Ch'Erch'Er", "place": "locality", "source": "GeoDatabase"}}, {"type": "node", "id": 1150955233, "lat": 9.23333, "lon": 41.03333, "tags": {"is_in:country": "Ethiopia", "is_in:country_code": "ET", "name": "Werehama", "place": "locality", "source": "GeoDatabase"}}, {"type": "node", "id": 1150959687, "lat": 9.35, "lon": 41.05, "tags": {"is_in:country": "Ethiopia", "is_in:country_code": "ET", "name": "Gebel Dambi", "place": "locality", "source": "GeoDatabase"}}, {"type": "node", "id": 1150960675, "lat": 9.16667, "lon": 40.85, "tags": {"is_in:country": "Ethiopia", "is_in:country_code": "ET", "name": "Jalo Shet'", "place": "locality", "source": "GeoDatabase"}}, {"type": "node", "id": 1150960707, "lat": 9.36667, "lon": 40.88333, "tags": {"is_in:country": "Ethiopia", "is_in:country_code": "ET", "name": "K'Oran Gogoga Shet'", "place": "locality", "source": "GeoDatabase"}}, {"type": "node", "id": 1150962205, "lat": 9.1, "lon": 41.1, "tags": {"is_in:country": "Ethiopia", "is_in:country_code": "ET", "name": "Wedeytu", "place": "locality", "source": "GeoDatabase"}}, {"type": "node", "id": 1150966740, "lat": 9.21667, "lon": 40.96667, "tags": {"is_in:country": "Ethiopia", "is_in:country_code": "ET", "name": "Sherifa", "place": "locality", "source": "GeoDatabase"}}, {"type": "node", "id": 1150970652, "lat": 9.2857119, "lon": 41.0914119, "tags": {"name": "Doba", "place": "town", "source": "GeoDatabase"}}, {"type": "node", "id": 1150973858, "lat": 9.16667, "lon": 40.98333, "tags": {"is_in:country": "Ethiopia", "is_in:country_code": "ET", "name": "Goro Dabasso", "place": "locality", "source": "GeoDatabase"}}, {"type": "node", "id": 1150977112, "lat": 9.3, "lon": 40.85, "tags": {"is_in:country": "Ethiopia", "is_in:country_code": "ET", "name": "Fulamo", "place": "locality", "source": "GeoDatabase"}}, {"type": "node", "id": 1150980223, "lat": 9.31667, "lon": 41.18333, "tags": {"is_in:country": "Ethiopia", "is_in:country_code": "ET", "name": "Wagur Shet'", "place": "locality", "source": "GeoDatabase"}}, {"type": "node", "id": 1150981941, "lat": 9.15, "lon": 41.15, "tags": {"is_in:country": "Ethiopia", "is_in:country_code": "ET", "name": "Gara Doncuru", "place": "locality", "source": "GeoDatabase"}}, {"type": "node", "id": 1151004628, "lat": 9.08333, "lon": 40.95, "tags": {"is_in:country": "Ethiopia", "is_in:country_code": "ET", "name": "Funyan Timo", "place": "locality", "source": "GeoDatabase"}}, {"type": "node", "id": 1175666126, "lat": 9.2739057, "lon": 41.1391309, "tags": {"name": "Zigita", "place": "village"}}, {"type": "node", "id": 1176695248, "lat": 9.2739265, "lon": 41.1388962, "tags": {"name": "Zigita", "place": "village"}}, {"type": "node", "id": 1176695792, "lat": 9.2795066, "lon": 41.1836783, "tags": {"name": "Guge", "place": "village"}}, {"type": "node", "id": 10537704698, "lat": 9.3710309, "lon": 41.1733004, "tags": {"place": "village"}}, {"type": "node", "id": 10540116988, "lat": 9.2988265, "lon": 41.0898753, "tags": {"place": "village"}}, {"type": "node", "id": 10540229232, "lat": 9.2730826, "lon": 41.0653008}, {"type": "node", "id": 10540229233, "lat": 9.2734611, "lon": 41.0646617}, {"type": "node", "id": 10540229234, "lat": 9.2731247, "lon": 41.0619634}, {"type": "node", "id": 10540229235, "lat": 9.2725921, "lon": 41.0612676}, {"type": "node", "id": 10540229236, "lat": 9.2718492, "lon": 41.0610404}, {"type": "node", "id": 10540229237, "lat": 9.2714428, "lon": 41.061225}, {"type": "node", "id": 10540229238, "lat": 9.2710503, "lon": 41.0620202}, {"type": "node", "id": 10540229239, "lat": 9.2712325, "lon": 41.0625173}, {"type": "node", "id": 10540229240, "lat": 9.2726098, "lon": 41.0653542}, {"type": "node", "id": 10540229241, "lat": 9.2719913, "lon": 41.0646032}, {"type": "node", "id": 10540229242, "lat": 9.2719483, "lon": 41.0639437}, {"type": "node", "id": 10540229243, "lat": 9.2719829, "lon": 41.0630175}, {"type": "node", "id": 10540229244, "lat": 9.2721197, "lon": 41.0636084}, {"type": "node", "id": 10552830107, "lat": 9.3742353, "lon": 41.0329467, "tags": {"place": "village"}}, {"type": "way", "id": 1130972346, "nodes": [10540229232, 10540229233, 10540229234, 10540229235, 10540229236, 10540229237, 10540229238, 10540229239, 10540229243, 10540229244, 10540229242, 10540229241, 10540229240, 10540229232], "tags": {"place": "village"}}]}