{"version": 0.6, "generator": "Overpass API 0.7.62.1 084b4234", "osm3s": {"timestamp_osm_base": "2024-09-30T20:38:52Z", "copyright": "The data included in this document is from www.openstreetmap.org. The data is made available under ODbL."}, "elements": [{"type": "node", "id": 1150892195, "lat": 4.85, "lon": 43.61667, "tags": {"name": "Bur Nohle", "place": "locality", "source": "GeoDatabase"}}, {"type": "node", "id": 1150906731, "lat": 4.88333, "lon": 43.48333, "tags": {"name": "El Agable", "place": "locality", "source": "GeoDatabase"}}, {"type": "node", "id": 1150912018, "lat": 4.71667, "lon": 43.48333, "tags": {"name": "Uar Goholei", "place": "locality", "source": "GeoDatabase"}}, {"type": "node", "id": 1150913064, "lat": 4.95, "lon": 43.4, "tags": {"is_in:country": "Ethiopia", "is_in:country_code": "ET", "name": "Corogo", "place": "locality", "source": "GeoDatabase"}}, {"type": "node", "id": 1404222264, "lat": 4.6201, "lon": 43.431599, "tags": {"name": "Ceel Dego Gos", "pcode": "NB-3813-K32-001", "place": "village", "source": "UNDP - 1997"}}, {"type": "node", "id": 1404222587, "lat": 4.6209365, "lon": 43.35698, "tags": {"alt_name": "Aato", "name": "Ato", "pcode": "NB-3813-K30-001", "place": "village", "source": "UNDP - 1997, FSAU"}}, {"type": "node", "id": 1404223046, "lat": 4.56962, "lon": 43.487019, "tags": {"name": "Shimbiro", "pcode": "NB-3813-L33-001", "place": "village", "source": "UNDP - 1997"}}, {"type": "node", "id": 1404223312, "lat": 4.6803, "lon": 43.517601, "tags": {"name": "Ceel Caboq", "pcode": "NB-3814-H01-001", "place": "village", "source": "UNDP - 1997"}}, {"type": "node", "id": 1404224289, "lat": 4.7817, "lon": 43.528599, "tags": {"name": "Ceel Ballei", "pcode": "NB-3814-F01-001", "place": "village", "source": "UNDP - 1997"}}, {"type": "node", "id": 1404230680, "lat": 4.6493, "lon": 43.447701, "tags": {"name": "Ceel Tegavei", "pcode": "NB-3813-J32-001", "place": "hamlet", "source": "UNDP - 1997"}}]}