{"version": 0.6, "generator": "Overpass API 0.7.62.1 084b4234", "osm3s": {"timestamp_osm_base": "2024-09-30T23:23:26Z", "copyright": "The data included in this document is from www.openstreetmap.org. The data is made available under ODbL."}, "elements": [{"type": "node", "id": 1150881023, "lat": 7.65028, "lon": 47.00861, "tags": {"is_in:country_code": "ET", "is_in:county": "Ethiopia", "name": "Balli Mira Frattak", "place": "locality", "source": "GeoDatabase"}}, {"type": "node", "id": 1150886590, "lat": 7.64861, "lon": 47.00444, "tags": {"is_in:country_code": "ET", "is_in:county": "Ethiopia", "name": "Daroda", "place": "locality", "source": "GeoDatabase"}}, {"type": "node", "id": 1150892794, "lat": 7.91889, "lon": 46.88139, "tags": {"is_in:country_code": "ET", "is_in:county": "Ethiopia", "name": "Las Suban", "place": "locality", "source": "GeoDatabase"}}, {"type": "node", "id": 1150899146, "lat": 8.01667, "lon": 46.9, "tags": {"name": "Dudubo", "place": "locality", "source": "GeoDatabase"}}, {"type": "node", "id": 1150909389, "lat": 8.00917, "lon": 46.93111, "tags": {"name": "Gubato Ad", "place": "locality", "source": "GeoDatabase"}}, {"type": "node", "id": 1150923780, "lat": 7.8903671, "lon": 46.8488747, "tags": {"is_in:country_code": "ET", "is_in:county": "Ethiopia", "name": "Damot", "place": "locality", "source": "Digital Globe Premium"}}, {"type": "node", "id": 1150937528, "lat": 7.99722, "lon": 46.99555, "tags": {"name": "Gen'Ya Lakugashie", "place": "locality", "source": "GeoDatabase"}}, {"type": "node", "id": 1150962793, "lat": 7.67833, "lon": 46.99444, "tags": {"is_in:country_code": "ET", "is_in:county": "Ethiopia", "name": "Las", "place": "locality", "source": "GeoDatabase"}}, {"type": "node", "id": 1150963172, "lat": 7.69833, "lon": 46.99278, "tags": {"is_in:country_code": "ET", "is_in:county": "Ethiopia", "name": "Derouda Ler", "place": "locality", "source": "GeoDatabase"}}, {"type": "node", "id": 1150972498, "lat": 7.60361, "lon": 47.045, "tags": {"is_in:country_code": "ET", "is_in:county": "Ethiopia", "name": "Kharbauein", "place": "locality", "source": "GeoDatabase"}}, {"type": "node", "id": 1150976707, "lat": 7.80167, "lon": 46.77361, "tags": {"is_in:country_code": "ET", "is_in:county": "Ethiopia", "name": "Bur Rengi", "place": "locality", "source": "GeoDatabase"}}, {"type": "node", "id": 1404228652, "lat": 8.0032043, "lon": 46.9950172, "tags": {"alt_name": "Darkein Genyo", "name": "Dharkeyn-Genyo", "pcode": "NC-3816-Z11-001", "place": "village", "source": "UNDP - 2006, GTZ - 2002, UNDP - 1997"}}, {"type": "node", "id": 1404230815, "lat": 8.0014713, "lon": 47.105822, "tags": {"alt_name": "Sahader", "name": "Sahdheer", "pcode": "NC-3816-Z14-001", "place": "village", "source": "UNDP - 2006, GTZ - 2002, UNDP - 1997"}}, {"type": "node", "id": 9585457125, "lat": 7.894688, "lon": 47.1052002, "tags": {"place": "isolated_dwelling"}}, {"type": "node", "id": 9585457295, "lat": 7.9045872, "lon": 47.09828, "tags": {"place": "hamlet"}}, {"type": "node", "id": 9585457484, "lat": 7.8908819, "lon": 47.0928969, "tags": {"place": "isolated_dwelling"}}, {"type": "node", "id": 9585457551, "lat": 7.8848514, "lon": 47.0923032, "tags": {"place": "isolated_dwelling"}}]}