{"version": 0.6, "generator": "Overpass API 0.7.62.1 084b4234", "osm3s": {"timestamp_osm_base": "2024-09-30T20:38:52Z", "copyright": "The data included in this document is from www.openstreetmap.org. The data is made available under ODbL."}, "elements": [{"type": "node", "id": 36155607, "lat": 4.1237042, "lon": 43.8915563, "tags": {"name": "Xudur \u062d\u0648\u062f\u0648\u0631", "name:ar": "\u062d\u0648\u062f\u0648\u0631", "name:de": "Huddur", "name:en": "Hudur", "name:es": "Xudur", "name:fr": "Xuddur", "name:ko": "\ud6c4\ub450\ub974", "name:ru": "\u0425\u0443\u0434\u0434\u0443\u0440", "place": "city", "wikidata": "Q1017160", "wikipedia": "en:Hudur"}}, {"type": "node", "id": 1404221444, "lat": 4.15, "lon": 43.7708, "tags": {"name": "Bakaro", "pcode": "NB-3814-W06-002", "place": "village", "source": "FSAU"}}, {"type": "node", "id": 1404221576, "lat": 4.15004, "lon": 43.77087, "tags": {"name": "Quraala", "pcode": "NB-3814-W06-001", "place": "village", "source": "UNDP - 2006"}}, {"type": "node", "id": 1404221599, "lat": 4.2515, "lon": 43.696999, "tags": {"name": "Giara Abarou", "pcode": "NB-3814-T05-001", "place": "village", "source": "UNDP - 1997"}}, {"type": "node", "id": 1404221646, "lat": 4.12885, "lon": 44.00352, "tags": {"name": "Lugay Weene", "pcode": "NB-3814-W12-001", "place": "village", "source": "UNDP - 2006"}}, {"type": "node", "id": 1404222145, "lat": 4.12459, "lon": 43.88765, "tags": {"name": "Sheikh Aweys \u0627\u0644\u0634\u064a\u062e \u0639\u0648\u064a\u0633", "name:ar": "\u0627\u0644\u0634\u064a\u062e \u0639\u0648\u064a\u0633", "name:en": "Sheikh Aweys", "pcode": "NB-3814-X09-004", "place": "suburb", "source": "UNDP - 2006"}}, {"type": "node", "id": 1404222153, "lat": 4.20229, "lon": 44.02963, "tags": {"name": "Bibiyow", "pcode": "NB-3814-V12-003", "place": "village", "source": "UNDP - 2006"}}, {"type": "node", "id": 1404222653, "lat": 4.210648, "lon": 43.989621, "tags": {"name": "Reer Waaqle", "pcode": "NB-3814-U11-001", "place": "hamlet", "source": "UNDP - 2006"}}, {"type": "node", "id": 1404223198, "lat": 4.3813, "lon": 43.817101, "tags": {"name": "Gheider Moro Mererti", "pcode": "NB-3814-Q07-001", "place": "village", "source": "UNDP - 1997"}}, {"type": "node", "id": 1404223288, "lat": 4.2172615, "lon": 43.9010402, "tags": {"alt_name": "Gomori", "name": "Gomorey", "pcode": "NB-3814-U09-001", "place": "village", "source": "UNDP - 2006"}}, {"type": "node", "id": 1404223399, "lat": 4.328, "lon": 43.828499, "tags": {"name": "Moro Uanaile", "pcode": "NB-3814-S08-001", "place": "village", "source": "UNDP - 1997"}}, {"type": "node", "id": 1404223480, "lat": 4.12948, "lon": 43.94146, "tags": {"alt_name": "Farak", "name": "Faarax", "pcode": "NB-3814-W10-001", "place": "hamlet", "source": "UNDP - 1997, FSAU"}}, {"type": "node", "id": 1404223940, "lat": 4.15996, "lon": 43.91402, "tags": {"name": "Doox", "pcode": "NB-3814-W10-003", "place": "village", "source": "UNDP - 2006"}}, {"type": "node", "id": 1404224149, "lat": 4.12423, "lon": 43.911861, "tags": {"name": "Madax Waraabe", "pcode": "NB-3814-X10-001", "place": "village", "source": "UNDP - 1997"}}, {"type": "node", "id": 1404224366, "lat": 4.13231, "lon": 43.84257, "tags": {"name": "Tubooy", "pcode": "NB-3814-W08-001", "place": "village", "source": "UNDP - 2006, UNDP - 1997"}}, {"type": "node", "id": 1404225281, "lat": 4.18374, "lon": 43.99583, "tags": {"alt_name": "Dhanful", "name": "Doonfuul", "pcode": "NB-3814-V11-002", "place": "village", "source": "UNDP - 2006, UNDP - 1997, FSAU"}}, {"type": "node", "id": 1404225287, "lat": 4.122906, "lon": 43.912617, "tags": {"name": "Gaabaney", "pcode": "NB-3814-X10-002", "place": "village", "source": "UNDP - 2006"}}, {"type": "node", "id": 1404225485, "lat": 4.1729, "lon": 43.9799, "tags": {"name": "El Dafarur", "pcode": "NB-3814-V11-001", "place": "village", "source": "UNDP - 1997"}}, {"type": "node", "id": 1404226312, "lat": 4.1197, "lon": 43.8871, "tags": {"name": "Moora Gaabey \u0645\u0648\u0631\u0627 \u063a\u0627\u0628\u064a", "name:ar": "\u0645\u0648\u0631\u0627 \u063a\u0627\u0628\u064a", "name:en": "Moora Gaabey", "pcode": "NB-3814-X09-005", "place": "suburb", "source": "UNDP - 2006"}}, {"type": "node", "id": 1404226584, "lat": 4.1532477, "lon": 43.6930721, "tags": {"alt_name": "Ceelahelay", "name": "Eel Leheli", "pcode": "NB-3814-W05-001", "place": "village", "source": "UNDP - 2006, FSAU"}}, {"type": "node", "id": 1404226615, "lat": 4.21324, "lon": 43.90009, "tags": {"alt_name": "Tijeeg", "name": "Tijeego", "pcode": "NB-3814-U09-002", "place": "hamlet", "source": "FSAU"}}, {"type": "node", "id": 1404226662, "lat": 4.4924071, "lon": 43.9962315, "tags": {"name": "Gendiyeer", "pcode": "NB-3814-N11-001", "place": "village", "source": "UNDP - 2006"}}, {"type": "node", "id": 1404226978, "lat": 4.13182, "lon": 43.9222946, "tags": {"name": "Buulo Libaan", "pcode": "NB-3814-W10-002", "place": "village", "source": "UNDP - 2006"}}, {"type": "node", "id": 1404227007, "lat": 4.1799, "lon": 43.68851, "tags": {"name": "Bisigle", "pcode": "NB-3814-V05-001", "place": "village", "source": "UNDP - 2006"}}, {"type": "node", "id": 1404227361, "lat": 4.3014725, "lon": 43.9091053, "tags": {"name": "Aboore", "pcode": "NB-3814-S09-001", "place": "village", "source": "UNDP - 2006, FSAU"}}, {"type": "node", "id": 1404228815, "lat": 4.12364, "lon": 43.8825, "tags": {"name": "Dayura \u062f\u0627\u064a\u0648\u0631\u0627", "name:ar": "\u062f\u0627\u064a\u0648\u0631\u0627", "name:en": "Dayura", "pcode": "NB-3814-X09-003", "place": "suburb", "source": "UNDP - 2006"}}, {"type": "node", "id": 1404229958, "lat": 4.3713, "lon": 43.6511, "tags": {"name": "Xawaala Arundi", "pcode": "NB-3814-R04-001", "place": "village", "source": "UNDP - 1997"}}, {"type": "node", "id": 1404230203, "lat": 4.1702665, "lon": 43.8337598, "tags": {"name": "Weerow", "pcode": "NB-3814-V08-003", "place": "village", "source": "UNDP - 2006"}}, {"type": "node", "id": 1404230299, "lat": 4.2299131, "lon": 43.9334102, "tags": {"name": "Dharilgada", "pcode": "NB-3814-U10-001", "place": "village", "source": "UNDP - 1997"}}, {"type": "node", "id": 1404230460, "lat": 4.20623, "lon": 43.86265, "tags": {"name": "Ilin", "pcode": "NB-3814-V08-002", "place": "village", "source": "UNDP - 2006"}}, {"type": "node", "id": 1404230475, "lat": 4.28994, "lon": 43.70475, "tags": {"alt_name": "Qeydar-eddy", "name": "Qaydar Edi", "pcode": "NB-3814-T05-002", "place": "village", "source": "UNDP - 2006, FSAU"}}, {"type": "node", "id": 1404230668, "lat": 4.39642, "lon": 43.70832, "tags": {"name": "Dhursheeng-Shibeel", "pcode": "NB-3814-Q05-001", "place": "village", "source": "UNDP - 2006"}}, {"type": "node", "id": 1404231086, "lat": 4.1174, "lon": 43.78419, "tags": {"name": "Luku Guurow", "pcode": "NB-3814-X07-001", "place": "hamlet", "source": "UNDP - 2006"}}, {"type": "node", "id": 1404231098, "lat": 4.19282, "lon": 43.85028, "tags": {"name": "Fajer Boore", "pcode": "NB-3814-V08-001", "place": "village", "source": "UNDP - 2006"}}, {"type": "node", "id": 1404232300, "lat": 4.1224317, "lon": 43.9378009, "tags": {"name": "Gomrey", "pcode": "NB-3814-X10-003", "place": "village", "source": "UNDP - 2006"}}, {"type": "node", "id": 1404232383, "lat": 4.3974906, "lon": 43.9102443, "tags": {"alt_name": "Teed", "name": "Ted", "pcode": "NB-3814-Q09-001", "place": "hamlet", "source": "UNDP - 1997"}}, {"type": "node", "id": 1404232670, "lat": 4.12339, "lon": 43.877838, "tags": {"name": "Dhursheen \u0637\u0648\u0631\u0634\u064a\u0646", "name:ar": "\u0637\u0648\u0631\u0634\u064a\u0646", "name:en": "Dhursheen", "name:fr": "Dhursheen", "pcode": "NB-3814-X09-001", "place": "village", "source": "UNDP - 1997"}}, {"type": "node", "id": 1404232851, "lat": 4.1167206, "lon": 44.0274808, "tags": {"name": "Buulo Fur", "pcode": "NB-3814-X12-002", "place": "village", "source": "UNDP - 2006"}}, {"type": "node", "id": 1404233270, "lat": 4.19082, "lon": 43.99289, "tags": {"name": "Dhanfaruur", "pcode": "NB-3814-V11-003", "place": "village", "source": "UNDP - 2006"}}, {"type": "node", "id": 1404233665, "lat": 4.37463, "lon": 43.91566, "tags": {"name": "Ideed Tuuri", "pcode": "NB-3814-R10-001", "place": "hamlet", "source": "UNDP - 2006"}}, {"type": "node", "id": 1404233742, "lat": 4.12045, "lon": 43.81757, "tags": {"alt_name": "Usbi Eeli", "name": "Cusbo Eelo", "pcode": "NB-3814-X07-002", "place": "hamlet", "source": "UNDP - 2006, FSAU"}}, {"type": "node", "id": 1404234158, "lat": 4.23508, "lon": 43.92981, "tags": {"name": "Banjanaay", "pcode": "NB-3814-U10-002", "place": "hamlet", "source": "UNDP - 2006"}}, {"type": "node", "id": 2208333230, "lat": 4.3514387, "lon": 43.7186102, "tags": {"name": "\u0628\u0627\u0643\u0648\u0644 Bakool", "name:ar": "\u0628\u0627\u0643\u0648\u0644", "name:en": "Bakool", "name:fr": "Bakool", "name:hu": "Bakool", "name:ko": "\ubc14\ucf5c", "place": "region", "wikidata": "Q282471", "wikipedia": "so:Bakool"}}]}