{"version": 0.6, "generator": "Overpass API 0.7.62.1 084b4234", "osm3s": {"timestamp_osm_base": "2024-09-30T22:46:26Z", "copyright": "The data included in this document is from www.openstreetmap.org. The data is made available under ODbL."}, "elements": [{"type": "node", "id": 1104431441, "lat": 8.369486, "lon": 36.2456212, "tags": {"name": "Abdela", "place": "village", "source": "300TDI"}}, {"type": "node", "id": 1104431450, "lat": 8.455645, "lon": 36.352545, "tags": {"name": "Bedele", "place": "town", "source": "300TDI", "wikidata": "Q2893561", "wikimedia_commons": "Category:Bedele", "wikipedia": "en:Bedele"}}, {"type": "node", "id": 1150698326, "lat": 8.31278, "lon": 36.40306, "tags": {"is_in:country": "Ethiopia", "is_in:country_code": "ET", "name": "Birru", "place": "locality", "source": "GeoDatabase"}}, {"type": "node", "id": 1150881749, "lat": 8.16667, "lon": 36.33333, "tags": {"is_in:country": "Ethiopia", "is_in:country_code": "ET", "name": "Buno Bedele Awraja", "place": "locality", "source": "GeoDatabase"}}, {"type": "node", "id": 1150882742, "lat": 8.39426, "lon": 36.07965, "tags": {"is_in:country": "Ethiopia", "is_in:country_code": "ET", "name": "Ilala", "place": "locality", "source": "GeoDatabase"}}, {"type": "node", "id": 1150882745, "lat": 8.42759, "lon": 36.13433, "tags": {"is_in:country": "Ethiopia", "is_in:country_code": "ET", "name": "Ch'Ora Aba Bora", "place": "locality", "source": "GeoDatabase"}}, {"type": "node", "id": 1150883155, "lat": 8.28457, "lon": 36.33029, "tags": {"is_in:country": "Ethiopia", "is_in:country_code": "ET", "name": "Boia", "place": "locality", "source": "GeoDatabase"}}, {"type": "node", "id": 1150883341, "lat": 8.29562, "lon": 36.15079, "tags": {"is_in:country": "Ethiopia", "is_in:country_code": "ET", "name": "K'Oron", "place": "locality", "source": "GeoDatabase"}}, {"type": "node", "id": 1150884262, "lat": 8.16667, "lon": 36.2, "tags": {"is_in:country": "Ethiopia", "is_in:country_code": "ET", "name": "Guma", "place": "locality", "source": "GeoDatabase"}}, {"type": "node", "id": 1150885549, "lat": 8.21667, "lon": 36.41667, "tags": {"is_in:country": "Ethiopia", "is_in:country_code": "ET", "name": "Bunno", "place": "locality", "source": "GeoDatabase"}}, {"type": "node", "id": 1150887040, "lat": 8.09214, "lon": 36.22896, "tags": {"is_in:country": "Ethiopia", "is_in:country_code": "ET", "name": "Chefecha", "place": "locality", "source": "GeoDatabase"}}, {"type": "node", "id": 1150887907, "lat": 8.28081, "lon": 36.05652, "tags": {"is_in:country": "Ethiopia", "is_in:country_code": "ET", "name": "Sardo", "place": "locality", "source": "GeoDatabase"}}, {"type": "node", "id": 1150888657, "lat": 8.34084, "lon": 36.13695, "tags": {"is_in:country": "Ethiopia", "is_in:country_code": "ET", "name": "Bok'Iti", "place": "locality", "source": "GeoDatabase"}}, {"type": "node", "id": 1150889211, "lat": 8.36333, "lon": 36.15356, "tags": {"is_in:country": "Ethiopia", "is_in:country_code": "ET", "name": "Bule", "place": "locality", "source": "GeoDatabase"}}, {"type": "node", "id": 1150889876, "lat": 8.45329, "lon": 36.24642, "tags": {"is_in:country": "Ethiopia", "is_in:country_code": "ET", "name": "Siso", "place": "locality", "source": "GeoDatabase"}}, {"type": "node", "id": 1150891178, "lat": 8.10895, "lon": 36.16713, "tags": {"is_in:country": "Ethiopia", "is_in:country_code": "ET", "name": "Sata (2)", "place": "locality", "source": "GeoDatabase"}}, {"type": "node", "id": 1150892264, "lat": 8.13333, "lon": 36.16667, "tags": {"is_in:country": "Ethiopia", "is_in:country_code": "ET", "name": "Catena Saye", "place": "locality", "source": "GeoDatabase"}}, {"type": "node", "id": 1150893659, "lat": 8.36092, "lon": 36.12141, "tags": {"alt_name": "K'Umbabe", "is_in:country": "Ethiopia", "is_in:country_code": "ET", "name": "Kumbabe", "place": "village", "source": "GeoDatabase"}}, {"type": "node", "id": 1150905098, "lat": 8.2, "lon": 36.28333, "tags": {"is_in:country": "Ethiopia", "is_in:country_code": "ET", "name": "Uace", "place": "locality", "source": "GeoDatabase"}}, {"type": "node", "id": 1150912203, "lat": 8.11424, "lon": 36.27892, "tags": {"is_in:country": "Ethiopia", "is_in:country_code": "ET", "name": "Boba", "place": "locality", "source": "GeoDatabase"}}, {"type": "node", "id": 1150912227, "lat": 8.2553, "lon": 36.09837, "tags": {"is_in:country": "Ethiopia", "is_in:country_code": "ET", "name": "Khupo", "place": "locality", "source": "GeoDatabase"}}, {"type": "node", "id": 1150912230, "lat": 8.17877, "lon": 36.10507, "tags": {"name": "Set'Ema", "place": "locality", "source": "GeoDatabase"}}, {"type": "node", "id": 1150917173, "lat": 8.43071, "lon": 36.24614, "tags": {"is_in:country": "Ethiopia", "is_in:country_code": "ET", "name": "Cumbabe", "place": "locality", "source": "GeoDatabase"}}, {"type": "node", "id": 1150920599, "lat": 8.17631, "lon": 36.25389, "tags": {"is_in:country": "Ethiopia", "is_in:country_code": "ET", "name": "Sateye", "place": "locality", "source": "GeoDatabase"}}, {"type": "node", "id": 1150922459, "lat": 8.35, "lon": 36.11667, "tags": {"is_in:country": "Ethiopia", "is_in:country_code": "ET", "name": "Mount Darumu", "place": "locality", "source": "GeoDatabase"}}, {"type": "node", "id": 1150926699, "lat": 8.14457, "lon": 36.22332, "tags": {"is_in:country": "Ethiopia", "is_in:country_code": "ET", "name": "Sata (1)", "place": "locality", "source": "GeoDatabase"}}, {"type": "node", "id": 1150936019, "lat": 8.4036, "lon": 36.05161, "tags": {"is_in:country": "Ethiopia", "is_in:country_code": "ET", "name": "Babessa", "place": "locality", "source": "GeoDatabase"}}, {"type": "node", "id": 1150937581, "lat": 8.08333, "lon": 36.4, "tags": {"is_in:country": "Ethiopia", "is_in:country_code": "ET", "name": "Doma", "place": "locality", "source": "GeoDatabase"}}, {"type": "node", "id": 1150945324, "lat": 8.3, "lon": 36.16667, "tags": {"is_in:country": "Ethiopia", "is_in:country_code": "ET", "name": "Ciora", "place": "locality", "source": "GeoDatabase"}}, {"type": "node", "id": 1150952472, "lat": 8.3443, "lon": 36.08654, "tags": {"is_in:country": "Ethiopia", "is_in:country_code": "ET", "name": "Gore", "place": "locality", "source": "GeoDatabase"}}, {"type": "node", "id": 1150955028, "lat": 8.07545, "lon": 36.16078, "tags": {"is_in:country": "Ethiopia", "is_in:country_code": "ET", "name": "Kolbe'I", "place": "locality", "source": "GeoDatabase"}}, {"type": "node", "id": 1150955222, "lat": 8.15832, "lon": 36.12717, "tags": {"is_in:country": "Ethiopia", "is_in:country_code": "ET", "name": "Gatira", "place": "locality", "source": "GeoDatabase"}}, {"type": "node", "id": 1150957575, "lat": 8.38097, "lon": 36.38028, "tags": {"is_in:country": "Ethiopia", "is_in:country_code": "ET", "name": "Iura", "place": "locality", "source": "GeoDatabase"}}, {"type": "node", "id": 1150963811, "lat": 8.42186, "lon": 36.27032, "tags": {"is_in:country": "Ethiopia", "is_in:country_code": "ET", "name": "Sota", "place": "locality", "source": "GeoDatabase"}}, {"type": "node", "id": 1150966605, "lat": 8.36667, "lon": 36.06666, "tags": {"is_in:country": "Ethiopia", "is_in:country_code": "ET", "name": "Kembolcha", "place": "locality", "source": "GeoDatabase"}}, {"type": "node", "id": 1150971165, "lat": 8.43333, "lon": 36.26667, "tags": {"is_in:country": "Ethiopia", "is_in:country_code": "ET", "name": "Doria", "place": "locality", "source": "GeoDatabase"}}, {"type": "node", "id": 1150979730, "lat": 8.40487, "lon": 36.09303, "tags": {"is_in:country": "Ethiopia", "is_in:country_code": "ET", "name": "Abdela", "place": "locality", "source": "GeoDatabase"}}, {"type": "node", "id": 1151003476, "lat": 8.4343064, "lon": 36.1802401, "tags": {"name": "Kue", "place": "village", "source": "GeoDatabase"}}, {"type": "node", "id": 1283734199, "lat": 8.4374125, "lon": 36.3285253, "tags": {"name": "Brewe", "name:en": "Bedele Brewery", "place": "village"}}, {"type": "node", "id": 1285634229, "lat": 8.3329655, "lon": 36.418743, "tags": {"name": "Gechi", "place": "town"}}]}