{"version": 0.6, "generator": "Overpass API 0.7.62.1 084b4234", "osm3s": {"timestamp_osm_base": "2024-09-30T23:51:56Z", "copyright": "The data included in this document is from www.openstreetmap.org. The data is made available under ODbL."}, "elements": [{"type": "node", "id": 1150883360, "lat": 7.78333, "lon": 42.05, "tags": {"is_in:country": "Ethiopia", "is_in:country_code": "ET", "name": "Bir Debleh", "place": "locality", "source": "GeoDatabase"}}, {"type": "node", "id": 1150934889, "lat": 7.56667, "lon": 42.03333, "tags": {"is_in:country": "Ethiopia", "is_in:country_code": "ET", "name": "Erer Wenz", "place": "locality", "source": "GeoDatabase"}}, {"type": "node", "id": 1150942323, "lat": 7.8, "lon": 42.2, "tags": {"is_in:country": "Ethiopia", "is_in:country_code": "ET", "name": "Gundabella", "place": "locality", "source": "GeoDatabase"}}, {"type": "node", "id": 1150955125, "lat": 7.83333, "lon": 42.01667, "tags": {"is_in:country": "Ethiopia", "is_in:country_code": "ET", "name": "Fik' Shet'", "place": "locality", "source": "GeoDatabase"}}, {"type": "node", "id": 1150978219, "lat": 7.45, "lon": 42.23333, "tags": {"is_in:country": "Ethiopia", "is_in:country_code": "ET", "name": "Hamero", "place": "locality", "source": "GeoDatabase"}}, {"type": "node", "id": 2208509975, "lat": 7.6891996, "lon": 42.1838344, "tags": {"name": "Hamero", "place": "village"}}, {"type": "node", "id": 3144631188, "lat": 7.4580187, "lon": 41.9212631, "tags": {"place": "village"}}, {"type": "node", "id": 3144631571, "lat": 7.8262262, "lon": 41.8701611, "tags": {"place": "village"}}]}