{"version": 0.6, "generator": "Overpass API 0.7.62.1 084b4234", "osm3s": {"timestamp_osm_base": "2024-09-30T23:14:58Z", "copyright": "The data included in this document is from www.openstreetmap.org. The data is made available under ODbL."}, "elements": [{"type": "node", "id": 1150882560, "lat": 6.55, "lon": 41.28333, "tags": {"is_in:country": "Ethiopia", "is_in:country_code": "ET", "name": "Haro Buri", "place": "locality", "source": "GeoDatabase"}}, {"type": "node", "id": 1150887723, "lat": 6.38333, "lon": 41.48333, "tags": {"is_in:country": "Ethiopia", "is_in:country_code": "ET", "name": "Dore Weyina", "place": "locality", "source": "GeoDatabase"}}, {"type": "node", "id": 1150912215, "lat": 6.56667, "lon": 41.66667, "tags": {"is_in:country": "Ethiopia", "is_in:country_code": "ET", "name": "Idabo", "place": "locality", "source": "GeoDatabase"}}, {"type": "node", "id": 1150915133, "lat": 6.3, "lon": 41.66667, "tags": {"is_in:country": "Ethiopia", "is_in:country_code": "ET", "name": "Dagas", "place": "locality", "source": "GeoDatabase"}}, {"type": "node", "id": 1150922362, "lat": 6.38333, "lon": 41.6, "tags": {"is_in:country": "Ethiopia", "is_in:country_code": "ET", "name": "Giabis", "place": "locality", "source": "GeoDatabase"}}, {"type": "node", "id": 1151003507, "lat": 6.31667, "lon": 41.35, "tags": {"is_in:country": "Ethiopia", "is_in:country_code": "ET", "name": "Buri", "place": "locality", "source": "GeoDatabase"}}, {"type": "node", "id": 1151004935, "lat": 6.68333, "lon": 41.53333, "tags": {"is_in:country": "Ethiopia", "is_in:country_code": "ET", "name": "Lido", "place": "locality", "source": "GeoDatabase"}}]}