{"version": 0.6, "generator": "Overpass API 0.7.62.1 084b4234", "osm3s": {"timestamp_osm_base": "2024-09-30T20:38:52Z", "copyright": "The data included in this document is from www.openstreetmap.org. The data is made available under ODbL."}, "elements": [{"type": "node", "id": 1150944537, "lat": 4.9, "lon": 43.75, "tags": {"name": "El Candar", "place": "locality", "source": "GeoDatabase"}}, {"type": "node", "id": 1150945726, "lat": 4.9, "lon": 43.7, "tags": {"name": "Uar Curale", "place": "locality", "source": "GeoDatabase"}}, {"type": "node", "id": 1404221833, "lat": 4.82739, "lon": 43.66112, "tags": {"name": "Laanta", "pcode": "NB-3814-E04-002", "place": "suburb", "source": "UNDP - 2006"}}, {"type": "node", "id": 1404222363, "lat": 4.80724, "lon": 43.712, "tags": {"name": "Hiirey", "pcode": "NB-3814-E05-001", "place": "hamlet", "source": "UNDP - 2006, FSAU"}}, {"type": "node", "id": 1404224708, "lat": 4.849305, "lon": 43.88171, "tags": {"name": "Lambar", "pcode": "NB-3814-D09-002", "place": "hamlet", "source": "INGO - 2010", "verified": "no"}}, {"type": "node", "id": 1404224710, "lat": 4.90952, "lon": 43.99175, "tags": {"alt_name": "Salcudoble", "name": "Sal-Kudhooble", "pcode": "NB-3814-C11-001", "place": "village", "source": "UNDP - 2006, UNDP - 1997, FSAU"}}, {"type": "node", "id": 1404225932, "lat": 4.82821, "lon": 43.659931, "tags": {"alt_name": "El Barde", "name": "Ceel Barde", "pcode": "NB-3814-E04-001", "place": "town", "source": "UNDP - 1997, FSAU"}}, {"type": "node", "id": 1404226785, "lat": 4.86146, "lon": 43.90866, "tags": {"name": "Sal", "pcode": "NB-3814-D09-001", "place": "hamlet", "source": "FSAU"}}, {"type": "node", "id": 1404230866, "lat": 4.93317, "lon": 43.69238, "tags": {"name": "War Wiin", "pcode": "NB-3814-B05-001", "place": "village", "source": "UNDP - 2006"}}, {"type": "node", "id": 1404231500, "lat": 4.77141, "lon": 43.68902, "tags": {"name": "Qeyre Haboon", "pcode": "NB-3814-F05-001", "place": "hamlet", "source": "UNDP - 2006"}}, {"type": "node", "id": 1404231515, "lat": 4.694465, "lon": 43.709778, "tags": {"name": "Banbar", "pcode": "NB-3814-H05-001", "place": "village", "source": "INGO - 2010", "verified": "no"}}]}