{"version": 0.6, "generator": "Overpass API 0.7.62.1 084b4234", "osm3s": {"timestamp_osm_base": "2024-09-30T21:33:56Z", "copyright": "The data included in this document is from www.openstreetmap.org. The data is made available under ODbL."}, "elements": [{"type": "node", "id": 1150894338, "lat": 12.8, "lon": 40.75, "tags": {"is_in:country_code": "ET", "is_in:county": "Ethiopia", "name": "Kabele", "place": "locality", "source": "GeoDatabase"}}, {"type": "node", "id": 1150898523, "lat": 12.84222, "lon": 40.96278, "tags": {"is_in:country_code": "ET", "is_in:county": "Ethiopia", "name": "Ela Yeterara Ch'Af", "place": "locality", "source": "GeoDatabase"}}, {"type": "node", "id": 1150923777, "lat": 13.0, "lon": 41.0, "tags": {"is_in:country_code": "ET", "is_in:county": "Ethiopia", "name": "Tomba Di Mohammed Daza", "place": "locality", "source": "GeoDatabase"}}, {"type": "node", "id": 1150942561, "lat": 12.73333, "lon": 40.66667, "tags": {"is_in:country_code": "ET", "is_in:county": "Ethiopia", "name": "Moina", "place": "locality", "source": "GeoDatabase"}}, {"type": "node", "id": 1150956943, "lat": 13.03333, "lon": 40.65, "tags": {"is_in:country_code": "ET", "is_in:county": "Ethiopia", "name": "Alaita", "place": "locality", "source": "GeoDatabase"}}, {"type": "node", "id": 1150961054, "lat": 12.8075, "lon": 40.96528, "tags": {"is_in:country_code": "ET", "is_in:county": "Ethiopia", "name": "Melke'I Shet'", "place": "locality", "source": "GeoDatabase"}}, {"type": "node", "id": 1150981514, "lat": 12.82861, "lon": 40.70694, "tags": {"is_in:country_code": "ET", "is_in:county": "Ethiopia", "name": "Agule Isate Gomera", "place": "locality", "source": "GeoDatabase"}}]}