{"version": 0.6, "generator": "Overpass API 0.7.62.1 084b4234", "osm3s": {"timestamp_osm_base": "2024-09-30T19:16:30Z", "copyright": "The data included in this document is from www.openstreetmap.org. The data is made available under ODbL."}, "elements": [{"type": "node", "id": 3693575973, "lat": 2.4959504, "lon": 39.7356852, "tags": {"name": "Anole", "place": "village"}}, {"type": "node", "id": 3697022301, "lat": 2.7107629, "lon": 39.9892141, "tags": {"name": "Dunto", "place": "town"}}, {"type": "node", "id": 3702342277, "lat": 2.6409461, "lon": 39.738106, "tags": {"name": "Kubidula", "place": "village"}}, {"type": "node", "id": 3702342286, "lat": 2.5390361, "lon": 39.9527579, "tags": {"name": "Sarman", "place": "town"}}, {"type": "node", "id": 3702498487, "lat": 2.6075784, "lon": 40.07017, "tags": {"name": "Beerjanay", "place": "village"}}, {"type": "node", "id": 3702721532, "lat": 2.4051205, "lon": 40.0167974, "tags": {"name": "Dambas", "place": "town"}}, {"type": "node", "id": 3702721555, "lat": 2.4752579, "lon": 40.0009449, "tags": {"name": "Jaijai", "place": "village"}}, {"type": "node", "id": 3702721558, "lat": 2.4407875, "lon": 39.9362232, "tags": {"name": "Machine Ben", "place": "village"}}]}