{"version": 0.6, "generator": "Overpass API 0.7.62.1 084b4234", "osm3s": {"timestamp_osm_base": "2024-09-30T22:17:52Z", "copyright": "The data included in this document is from www.openstreetmap.org. The data is made available under ODbL."}, "elements": [{"type": "node", "id": 1150880893, "lat": 7.16667, "lon": 39.0, "tags": {"is_in:country": "Ethiopia", "is_in:country_code": "ET", "name": "Sema Korebta", "place": "locality", "source": "GeoDatabase"}}, {"type": "node", "id": 1150882306, "lat": 7.31667, "lon": 38.81666, "tags": {"is_in:country": "Ethiopia", "is_in:country_code": "ET", "name": "Ruga Irsha", "place": "locality", "source": "GeoDatabase"}}, {"type": "node", "id": 1150886172, "lat": 7.23333, "lon": 38.81666, "tags": {"name": "Duro Terara", "place": "locality", "source": "GeoDatabase"}}, {"type": "node", "id": 1150887282, "lat": 7.51667, "lon": 38.75, "tags": {"is_in:country": "Ethiopia", "is_in:country_code": "ET", "name": "Lak Angioftu", "place": "locality", "source": "GeoDatabase"}}, {"type": "node", "id": 1150887901, "lat": 7.5307401, "lon": 38.9855348, "tags": {"name": "Kersa", "place": "town", "source": "GeoDatabase", "wikidata": "Q3195521", "wikipedia": "en:Kersa, Arsi"}}, {"type": "node", "id": 1150892070, "lat": 7.5, "lon": 39.01667, "tags": {"is_in:country": "Ethiopia", "is_in:country_code": "ET", "name": "Ch'Ik'E Terara", "place": "locality", "source": "GeoDatabase"}}, {"type": "node", "id": 1150894661, "lat": 7.43333, "lon": 38.86667, "tags": {"is_in:country": "Ethiopia", "is_in:country_code": "ET", "name": "Gambo", "place": "locality", "source": "GeoDatabase"}}, {"type": "node", "id": 1150898572, "lat": 7.5, "lon": 39.06666, "tags": {"is_in:country": "Ethiopia", "is_in:country_code": "ET", "name": "Gunguma", "place": "locality", "source": "GeoDatabase"}}, {"type": "node", "id": 1150901000, "lat": 7.33333, "lon": 38.93333, "tags": {"is_in:country": "Ethiopia", "is_in:country_code": "ET", "name": "Leye'A Wenz", "place": "locality", "source": "GeoDatabase"}}, {"type": "node", "id": 1150909872, "lat": 7.26667, "lon": 39.03333, "tags": {"is_in:country": "Ethiopia", "is_in:country_code": "ET", "name": "Giyoris", "place": "locality", "source": "GeoDatabase"}}, {"type": "node", "id": 1150913651, "lat": 7.53333, "lon": 38.96667, "tags": {"is_in:country": "Ethiopia", "is_in:country_code": "ET", "name": "Balimeda", "place": "locality", "source": "GeoDatabase"}}, {"type": "node", "id": 1150919179, "lat": 7.2193097, "lon": 38.9269697, "tags": {"name": "K'Ore / Qoree", "name:om": "Qoree", "place": "town", "source": "GeoDatabase"}}, {"type": "node", "id": 1150922883, "lat": 7.4082349, "lon": 38.7116704, "tags": {"name": "Weyo Bota", "place": "locality", "source": "GeoDatabase"}}, {"type": "node", "id": 1150925901, "lat": 7.45, "lon": 38.93333, "tags": {"is_in:country": "Ethiopia", "is_in:country_code": "ET", "name": "Gujicha", "place": "locality", "source": "GeoDatabase"}}, {"type": "node", "id": 1150932904, "lat": 7.5, "lon": 38.98333, "tags": {"is_in:country": "Ethiopia", "is_in:country_code": "ET", "name": "Yeswidin Misiyon Timhirt Bet", "place": "locality", "source": "GeoDatabase"}}, {"type": "node", "id": 1150937404, "lat": 7.35, "lon": 39.0, "tags": {"is_in:country": "Ethiopia", "is_in:country_code": "ET", "name": "Waji", "place": "locality", "source": "GeoDatabase"}}, {"type": "node", "id": 1150945001, "lat": 7.55, "lon": 38.81666, "tags": {"is_in:country": "Ethiopia", "is_in:country_code": "ET", "name": "Kersa River", "place": "locality", "source": "GeoDatabase"}}, {"type": "node", "id": 1150945097, "lat": 7.16667, "lon": 38.96667, "tags": {"is_in:country": "Ethiopia", "is_in:country_code": "ET", "name": "Faggi", "place": "locality", "source": "GeoDatabase"}}, {"type": "node", "id": 1150950009, "lat": 7.3, "lon": 38.85, "tags": {"is_in:country": "Ethiopia", "is_in:country_code": "ET", "name": "`Alem Gena", "place": "locality", "source": "GeoDatabase"}}, {"type": "node", "id": 1150961518, "lat": 7.23333, "lon": 38.98333, "tags": {"is_in:country": "Ethiopia", "is_in:country_code": "ET", "name": "Sire", "place": "locality", "source": "GeoDatabase"}}, {"type": "node", "id": 1150970357, "lat": 7.4312619, "lon": 38.8379524, "tags": {"is_in:country": "Ethiopia", "is_in:country_code": "ET", "name": "Degaga", "place": "village", "source": "GeoDatabase"}}, {"type": "node", "id": 1150972379, "lat": 7.25, "lon": 38.75, "tags": {"is_in:country": "Ethiopia", "is_in:country_code": "ET", "name": "K'Ech'Ema Bota", "place": "locality", "source": "GeoDatabase"}}, {"type": "node", "id": 1150981386, "lat": 7.41667, "lon": 38.98333, "tags": {"is_in:country": "Ethiopia", "is_in:country_code": "ET", "name": "Cubsa", "place": "locality", "source": "GeoDatabase"}}, {"type": "node", "id": 1195525915, "lat": 7.5275787, "lon": 38.7884097, "tags": {"name": "Beach B", "place": "locality"}}, {"type": "node", "id": 1195526792, "lat": 7.5283013, "lon": 38.789459, "tags": {"name": "Beach A", "place": "locality"}}, {"type": "node", "id": 1953073693, "lat": 7.2757491, "lon": 39.084099, "tags": {"place": "village"}}, {"type": "node", "id": 1955282771, "lat": 7.1622778, "lon": 39.0871041, "tags": {"place": "village"}}, {"type": "node", "id": 2113534487, "lat": 7.510841, "lon": 39.0749606, "tags": {"place": "village"}}, {"type": "node", "id": 2113534514, "lat": 7.451838, "lon": 39.0765335, "tags": {"place": "village"}}, {"type": "node", "id": 2238368890, "lat": 7.3058566, "lon": 38.8150185, "tags": {"place": "village"}}, {"type": "node", "id": 2238369965, "lat": 7.3486136, "lon": 38.8087957, "tags": {"place": "village"}}, {"type": "node", "id": 2282571354, "lat": 7.3537484, "lon": 39.0230548, "tags": {"place": "village"}}, {"type": "node", "id": 6638725492, "lat": 7.2412778, "lon": 38.8413905, "tags": {"name": "Dooda Diddissaa", "name:om": "Dooda Diddissaa", "place": "locality"}}]}