{"version": 0.6, "generator": "Overpass API 0.7.62.1 084b4234", "osm3s": {"timestamp_osm_base": "2024-09-30T20:45:58Z", "copyright": "The data included in this document is from www.openstreetmap.org. The data is made available under ODbL."}, "elements": [{"type": "node", "id": 36161073, "lat": 1.789663, "lon": 44.530629, "tags": {"alt_name": "Qoryoley", "name": "Qoryooley \u0642\u0648\u0631\u064a\u0648\u0644\u064a", "name:ar": "\u0642\u0648\u0631\u064a\u0648\u0644\u064a", "name:de": "Qoryooley", "name:en": "Qoryooley", "name:es": "Qoryooley", "name:fr": "Qoryooley", "place": "city", "wikidata": "Q2054709"}}, {"type": "node", "id": 43528137, "lat": 1.8427539, "lon": 44.5937239, "tags": {"name": "Shabeellaha Hoose \u0634\u0628\u064a\u0644\u064a \u0627\u0644\u0633\u0641\u0644\u0649", "name:ar": "\u0634\u0628\u064a\u0644\u064a \u0627\u0644\u0633\u0641\u0644\u0649", "name:de": "Unter-Shabelle", "name:en": "Lower Shebelle", "name:fr": "Shabeellaha Hoose", "name:it": "Basso Scebeli", "name:ru": "\u041d\u0438\u0436\u043d\u044f\u044f \u0428\u0430\u0431\u0435\u043b\u043b\u0435", "place": "state", "ref": "SH", "state_code": "SH"}}, {"type": "node", "id": 1401898550, "lat": 1.5476344, "lon": 44.5022726, "tags": {"name": "Garasraadi", "place": "hamlet"}}, {"type": "node", "id": 1404221332, "lat": 1.5780724, "lon": 44.5776659, "tags": {"name": "Boorow", "pcode": "NA-3810-L24-001", "place": "village", "source": "KEMRI - 2007"}}, {"type": "node", "id": 1404221374, "lat": 1.7226397, "lon": 44.3911155, "tags": {"name": "Cawjab", "pcode": "NA-3810-G20-001", "place": "isolated_dwelling", "source": "UNDP - 1997"}}, {"type": "node", "id": 1404221379, "lat": 1.74459, "lon": 44.50975, "tags": {"name": "Xaaji Abuukar", "pcode": "NA-3810-G23-003", "place": "locality", "source": "UNDP - 1997"}}, {"type": "node", "id": 1404221388, "lat": 1.66379, "lon": 44.589779, "tags": {"name": "Muuto", "pcode": "NA-3810-J24-005", "place": "locality", "source": "UNDP - 1997"}}, {"type": "node", "id": 1404221458, "lat": 1.6630226, "lon": 44.5180612, "tags": {"name": "Taxliil", "pcode": "NA-3810-J23-004", "place": "isolated_dwelling", "source": "UNDP - 1997"}}, {"type": "node", "id": 1404221462, "lat": 1.6065626, "lon": 44.4246572, "tags": {"name": "Shiikh Adan", "pcode": "NA-3810-K21-002", "place": "village", "source": "UNDP - 1997"}}, {"type": "node", "id": 1404221503, "lat": 1.75705, "lon": 44.666, "tags": {"name": "Jennale Area", "pcode": "NA-3810-F26-004", "place": "locality"}}, {"type": "node", "id": 1404221561, "lat": 1.8193416, "lon": 44.6728182, "tags": {"name": "Farange Muunge", "pcode": "NA-3810-E26-010", "place": "village"}}, {"type": "node", "id": 1404221567, "lat": 1.6632968, "lon": 44.3274902, "tags": {"name": "Uraanurow", "pcode": "NA-3810-J19-002", "place": "village", "source": "UNDP - 2006"}}, {"type": "node", "id": 1404221583, "lat": 1.8460429, "lon": 44.6313361, "tags": {"name": "Majiwo", "pcode": "NA-3810-D25-003", "place": "isolated_dwelling"}}, {"type": "node", "id": 1404221590, "lat": 1.712471, "lon": 44.610401, "tags": {"name": "Madiina", "pcode": "NA-3810-G25-002", "place": "locality", "source": "UNDP - 1997"}}, {"type": "node", "id": 1404221674, "lat": 1.7034, "lon": 44.536701, "tags": {"name": "Siisab", "pcode": "NA-3810-H23-005", "place": "locality", "source": "UNDP - 1997"}}, {"type": "node", "id": 1404221683, "lat": 1.7519, "lon": 44.579201, "tags": {"name": "Nuria", "pcode": "NA-3810-F24-001", "place": "locality"}}, {"type": "node", "id": 1404221728, "lat": 1.6243, "lon": 44.346081, "tags": {"name": "Shimbirole", "pcode": "NA-3810-K19-005", "place": "locality", "source": "UNDP - 1997"}}, {"type": "node", "id": 1404221822, "lat": 1.78337, "lon": 44.6152, "tags": {"alt_name": "Madiina", "checked": "no", "name": "Cumariya", "pcode": "NA-3810-F25-012", "place": "hamlet"}}, {"type": "node", "id": 1404221823, "lat": 1.52331, "lon": 44.46014, "tags": {"name": "Diblaay", "pcode": "NA-3810-M22-001", "place": "locality", "source": "UNDP - 1997"}}, {"type": "node", "id": 1404221887, "lat": 1.82705, "lon": 44.635071, "tags": {"name": "Cabdillahi Caddow", "pcode": "NA-3810-E25-006", "place": "locality"}}, {"type": "node", "id": 1404221980, "lat": 1.615157, "lon": 44.436594, "tags": {"name": "Mukay Dumis", "pcode": "NA-3810-K21-005", "place": "village", "source": "UNDP - 2006, FSAU"}}, {"type": "node", "id": 1404222026, "lat": 1.6936741, "lon": 44.3763869, "tags": {"name": "Roha", "pcode": "NA-3810-H20-004", "place": "village", "source": "UNDP - 2006"}}, {"type": "node", "id": 1404222050, "lat": 1.8098091, "lon": 44.686435, "tags": {"name": "Qoriole", "pcode": "NA-3810-E27-004", "place": "locality"}}, {"type": "node", "id": 1404222096, "lat": 1.64702, "lon": 44.564911, "tags": {"name": "Cabdi Xasan", "pcode": "NA-3810-J24-002", "place": "locality", "source": "UNDP - 1997"}}, {"type": "node", "id": 1404222136, "lat": 1.77886, "lon": 44.637508, "tags": {"name": "Daasani Anjalo", "pcode": "NA-3810-F26-008", "place": "locality"}}, {"type": "node", "id": 1404222166, "lat": 1.739605, "lon": 44.67195, "tags": {"name": "Luusi", "pcode": "NA-3810-G26-004", "place": "village", "source": "UNDP - 1997"}}, {"type": "node", "id": 1404222279, "lat": 1.51948, "lon": 44.41095, "tags": {"name": "Wiishow", "pcode": "NA-3810-M21-003", "place": "locality", "source": "UNDP - 2006"}}, {"type": "node", "id": 1404222373, "lat": 1.7670122, "lon": 44.6160766, "tags": {"name": "Muraale", "pcode": "NA-3810-F25-006", "place": "village"}}, {"type": "node", "id": 1404222534, "lat": 1.7654945, "lon": 44.626033, "tags": {"name": "Khaliif", "pcode": "NA-3810-F25-005", "place": "locality"}}, {"type": "node", "id": 1404222588, "lat": 1.74507, "lon": 44.45513, "tags": {"name": "Dhiiqooley", "pcode": "NA-3810-G22-007", "place": "village", "source": "UNDP - 2006"}}, {"type": "node", "id": 1404222630, "lat": 1.68703, "lon": 44.3725, "tags": {"alt_name": "Aliya Bananey", "name": "Caliya Bananey", "pcode": "NA-3810-H20-003", "place": "village", "source": "UNDP - 2006, FSAU"}}, {"type": "node", "id": 1404222649, "lat": 1.75304, "lon": 44.49017, "tags": {"alt_name": "Bakooro", "name": "Bakoore", "pcode": "NA-3810-F22-002", "place": "village", "source": "UNDP - 2006, UNDP - 1997"}}, {"type": "node", "id": 1404222656, "lat": 1.69381, "lon": 44.514771, "tags": {"name": "Cumar Maxamoud", "pcode": "NA-3810-H23-004", "place": "locality", "source": "UNDP - 1997"}}, {"type": "node", "id": 1404222669, "lat": 1.6785778, "lon": 44.3610757, "tags": {"name": "Tulis", "pcode": "NA-3810-H19-002", "place": "isolated_dwelling", "source": "UNDP - 2006"}}, {"type": "node", "id": 1404222714, "lat": 1.6083222, "lon": 44.5144957, "tags": {"name": "Beynax Barre", "pcode": "NA-3810-K23-001", "place": "locality", "source": "UNDP - 1997"}}, {"type": "node", "id": 1404222731, "lat": 1.7542054, "lon": 44.6857524, "tags": {"alt_name": "Jimeesi", "name": "Jimees", "pcode": "NA-3810-F27-002", "place": "village"}}, {"type": "node", "id": 1404222740, "lat": 1.78073, "lon": 44.5347, "tags": {"alt_name": "Degay Bere", "name": "Degaybere", "pcode": "NA-3810-F23-013", "place": "locality"}}, {"type": "node", "id": 1404222809, "lat": 1.7577233, "lon": 44.5238418, "tags": {"name": "Buullow", "pcode": "NA-3810-F23-004", "place": "village"}}, {"type": "node", "id": 1404222818, "lat": 1.7452, "lon": 44.57782, "tags": {"name": "Foosi", "pcode": "NA-3810-G24-009", "place": "locality", "source": "UNDP - 1997"}}, {"type": "node", "id": 1404222821, "lat": 1.8055157, "lon": 44.679739, "tags": {"alt_name": "Boordi", "name": "Borde", "pcode": "NA-3810-E26-007", "place": "farm"}}, {"type": "node", "id": 1404222854, "lat": 1.8088955, "lon": 44.5749302, "tags": {"name": "Bulo Eesow", "pcode": "NA-3810-E24-001", "place": "isolated_dwelling"}}, {"type": "node", "id": 1404222869, "lat": 1.69084, "lon": 44.483101, "tags": {"name": "Canalow", "pcode": "NA-3810-H22-003", "place": "locality", "source": "UNDP - 1997"}}, {"type": "node", "id": 1404222872, "lat": 1.4760582, "lon": 44.4388803, "tags": {"name": "Buq \u0628\u0642", "name:ar": "\u0628\u0642", "name:en": "Buq", "name:fr": "Buq", "pcode": "NA-3810-N21-001", "place": "hamlet", "source": "UNDP - 1997"}}, {"type": "node", "id": 1404222937, "lat": 1.85158, "lon": 44.664371, "tags": {"name": "Shalleeday", "pcode": "NA-3810-D26-002", "place": "locality"}}, {"type": "node", "id": 1404222948, "lat": 1.7446, "lon": 44.59048, "tags": {"name": "Buufow-Shiidka", "pcode": "NA-3810-G24-008", "place": "locality", "source": "UNDP - 2006"}}, {"type": "node", "id": 1404222953, "lat": 1.73903, "lon": 44.43726, "tags": {"name": "Dhalimaanyoley", "pcode": "NA-3810-G21-006", "place": "locality", "source": "UNDP - 1997"}}, {"type": "node", "id": 1404223069, "lat": 1.61389, "lon": 44.389278, "tags": {"name": "Arees Eber", "pcode": "NA-3810-K20-003", "place": "locality", "source": "UNDP - 1997"}}, {"type": "node", "id": 1404223242, "lat": 1.6142, "lon": 44.435749, "tags": {"name": "Mokoyjaalle", "pcode": "NA-3810-K21-004", "place": "village", "source": "UNDP - 1997", "wikidata": "Q18612701", "wikipedia": "nl:Mokoyjaalle"}}, {"type": "node", "id": 1404223356, "lat": 1.7825225, "lon": 44.5504201, "tags": {"name": "Lamma Dad", "pcode": "NA-3810-F24-011", "place": "locality"}}, {"type": "node", "id": 1404223367, "lat": 1.7436783, "lon": 44.6009479, "tags": {"name": "Mashalaay", "pcode": "NA-3810-G25-027", "place": "locality", "source": "UNDP - 2006, UNDP - 1997"}}, {"type": "node", "id": 1404223391, "lat": 1.667573, "lon": 44.3856163, "tags": {"alt_name": "Afgoi Yare", "name": "Afgoye-Yarey", "pcode": "NA-3810-H20-001", "place": "village", "source": "UNDP - 2006, UNDP - 1997, FSAU"}}, {"type": "node", "id": 1404223453, "lat": 1.7843427, "lon": 44.5483348, "tags": {"name": "Jasiira", "pcode": "NA-3810-F24-013", "place": "village"}}, {"type": "node", "id": 1404223455, "lat": 1.76743, "lon": 44.59206, "tags": {"name": "Dhukey", "pcode": "NA-3810-F25-008", "place": "locality"}}, {"type": "node", "id": 1404223462, "lat": 1.77642, "lon": 44.555279, "tags": {"name": "Faqayow", "pcode": "NA-3810-F24-010", "place": "locality"}}, {"type": "node", "id": 1404223506, "lat": 1.7555267, "lon": 44.6550331, "tags": {"alt_name": "Aadan Cade", "name": "Deegaanta", "pcode": "NA-3810-F26-003", "place": "village"}}, {"type": "node", "id": 1404223516, "lat": 1.5172332, "lon": 44.4228778, "tags": {"alt_name": "Cambarey Weyn", "name": "Cambarey", "pcode": "NA-3810-M21-001", "place": "hamlet", "source": "UNDP - 2006, UNDP - 1997"}}, {"type": "node", "id": 1404223540, "lat": 1.7180501, "lon": 44.6059167, "tags": {"name": "Limaan", "pcode": "NA-3810-G25-007", "place": "isolated_dwelling", "source": "UNDP - 1997"}}, {"type": "node", "id": 1404223551, "lat": 1.6731606, "lon": 44.658541, "tags": {"name": "Sinai", "pcode": "NA-3810-H26-001", "place": "hamlet", "source": "KEMRI - 2007"}}, {"type": "node", "id": 1404223558, "lat": 1.6033954, "lon": 44.4910296, "tags": {"name": "Bulo Madhow", "pcode": "NA-3810-K22-003", "place": "hamlet", "source": "UNDP - 2006"}}, {"type": "node", "id": 1404223579, "lat": 1.80356, "lon": 44.65803, "tags": {"alt_name": "Cadimole, Adimole", "name": "Cadiimale", "pcode": "NA-3810-E26-003", "place": "village"}}, {"type": "node", "id": 1404223580, "lat": 1.6283, "lon": 44.40528, "tags": {"alt_name": "Idow Guudow", "name": "Iidoow-Guudow", "pcode": "NA-3810-J20-001", "place": "village", "source": "UNDP - 2006, UNDP - 1997, FSAU", "wikidata": "Q18612700", "wikipedia": "nl:Idow Guudow"}}, {"type": "node", "id": 1404223583, "lat": 1.8089881, "lon": 44.6815366, "tags": {"name": "Gariiley", "pcode": "NA-3810-E26-008", "place": "hamlet"}}, {"type": "node", "id": 1404223673, "lat": 1.74387, "lon": 44.683159, "tags": {"name": "Baraale", "pcode": "NA-3810-G27-005", "place": "locality"}}, {"type": "node", "id": 1404223679, "lat": 1.70888, "lon": 44.441448, "tags": {"name": "Banaar Jadiid", "pcode": "NA-3810-G21-001", "place": "locality", "source": "UNDP - 1997"}}, {"type": "node", "id": 1404223729, "lat": 1.76073, "lon": 44.492161, "tags": {"name": "Dirrye", "pcode": "NA-3810-F22-007", "place": "village", "source": "UNDP - 1997"}}, {"type": "node", "id": 1404223741, "lat": 1.733888, "lon": 44.607522, "tags": {"alt_name": "Cadey Bari", "name": "Waberi Sec", "pcode": "NA-3810-G25-016", "place": "locality", "source": "UNDP - 2006"}}, {"type": "node", "id": 1404223752, "lat": 1.7444, "lon": 44.49775, "tags": {"name": "Dharenley", "pcode": "NA-3810-G22-005", "place": "locality", "source": "UNDP - 2006"}}, {"type": "node", "id": 1404223821, "lat": 1.6999, "lon": 44.440311, "tags": {"name": "Doon Loow", "pcode": "NA-3810-H21-008", "place": "village", "source": "UNDP - 1997"}}, {"type": "node", "id": 1404223883, "lat": 1.744188, "lon": 44.487943, "tags": {"name": "Bagdaad", "pcode": "NA-3810-G22-006", "place": "locality", "source": "UNDP - 2006, UNDP - 1997"}}, {"type": "node", "id": 1404223888, "lat": 1.82407, "lon": 44.688919, "tags": {"name": "Jiddo", "pcode": "NA-3810-E27-009", "place": "locality"}}, {"type": "node", "id": 1404223919, "lat": 1.84305, "lon": 44.5773, "tags": {"checked": "no", "name": "Towfiq", "pcode": "NA-3810-D24-001", "place": "hamlet"}}, {"type": "node", "id": 1404223966, "lat": 1.73386, "lon": 44.55962, "tags": {"name": "Xuseyn Cawaale", "pcode": "NA-3810-G24-003", "place": "locality", "source": "UNDP - 1997"}}, {"type": "node", "id": 1404224096, "lat": 1.738318, "lon": 44.611999, "tags": {"name": "Gendilow", "pcode": "NA-3810-G25-021", "place": "locality", "source": "UNDP - 2006"}}, {"type": "node", "id": 1404224125, "lat": 1.6942, "lon": 44.37852, "tags": {"name": "Sheekh Banaaney", "pcode": "NA-3810-H20-005", "place": "village", "source": "UNDP - 2006"}}, {"type": "node", "id": 1404224145, "lat": 1.8434541, "lon": 44.6840889, "tags": {"alt_name": "Dagwariri", "name": "Deg-Wariiri", "pcode": "NA-3810-D27-007", "place": "village"}}, {"type": "node", "id": 1404224163, "lat": 1.78107, "lon": 44.63583, "tags": {"name": "Tawakal", "pcode": "NA-3810-F25-010", "place": "locality"}}, {"type": "node", "id": 1404224170, "lat": 1.66855, "lon": 44.42795, "tags": {"name": "Kamadka(Goosaarow)", "pcode": "NA-3810-H21-001", "place": "village", "source": "UNDP - 2006"}}, {"type": "node", "id": 1404224178, "lat": 1.72143, "lon": 44.60084, "tags": {"alt_name": "Danisow", "name": "Wadaq Sec", "pcode": "NA-3810-G25-008", "place": "locality"}}, {"type": "node", "id": 1404224194, "lat": 1.78942, "lon": 44.67297, "tags": {"alt_name": "Kayloy", "name": "Kaaytoy", "pcode": "NA-3810-F26-011", "place": "hamlet"}}, {"type": "node", "id": 1404224213, "lat": 1.68383, "lon": 44.504341, "tags": {"name": "Jorje", "pcode": "NA-3810-H23-002", "place": "locality", "source": "UNDP - 1997"}}, {"type": "node", "id": 1404224279, "lat": 1.727634, "lon": 44.4434309, "tags": {"alt_name": "Doonburaale", "name": "Doon Buraale", "pcode": "NA-3810-G21-005", "place": "village", "source": "UNDP - 2006, UNDP - 1997, FSAU"}}, {"type": "node", "id": 1404224333, "lat": 1.6455613, "lon": 44.546588, "tags": {"name": "Baasi", "pcode": "NA-3810-J24-001", "place": "locality", "source": "UNDP - 1997"}}, {"type": "node", "id": 1404224372, "lat": 1.75943, "lon": 44.48096, "tags": {"alt_name": "Buulo Bulow", "name": "Far Keerow", "pcode": "NA-3810-F22-004", "place": "village", "source": "UNDP - 2006, UNDP - 1997"}}, {"type": "node", "id": 1404224456, "lat": 1.82195, "lon": 44.632339, "tags": {"name": "Cabdi Dashir", "pcode": "NA-3810-E25-004", "place": "locality"}}, {"type": "node", "id": 1404224479, "lat": 1.7023, "lon": 44.329601, "tags": {"name": "Bulo Alio", "pcode": "NA-3810-H19-003", "place": "locality", "source": "UNDP - 1997"}}, {"type": "node", "id": 1404224493, "lat": 1.72788, "lon": 44.620491, "tags": {"alt_name": "Beldamin", "name": "Beled Amiin", "pcode": "NA-3810-G25-009", "place": "locality", "source": "UNDP - 1997"}}, {"type": "node", "id": 1404224503, "lat": 1.78578, "lon": 44.44217, "tags": {"name": "Ay Aarta", "pcode": "NA-3810-F21-002", "place": "locality", "source": "UNDP - 2006"}}, {"type": "node", "id": 1404224658, "lat": 1.6959449, "lon": 44.6101977, "tags": {"alt_name": "Steefal", "name": "Steval", "pcode": "NA-3810-H25-006", "place": "village", "source": "KEMRI - 2007, UNDP - 1997"}}, {"type": "node", "id": 1404224717, "lat": 1.7406593, "lon": 44.6283275, "tags": {"name": "Dhamme Yaasiin", "pcode": "NA-3810-G25-025", "place": "isolated_dwelling", "source": "UNDP - 1997"}}, {"type": "node", "id": 1404224844, "lat": 1.68901, "lon": 44.612541, "tags": {"name": "Inkaar", "pcode": "NA-3810-H25-005", "place": "locality", "source": "UNDP - 1997"}}, {"type": "node", "id": 1404224974, "lat": 1.76767, "lon": 44.50094, "tags": {"name": "Bandar \u0628\u0646\u062f\u0631", "name:ar": "\u0628\u0646\u062f\u0631", "name:en": "Bandar", "name:fr": "Bandar", "pcode": "NA-3810-F23-009", "place": "village"}}, {"type": "node", "id": 1404224978, "lat": 1.75139, "lon": 44.45489, "tags": {"alt_name": "Gorgaal (Main)", "name": "Gorgaal", "pcode": "NA-3810-F22-001", "place": "village", "source": "UNDP - 2006, UNDP - 1997"}}, {"type": "node", "id": 1404225043, "lat": 1.6506979, "lon": 44.6734268, "tags": {"name": "Melled", "pcode": "NA-3810-J26-002", "place": "village", "source": "KEMRI - 2007, UNDP - 2006, UNDP - 1997"}}, {"type": "node", "id": 1404225046, "lat": 1.6870954, "lon": 44.4193574, "tags": {"alt_name": "Bambaaso Kulud", "name": "Bombaasa Kulub", "pcode": "NA-3810-H21-004", "place": "village", "source": "UNDP - 2006, UNDP - 1997"}}, {"type": "node", "id": 1404225103, "lat": 1.77018, "lon": 44.600349, "tags": {"name": "Dabiil", "pcode": "NA-3810-F25-009", "place": "locality"}}, {"type": "node", "id": 1404225108, "lat": 1.59051, "lon": 44.58945, "tags": {"name": "Ceel Haraar", "pcode": "NA-3810-K24-002", "place": "village", "source": "KEMRI - 2007"}}, {"type": "node", "id": 1404225110, "lat": 1.6788123, "lon": 44.5990348, "tags": {"alt_name": "Gobeyle", "name": "Gabayle", "pcode": "NA-3810-H25-003", "place": "village", "source": "KEMRI - 2007, UNDP - 2006, UNDP - 1997"}}, {"type": "node", "id": 1404225196, "lat": 1.768493, "lon": 44.614607, "tags": {"name": "Xaaji Rooble", "pcode": "NA-3810-F25-007", "place": "hamlet"}}, {"type": "node", "id": 1404225204, "lat": 1.6098666, "lon": 44.3378327, "tags": {"alt_name": "Kurtunwarey", "name": "Wadaag", "pcode": "NA-3810-K19-001", "place": "suburb", "source": "UNDP - 2006"}}, {"type": "node", "id": 1404225208, "lat": 1.7883453, "lon": 44.5269937, "tags": {"name": "Hodan", "pcode": "NA-3810-F23-021", "place": "suburb"}}, {"type": "node", "id": 1404225247, "lat": 1.75076, "lon": 44.50761, "tags": {"name": "Xirsi", "pcode": "NA-3810-F23-001", "place": "locality", "source": "UNDP - 1997"}}, {"type": "node", "id": 1404225274, "lat": 1.7201527, "lon": 44.6243506, "tags": {"name": "Limaan (Raamo)", "pcode": "NA-3810-G25-006", "place": "isolated_dwelling", "source": "UNDP - 1997"}}, {"type": "node", "id": 1404225363, "lat": 1.7658, "lon": 44.52485, "tags": {"name": "Buulo Madow", "pcode": "NA-3810-F23-008", "place": "locality"}}, {"type": "node", "id": 1404225375, "lat": 1.7493716, "lon": 44.6278624, "tags": {"alt_name": "Cadaaliyow", "name": "Adaliyow", "pcode": "NA-3810-G25-030", "place": "village"}}, {"type": "node", "id": 1404225475, "lat": 1.479532, "lon": 44.3806163, "tags": {"alt_name": "Kunyaaw Guure", "name": "Kunyo Aw Gurow", "pcode": "NA-3810-N20-002", "place": "hamlet", "source": "UNDP - 2006, UNDP - 1997"}}, {"type": "node", "id": 1404225517, "lat": 1.8449087, "lon": 44.6374739, "tags": {"alt_name": "Cadayley", "checked": "no", "name": "Adeyiey", "pcode": "NA-3810-D26-001", "place": "hamlet"}}, {"type": "node", "id": 1404225526, "lat": 1.65383, "lon": 44.561352, "tags": {"name": "Jeer Baasoole", "pcode": "NA-3810-J24-003", "place": "locality", "source": "UNDP - 1997"}}, {"type": "node", "id": 1404225580, "lat": 1.74703, "lon": 44.48607, "tags": {"name": "Wadajir \u0648\u062f\u0627\u062c\u064a\u0631", "name:ar": "\u0648\u062f\u0627\u062c\u064a\u0631", "name:en": "Wadajir", "pcode": "NA-3810-G22-009", "place": "village", "source": "UNDP - 2006"}}, {"type": "node", "id": 1404225677, "lat": 1.6069306, "lon": 44.3827172, "tags": {"name": "Buulo-Barwaaqo", "pcode": "NA-3810-K20-001", "place": "locality", "source": "UNDP - 2006"}}, {"type": "node", "id": 1404225684, "lat": 1.6958866, "lon": 44.6083508, "tags": {"name": "Istiifan", "pcode": "NA-3810-H25-007", "place": "village", "source": "UNDP - 2006"}}, {"type": "node", "id": 1404225691, "lat": 1.734442, "lon": 44.606548, "tags": {"alt_name": "Dala Roobal", "name": "Urugle", "pcode": "NA-3810-G25-017", "place": "locality", "source": "KEMRI - 2007, UNDP - 2006"}}, {"type": "node", "id": 1404225751, "lat": 1.7552052, "lon": 44.641477, "tags": {"alt_name": "Waagade", "name": "Waagaadi", "pcode": "NA-3810-F26-002", "place": "village"}}, {"type": "node", "id": 1404225771, "lat": 1.73523, "lon": 44.631729, "tags": {"name": "Hunlaa", "pcode": "NA-3810-G25-018", "place": "locality", "source": "UNDP - 1997"}}, {"type": "node", "id": 1404225777, "lat": 1.76789, "lon": 44.55909, "tags": {"name": "Talcox", "pcode": "NA-3810-F24-006", "place": "locality"}}, {"type": "node", "id": 1404225798, "lat": 1.74391, "lon": 44.564041, "tags": {"name": "Madow", "pcode": "NA-3810-G24-005", "place": "locality", "source": "UNDP - 1997"}}, {"type": "node", "id": 1404225807, "lat": 1.699567, "lon": 44.5801359, "tags": {"name": "Siiba", "pcode": "NA-3810-H24-007", "place": "village", "source": "UNDP - 1997"}}, {"type": "node", "id": 1404225857, "lat": 1.7787937, "lon": 44.4980335, "tags": {"name": "Dharkaynley", "pcode": "NA-3810-F22-011", "place": "village", "source": "UNDP - 1997"}}, {"type": "node", "id": 1404225861, "lat": 1.72426, "lon": 44.427139, "tags": {"name": "Balow", "pcode": "NA-3810-G21-004", "place": "locality", "source": "UNDP - 1997"}}, {"type": "node", "id": 1404225903, "lat": 1.8050043, "lon": 44.6218779, "tags": {"alt_name": "Muuse", "name": "Bulo Muse", "pcode": "NA-3810-E25-002", "place": "hamlet"}}, {"type": "node", "id": 1404225922, "lat": 1.76446, "lon": 44.455841, "tags": {"name": "Doon Bilow", "pcode": "NA-3810-F22-008", "place": "village", "source": "UNDP - 1997"}}, {"type": "node", "id": 1404225928, "lat": 1.7466923, "lon": 44.6401715, "tags": {"name": "Baasani", "pcode": "NA-3810-G26-006", "place": "farm", "source": "UNDP - 1997"}}, {"type": "node", "id": 1404225975, "lat": 1.80931, "lon": 44.55954, "tags": {"name": "Shaman", "pcode": "NA-3810-E24-002", "place": "locality"}}, {"type": "node", "id": 1404225986, "lat": 1.69046, "lon": 44.568218, "tags": {"name": "Raaxoole", "pcode": "NA-3810-H24-003", "place": "locality", "source": "UNDP - 1997"}}, {"type": "node", "id": 1404226123, "lat": 1.66483, "lon": 44.3876, "tags": {"name": "Uro Urow", "pcode": "NA-3810-J20-002", "place": "village", "source": "UNDP - 1997"}}, {"type": "node", "id": 1404226136, "lat": 1.778358, "lon": 44.6584057, "tags": {"alt_name": "Mishaani", "name": "Mushaani", "pcode": "NA-3810-F26-007", "place": "village"}}, {"type": "node", "id": 1404226298, "lat": 1.75958, "lon": 44.47475, "tags": {"alt_name": "Munyo Muruq", "name": "Muuyo Muruq", "pcode": "NA-3810-F22-005", "place": "village", "source": "UNDP - 2006"}}, {"type": "node", "id": 1404226305, "lat": 1.8224739, "lon": 44.5866602, "tags": {"alt_name": "Garasjerad", "name": "Garasjeret (Main)", "pcode": "NA-3810-E24-005", "place": "village"}}, {"type": "node", "id": 1404226306, "lat": 1.6121, "lon": 44.33112, "tags": {"name": "Nasiib", "pcode": "NA-3810-K19-004", "place": "suburb", "source": "UNDP - 2006"}}, {"type": "node", "id": 1404226324, "lat": 1.86314, "lon": 44.64254, "tags": {"name": "Maajiyow", "pcode": "NA-3810-D26-003", "place": "locality"}}, {"type": "node", "id": 1404226362, "lat": 1.73823, "lon": 44.60647, "tags": {"alt_name": "Jadiid", "name": "Urugle 2", "pcode": "NA-3810-G25-024", "place": "locality", "source": "KEMRI - 2007"}}, {"type": "node", "id": 1404226510, "lat": 1.7498986, "lon": 44.4910503, "tags": {"alt_name": "Gaanooley", "name": "Caanooley", "pcode": "NA-3810-G22-012", "place": "village", "source": "UNDP - 2006, UNDP - 1997"}}, {"type": "node", "id": 1404226532, "lat": 1.5280175, "lon": 44.411155, "tags": {"alt_name": "Ambery Yarey", "name": "Canbarey", "pcode": "NA-3810-M21-005", "place": "village", "source": "UNDP - 2006"}}, {"type": "node", "id": 1404226566, "lat": 1.73813, "lon": 44.59128, "tags": {"name": "Degta-Buufow", "pcode": "NA-3810-G25-023", "place": "locality", "source": "UNDP - 2006"}}, {"type": "node", "id": 1404226645, "lat": 1.84883, "lon": 44.631039, "tags": {"name": "Baanyaale", "pcode": "NA-3810-D25-004", "place": "locality"}}, {"type": "node", "id": 1404226653, "lat": 1.75101, "lon": 44.66703, "tags": {"alt_name": "Kibiile", "name": "Kibil", "pcode": "NA-3810-F26-001", "place": "village"}}, {"type": "node", "id": 1404226699, "lat": 1.7322, "lon": 44.468498, "tags": {"name": "Magna Gab", "pcode": "NA-3810-G22-002", "place": "locality", "source": "UNDP - 1997"}}, {"type": "node", "id": 1404226725, "lat": 1.70051, "lon": 44.611549, "tags": {"name": "Benday Cadde", "pcode": "NA-3810-H25-008", "place": "locality", "source": "UNDP - 1997"}}, {"type": "node", "id": 1404226735, "lat": 1.68697, "lon": 44.36742, "tags": {"name": "Caliya", "pcode": "NA-3810-H20-002", "place": "locality", "source": "UNDP - 2006"}}, {"type": "node", "id": 1404226755, "lat": 1.8211987, "lon": 44.5488455, "tags": {"name": "Jameecada Aabow", "pcode": "NA-3810-E24-006", "place": "village", "wikidata": "Q19847457"}}, {"type": "node", "id": 1404226764, "lat": 1.77938, "lon": 44.672009, "tags": {"name": "Baasani Oreste", "pcode": "NA-3810-F26-009", "place": "locality"}}, {"type": "node", "id": 1404226775, "lat": 1.8113373, "lon": 44.5741984, "tags": {"name": "Bulo Shiiqaal", "pcode": "NA-3810-E24-003", "place": "isolated_dwelling"}}, {"type": "node", "id": 1404226778, "lat": 1.7933964, "lon": 44.4876018, "tags": {"name": "Wehel", "pcode": "NA-3810-E22-001", "place": "village", "source": "UNDP - 1997"}}, {"type": "node", "id": 1404226846, "lat": 1.7373713, "lon": 44.4886218, "tags": {"name": "Ahmed Gaas", "pcode": "NA-3810-G22-003", "place": "village", "source": "UNDP - 2006, UNDP - 1997"}}, {"type": "node", "id": 1404226847, "lat": 1.7158614, "lon": 44.6135045, "tags": {"alt_name": "Bula Iman", "name": "Diyeeni", "pcode": "NA-3810-G25-004", "place": "village", "source": "KEMRI - 2007, UNDP - 2006"}}, {"type": "node", "id": 1404226919, "lat": 1.77444, "lon": 44.54652, "tags": {"name": "Iniineeri", "pcode": "NA-3810-F24-009", "place": "locality"}}, {"type": "node", "id": 1404226921, "lat": 1.80406, "lon": 44.653271, "tags": {"name": "Xumey Samey", "pcode": "NA-3810-E26-004", "place": "locality"}}, {"type": "node", "id": 1404227014, "lat": 1.69878, "lon": 44.58031, "tags": {"alt_name": "Macalim Balow", "name": "Jante Nove", "pcode": "NA-3810-H24-006", "place": "village", "source": "UNDP - 2006"}}, {"type": "node", "id": 1404227172, "lat": 1.76073, "lon": 44.640251, "tags": {"name": "Baadino Fittoriy", "pcode": "NA-3810-F26-005", "place": "locality"}}, {"type": "node", "id": 1404227648, "lat": 1.6768801, "lon": 44.6015842, "tags": {"name": "Farax", "pcode": "NA-3810-H25-001", "place": "hamlet", "source": "UNDP - 2006"}}, {"type": "node", "id": 1404227669, "lat": 1.5251596, "lon": 44.4067654, "tags": {"name": "Uur-Weyne", "pcode": "NA-3810-M20-002", "place": "locality", "source": "UNDP - 2006"}}, {"type": "node", "id": 1404227765, "lat": 1.80212, "lon": 44.59762, "tags": {"alt_name": "Bulu Keey", "name": "Bulukoy", "pcode": "NA-3810-E25-001", "place": "locality"}}, {"type": "node", "id": 1404227806, "lat": 1.7883, "lon": 44.53671, "tags": {"name": "Buulo Siidow", "pcode": "NA-3810-F23-020", "place": "suburb"}}, {"type": "node", "id": 1404227818, "lat": 1.6147344, "lon": 44.5029054, "tags": {"alt_name": "Shaangaani", "name": "Shingaani", "pcode": "NA-3810-K23-002", "place": "locality", "source": "UNDP - 2006, UNDP - 1997"}}, {"type": "node", "id": 1404228001, "lat": 1.79385, "lon": 44.639721, "tags": {"name": "Siimow", "pcode": "NA-3810-E26-001", "place": "locality"}}, {"type": "node", "id": 1404228151, "lat": 1.67835, "lon": 44.41785, "tags": {"name": "Mukiyow", "pcode": "NA-3810-H21-002", "place": "locality", "source": "UNDP - 1997"}}, {"type": "node", "id": 1404228165, "lat": 1.75815, "lon": 44.61726, "tags": {"name": "Islaaw", "pcode": "NA-3810-F25-004", "place": "locality"}}, {"type": "node", "id": 1404228193, "lat": 1.81528, "lon": 44.50401, "tags": {"alt_name": "Kooy'Ian", "checked": "no", "name": "Kooyian", "pcode": "NA-3810-E23-001", "place": "hamlet"}}, {"type": "node", "id": 1404228265, "lat": 1.6896588, "lon": 44.498436, "tags": {"name": "Jeerow", "pcode": "NA-3810-H22-004", "place": "village", "source": "UNDP - 2006, UNDP - 1997"}}, {"type": "node", "id": 1404228268, "lat": 1.6033164, "lon": 44.6065338, "tags": {"alt_name": "Mungeye", "name": "Muungiyo", "pcode": "NA-3810-K25-001", "place": "village", "source": "KEMRI - 2007, UNDP - 2006, UNDP - 1997"}}, {"type": "node", "id": 1404228478, "lat": 1.70827, "lon": 44.539059, "tags": {"name": "Xaaji Faarax", "pcode": "NA-3810-H23-006", "place": "locality", "source": "UNDP - 1997"}}, {"type": "node", "id": 1404228500, "lat": 1.6960269, "lon": 44.6793088, "tags": {"name": "Shalanb.", "pcode": "NA-3810-H26-003", "place": "locality", "source": "FSAU"}}, {"type": "node", "id": 1404228540, "lat": 1.7560956, "lon": 44.5276915, "tags": {"alt_name": "Buulo Siimow", "checked": "no", "name": "Bulo Siimow", "pcode": "NA-3810-F23-003", "place": "hamlet"}}, {"type": "node", "id": 1404228672, "lat": 1.68383, "lon": 44.498402, "tags": {"name": "Cabdi Udaabi", "pcode": "NA-3810-H22-002", "place": "locality", "source": "UNDP - 1997"}}, {"type": "node", "id": 1404228691, "lat": 1.81777, "lon": 44.666531, "tags": {"name": "Cariiley", "pcode": "NA-3810-E26-009", "place": "locality"}}, {"type": "node", "id": 1404228774, "lat": 1.78172, "lon": 44.63293, "tags": {"alt_name": "Hirta Sh. Cumar", "name": "Majabto", "pcode": "NA-3810-F25-011", "place": "village"}}, {"type": "node", "id": 1404228926, "lat": 1.7271, "lon": 44.46645, "tags": {"name": "Furuqleey", "pcode": "NA-3810-G22-001", "place": "village", "source": "UNDP - 2006, UNDP - 1997"}}, {"type": "node", "id": 1404229126, "lat": 1.6223598, "lon": 44.6356219, "tags": {"alt_name": "Ceel-Axmed", "name": "Ceel Ahmed", "pcode": "NA-3810-K25-003", "place": "village", "source": "KEMRI - 2007, UNDP - 2006"}}, {"type": "node", "id": 1404229229, "lat": 1.6582658, "lon": 44.5804022, "tags": {"alt_name": "Golwayn;Golweyn;Golweyne", "name": "Gol-Weyn", "pcode": "NA-3810-J24-004", "place": "town", "source": "KEMRI - 2007, UNDP - 2006, UNDP - 1997"}}, {"type": "node", "id": 1404229278, "lat": 1.6829, "lon": 44.5681, "tags": {"name": "Musa Cilmi", "pcode": "NA-3810-H24-002", "place": "locality", "source": "UNDP - 1997"}}, {"type": "node", "id": 1404229332, "lat": 1.583553, "lon": 44.4790926, "tags": {"name": "Langaray", "pcode": "NA-3810-K22-001", "place": "hamlet", "source": "UNDP - 2006"}}, {"type": "node", "id": 1404229355, "lat": 1.7833791, "lon": 44.6608617, "tags": {"checked": "no", "name": "Daanti", "pcode": "NA-3810-F26-010", "place": "hamlet"}}, {"type": "node", "id": 1404229364, "lat": 1.6322477, "lon": 44.611358, "tags": {"name": "Jabad-Cade", "pcode": "NA-3810-J25-001", "place": "village", "source": "UNDP - 2006"}}, {"type": "node", "id": 1404229417, "lat": 1.85575, "lon": 44.6285509, "tags": {"alt_name": "Dhooblow", "name": "Dhoobley", "pcode": "NA-3810-D25-005", "place": "village"}}, {"type": "node", "id": 1404229757, "lat": 1.7831433, "lon": 44.5486876, "tags": {"name": "Ajaliiri", "pcode": "NA-3810-F24-012", "place": "village"}}, {"type": "node", "id": 1404229785, "lat": 1.77657, "lon": 44.459648, "tags": {"name": "Jameeco", "pcode": "NA-3810-F22-009", "place": "village", "source": "UNDP - 1997"}}, {"type": "node", "id": 1404229837, "lat": 1.7109887, "lon": 44.6108875, "tags": {"alt_name": "Basiili", "name": "Basiile", "pcode": "NA-3810-G25-001", "place": "village", "source": "KEMRI - 2007, UNDP - 2006"}}, {"type": "node", "id": 1404229862, "lat": 1.5674519, "lon": 44.4472159, "tags": {"name": "Busley", "pcode": "NA-3810-L21-003", "place": "village", "source": "UNDP - 2006"}}, {"type": "node", "id": 1404229864, "lat": 1.731074, "lon": 44.625363, "tags": {"alt_name": "Degat;Danowe;Danawe", "name": "Danow", "pcode": "NA-3810-G25-014", "place": "hamlet", "source": "KEMRI - 2007, UNDP - 2006"}}, {"type": "node", "id": 1404229922, "lat": 1.518692, "lon": 44.4165294, "tags": {"name": "Bulo Wiish", "pcode": "NA-3810-M21-002", "place": "hamlet", "source": "UNDP - 2006"}}, {"type": "node", "id": 1404229994, "lat": 1.75351, "lon": 44.55953, "tags": {"alt_name": "Shiikh", "name": "Buulo Sheekh", "pcode": "NA-3810-F24-002", "place": "village"}}, {"type": "node", "id": 1404230011, "lat": 1.73675, "lon": 44.613152, "tags": {"name": "Surriyo", "pcode": "NA-3810-G25-020", "place": "locality", "source": "UNDP - 1997"}}, {"type": "node", "id": 1404230061, "lat": 1.78373, "lon": 44.51173, "tags": {"name": "Alambuur", "pcode": "NA-3810-F23-015", "place": "locality"}}, {"type": "node", "id": 1404230069, "lat": 1.7704, "lon": 44.518349, "tags": {"name": "Eribley", "pcode": "NA-3810-F23-011", "place": "locality"}}, {"type": "node", "id": 1404230089, "lat": 1.6435864, "lon": 44.6620566, "tags": {"alt_name": "Lixmooro", "name": "Lix Mooro", "pcode": "NA-3810-J26-001", "place": "village", "source": "KEMRI - 2007, UNDP - 2006, UNDP - 1997"}}, {"type": "node", "id": 1404230109, "lat": 1.742, "lon": 44.590691, "tags": {"name": "Cusboole", "pcode": "NA-3810-G24-004", "place": "locality", "source": "UNDP - 1997"}}, {"type": "node", "id": 1404230126, "lat": 1.71901, "lon": 44.446091, "tags": {"name": "Caanoole", "pcode": "NA-3810-G21-003", "place": "locality", "source": "UNDP - 1997"}}, {"type": "node", "id": 1404230145, "lat": 1.5162958, "lon": 44.4000507, "tags": {"name": "Xaranka", "pcode": "NA-3810-M20-001", "place": "locality", "source": "UNDP - 2006"}}, {"type": "node", "id": 1404230173, "lat": 1.7494511, "lon": 44.4962667, "tags": {"name": "Bakoora Canal", "pcode": "NA-3810-G22-010", "place": "locality", "source": "FSAU"}}, {"type": "node", "id": 1404230190, "lat": 1.8494304, "lon": 44.6843427, "tags": {"name": "Qabadka", "pcode": "NA-3810-D27-010", "place": "isolated_dwelling"}}, {"type": "node", "id": 1404230197, "lat": 1.76756, "lon": 44.56864, "tags": {"alt_name": "Gaywarow", "name": "Gaay Warow", "pcode": "NA-3810-F24-005", "place": "village"}}, {"type": "node", "id": 1404230216, "lat": 1.58607, "lon": 44.47812, "tags": {"name": "Mareer-Dheer", "pcode": "NA-3810-K22-002", "place": "village", "source": "UNDP - 2006"}}, {"type": "node", "id": 1404230249, "lat": 1.7516343, "lon": 44.6279836, "tags": {"name": "Horseed", "pcode": "NA-3810-F25-001", "place": "hamlet", "wikidata": "Q5905753"}}, {"type": "node", "id": 1404230305, "lat": 1.768559, "lon": 44.549834, "tags": {"name": "Ibrenow", "pcode": "NA-3810-F24-007", "place": "locality"}}, {"type": "node", "id": 1404230342, "lat": 1.7036021, "lon": 44.5596904, "tags": {"alt_name": "Madulow", "name": "Maduulow", "pcode": "NA-3810-H24-008", "place": "village", "source": "UNDP - 2006, UNDP - 1997"}}, {"type": "node", "id": 1404230366, "lat": 1.78228, "lon": 44.54211, "tags": {"name": "Ajeeri", "pcode": "NA-3810-F23-014", "place": "locality"}}, {"type": "node", "id": 1404230443, "lat": 1.699185, "lon": 44.378398, "tags": {"name": "Garasley", "pcode": "NA-3810-H20-006", "place": "village", "source": "UNDP - 2006"}}, {"type": "node", "id": 1404230666, "lat": 1.76264, "lon": 44.519718, "tags": {"name": "Balley", "pcode": "NA-3810-F23-007", "place": "locality"}}, {"type": "node", "id": 1404230675, "lat": 1.70333, "lon": 44.618401, "tags": {"name": "Jaanjow", "pcode": "NA-3810-H25-009", "place": "locality", "source": "UNDP - 1997"}}, {"type": "node", "id": 1404230682, "lat": 1.8635547, "lon": 44.3837395, "tags": {"name": "Garas Jambur", "pcode": "NA-3810-D20-001", "place": "locality", "source": "UNDP - 2006"}}, {"type": "node", "id": 1404230698, "lat": 1.6817164, "lon": 44.5522579, "tags": {"name": "Buulo-Tuni", "pcode": "NA-3810-H24-001", "place": "village", "source": "UNDP - 2006"}}, {"type": "node", "id": 1404230707, "lat": 1.7195006, "lon": 44.6255403, "tags": {"name": "Jeelow", "pcode": "NA-3810-G25-005", "place": "village", "source": "UNDP - 2006"}}, {"type": "node", "id": 1404230722, "lat": 1.69035, "lon": 44.42002, "tags": {"name": "Raxoole", "pcode": "NA-3810-H21-005", "place": "village", "source": "UNDP - 2006"}}, {"type": "node", "id": 1404230724, "lat": 1.8157286, "lon": 44.5844105, "tags": {"alt_name": "Bulo Jadiid", "name": "Buulo Jadiid", "pcode": "NA-3810-E24-004", "place": "village"}}, {"type": "node", "id": 1404230729, "lat": 1.6808, "lon": 44.467201, "tags": {"name": "Muruqow", "pcode": "NA-3810-H22-001", "place": "locality", "source": "UNDP - 1997"}}, {"type": "node", "id": 1404230901, "lat": 1.6088779, "lon": 44.4287991, "tags": {"name": "Xerta-Shiikh Xaashi 2", "pcode": "NA-3810-K21-003", "place": "village", "source": "UNDP - 2006"}}, {"type": "node", "id": 1404230938, "lat": 1.7599, "lon": 44.51157, "tags": {"name": "Shiikh \u0634\u064a\u062e", "name:ar": "\u0634\u064a\u062e", "pcode": "NA-3810-F23-005", "place": "locality"}}, {"type": "node", "id": 1404230947, "lat": 1.7696993, "lon": 44.5493434, "tags": {"name": "Ureenow", "pcode": "NA-3810-F24-008", "place": "locality"}}, {"type": "node", "id": 1404230959, "lat": 1.78677, "lon": 44.53397, "tags": {"name": "Halane", "pcode": "NA-3810-F23-019", "place": "suburb"}}, {"type": "node", "id": 1404230997, "lat": 1.74988, "lon": 44.48592, "tags": {"name": "Cabdi Cali", "pcode": "NA-3810-G22-011", "place": "village", "source": "UNDP - 2006, UNDP - 1997, FSAU"}}, {"type": "node", "id": 1404231001, "lat": 1.5985, "lon": 44.43, "tags": {"name": "Moccoidumis", "pcode": "NA-3810-K21-001", "place": "locality", "source": "UNDP - 1997"}}, {"type": "node", "id": 1404231037, "lat": 1.8227609, "lon": 44.6479644, "tags": {"name": "Cali Xirsi", "pcode": "NA-3810-E26-012", "place": "isolated_dwelling"}}, {"type": "node", "id": 1404231050, "lat": 1.78532, "lon": 44.52983, "tags": {"name": "Kuuley Gaalle", "pcode": "NA-3810-F23-017", "place": "suburb"}}, {"type": "node", "id": 1404231054, "lat": 1.7425476, "lon": 44.5922103, "tags": {"name": "Xuseen-Camalow", "pcode": "NA-3810-G25-026", "place": "locality", "source": "UNDP - 2006"}}, {"type": "node", "id": 1404231068, "lat": 1.7671015, "lon": 44.6512737, "tags": {"alt_name": "Donka Daafeedo", "checked": "no", "name": "Doonka-Daafeedow", "pcode": "NA-3810-F26-006", "place": "village"}}, {"type": "node", "id": 1404231127, "lat": 1.7302, "lon": 44.604851, "tags": {"name": "Dalaroobare", "pcode": "NA-3810-G25-013", "place": "locality", "source": "UNDP - 1997"}}, {"type": "node", "id": 1404231136, "lat": 1.75097, "lon": 44.42944, "tags": {"name": "Qaloomow", "pcode": "NA-3810-F21-001", "place": "village", "source": "UNDP - 2006"}}, {"type": "node", "id": 1404231144, "lat": 1.7248931, "lon": 44.6514957, "tags": {"alt_name": "Abikarow", "name": "Abiikarow", "pcode": "NA-3810-G26-002", "place": "isolated_dwelling", "source": "KEMRI - 2007, UNDP - 2006, UNDP - 1997"}}, {"type": "node", "id": 1404231227, "lat": 1.7809792, "lon": 44.5385357, "tags": {"name": "Eesow", "pcode": "NA-3810-F23-012", "place": "locality"}}, {"type": "node", "id": 1404231229, "lat": 1.52392, "lon": 44.41162, "tags": {"name": "Aqab-Muusow", "pcode": "NA-3810-M21-004", "place": "locality", "source": "UNDP - 2006"}}, {"type": "node", "id": 1404231261, "lat": 1.751377, "lon": 44.5212304, "tags": {"alt_name": "Farhaane", "name": "Farxaane", "pcode": "NA-3810-F23-002", "place": "village"}}, {"type": "node", "id": 1404231275, "lat": 1.6110818, "lon": 44.4011902, "tags": {"name": "Riinow", "pcode": "NA-3810-K20-002", "place": "locality", "source": "UNDP - 1997"}}, {"type": "node", "id": 1404231289, "lat": 1.65598, "lon": 44.603771, "tags": {"name": "Moyle", "pcode": "NA-3810-J25-003", "place": "locality", "source": "UNDP - 1997"}}, {"type": "node", "id": 1404231292, "lat": 1.8585521, "lon": 44.611468, "tags": {"name": "Bula Xariin", "pcode": "NA-3810-D25-006", "place": "locality"}}, {"type": "node", "id": 1404231322, "lat": 1.8391851, "lon": 44.6117638, "tags": {"alt_name": "Osman Gaduud", "name": "Osman Gadud", "pcode": "NA-3810-D25-001", "place": "locality"}}, {"type": "node", "id": 1404231339, "lat": 1.5561941, "lon": 44.5120891, "tags": {"name": "Garasraadi", "pcode": "NA-3810-L23-001", "place": "hamlet", "source": "UNDP - 1997"}}, {"type": "node", "id": 1404231370, "lat": 1.75885, "lon": 44.3569, "tags": {"name": "Farxane", "pcode": "NA-3810-F19-001", "place": "locality", "source": "UNDP - 2006"}}, {"type": "node", "id": 1404231415, "lat": 1.80887, "lon": 44.659248, "tags": {"name": "Mafarolini", "pcode": "NA-3810-E26-006", "place": "locality"}}, {"type": "node", "id": 1404231422, "lat": 1.53439, "lon": 44.522449, "tags": {"name": "Alweyn", "pcode": "NA-3810-M23-001", "place": "locality", "source": "UNDP - 1997"}}, {"type": "node", "id": 1404231470, "lat": 1.7519, "lon": 44.592892, "tags": {"name": "Siimow", "pcode": "NA-3810-F25-002", "place": "locality"}}, {"type": "node", "id": 1404231522, "lat": 1.80542, "lon": 44.66921, "tags": {"alt_name": "Kulaas", "name": "Kulas", "pcode": "NA-3810-E26-005", "place": "locality"}}, {"type": "node", "id": 1404231531, "lat": 1.71429, "lon": 44.635231, "tags": {"name": "Dhamme Yaaslin", "pcode": "NA-3810-G25-003", "place": "locality", "source": "UNDP - 1997"}}, {"type": "node", "id": 1404231565, "lat": 1.69046, "lon": 44.534039, "tags": {"name": "Dunaati", "pcode": "NA-3810-H23-003", "place": "locality", "source": "UNDP - 1997"}}, {"type": "node", "id": 1404231574, "lat": 1.82682, "lon": 44.60606, "tags": {"name": "Xaaji Xasan", "pcode": "NA-3810-E25-005", "place": "locality"}}, {"type": "node", "id": 1404231594, "lat": 1.74132, "lon": 44.51278, "tags": {"name": "Beynax Bare", "pcode": "NA-3810-G23-002", "place": "locality", "source": "UNDP - 2006"}}, {"type": "node", "id": 1404231616, "lat": 1.8358238, "lon": 44.6418115, "tags": {"name": "Aadao Nuur", "pcode": "NA-3810-E26-013", "place": "village"}}, {"type": "node", "id": 1404231624, "lat": 1.76934, "lon": 44.52977, "tags": {"name": "Busley", "pcode": "NA-3810-F23-010", "place": "locality"}}, {"type": "node", "id": 1404231628, "lat": 1.4939915, "lon": 44.4728267, "tags": {"name": "Ceel Shiikh", "pcode": "NA-3810-N22-001", "place": "locality", "source": "UNDP - 1997"}}, {"type": "node", "id": 1404231646, "lat": 1.78463, "lon": 44.52893, "tags": {"name": "Wadajir", "pcode": "NA-3810-F23-016", "place": "suburb"}}, {"type": "node", "id": 1404231723, "lat": 1.68013, "lon": 44.664509, "tags": {"name": "Sunaay", "pcode": "NA-3810-H26-002", "place": "locality", "source": "UNDP - 1997"}}, {"type": "node", "id": 1404231742, "lat": 1.75365, "lon": 44.56929, "tags": {"name": "Aboow Cali", "pcode": "NA-3810-F24-003", "place": "locality"}}, {"type": "node", "id": 1404231753, "lat": 1.6840485, "lon": 44.5979754, "tags": {"name": "Teesiyow", "pcode": "NA-3810-H25-004", "place": "locality", "source": "UNDP - 1997"}}, {"type": "node", "id": 1404231812, "lat": 1.6434094, "lon": 44.6245881, "tags": {"alt_name": "Dudumaay", "name": "Dudumo", "pcode": "NA-3810-J25-002", "place": "village", "source": "KEMRI - 2007, UNDP - 2006"}}, {"type": "node", "id": 1404231933, "lat": 1.65828, "lon": 44.533821, "tags": {"name": "Sidow Cumar", "pcode": "NA-3810-J23-003", "place": "locality", "source": "UNDP - 1997"}}, {"type": "node", "id": 1404232047, "lat": 1.5719, "lon": 44.3425, "tags": {"name": "Jamaacada", "pcode": "NA-3810-L19-001", "place": "locality", "source": "UNDP - 2006"}}, {"type": "node", "id": 1404232058, "lat": 1.75632, "lon": 44.46209, "tags": {"name": "Galjaw", "pcode": "NA-3810-F22-003", "place": "village", "source": "UNDP - 1997"}}, {"type": "node", "id": 1404232247, "lat": 1.8224488, "lon": 44.6636032, "tags": {"alt_name": "Biyo Cagaar", "name": "Biyo Cayar", "pcode": "NA-3810-E26-011", "place": "village"}}, {"type": "node", "id": 1404232388, "lat": 1.71581, "lon": 44.571121, "tags": {"name": "Shariif Jeeylaani", "pcode": "NA-3810-G24-001", "place": "locality", "source": "UNDP - 1997"}}, {"type": "node", "id": 1404232408, "lat": 1.76322, "lon": 44.5641, "tags": {"alt_name": "Haduumao", "name": "Haduuman", "pcode": "NA-3810-F24-004", "place": "village"}}, {"type": "node", "id": 1404232420, "lat": 1.7307257, "lon": 44.5886854, "tags": {"alt_name": "Buufow Cusboley", "name": "Bufuow-Cosbooley", "pcode": "NA-3810-G24-002", "place": "village", "source": "KEMRI - 2007, UNDP - 2006, UNDP - 1997"}}, {"type": "node", "id": 1404232421, "lat": 1.6251008, "lon": 44.3761595, "tags": {"name": "Tuulo Cali", "pcode": "NA-3810-K20-004", "place": "isolated_dwelling", "source": "UNDP - 2006"}}, {"type": "node", "id": 1404232469, "lat": 1.4792, "lon": 44.37745, "tags": {"alt_name": "Fitadheer", "name": "Fito Dheer", "pcode": "NA-3810-N20-001", "place": "village", "source": "UNDP - 2006, FSAU"}}, {"type": "node", "id": 1404232549, "lat": 1.74415, "lon": 44.57863, "tags": {"name": "Axmed Guure", "pcode": "NA-3810-G24-006", "place": "locality", "source": "UNDP - 2006, UNDP - 1997"}}, {"type": "node", "id": 1404232623, "lat": 1.81353, "lon": 44.68326, "tags": {"name": "Da", "pcode": "NA-3810-E27-005", "place": "locality"}}, {"type": "node", "id": 1404232709, "lat": 1.62414, "lon": 44.636589, "tags": {"name": "Siyoweyne", "pcode": "NA-3810-K26-001", "place": "village", "source": "UNDP - 1997"}}, {"type": "node", "id": 1404232711, "lat": 1.76066, "lon": 44.503429, "tags": {"name": "Faarax Jiijiile", "pcode": "NA-3810-F23-006", "place": "locality"}}, {"type": "node", "id": 1404232762, "lat": 1.75568, "lon": 44.38372, "tags": {"name": "Buulo Mayow", "pcode": "NA-3810-F20-001", "place": "village", "source": "UNDP - 2006"}}, {"type": "node", "id": 1404232765, "lat": 1.58445, "lon": 44.5521, "tags": {"alt_name": "Day Abar", "name": "Daydoog", "pcode": "NA-3810-K24-001", "place": "village", "source": "KEMRI - 2007, UNDP - 2006, UNDP - 1997"}}, {"type": "node", "id": 1404232786, "lat": 1.6985477, "lon": 44.6835218, "tags": {"name": "Marsaano", "pcode": "NA-3810-H27-007", "place": "hamlet", "source": "UNDP - 1997"}}, {"type": "node", "id": 1404232795, "lat": 1.67617, "lon": 44.36298, "tags": {"name": "Boley", "pcode": "NA-3810-H19-001", "place": "locality", "source": "UNDP - 2006"}}, {"type": "node", "id": 1404232875, "lat": 1.81481, "lon": 44.687561, "tags": {"name": "Gabaay", "pcode": "NA-3810-E27-006", "place": "locality"}}, {"type": "node", "id": 1404232998, "lat": 1.77615, "lon": 44.6819, "tags": {"name": "Beer Bari", "pcode": "NA-3810-F27-008", "place": "locality"}}, {"type": "node", "id": 1404233011, "lat": 1.79743, "lon": 44.645359, "tags": {"name": "Maanjoor", "pcode": "NA-3810-E26-002", "place": "locality"}}, {"type": "node", "id": 1404233160, "lat": 1.71552, "lon": 44.654388, "tags": {"name": "Mirimiri", "pcode": "NA-3810-G26-001", "place": "locality", "source": "UNDP - 1997"}}, {"type": "node", "id": 1404233186, "lat": 1.7013, "lon": 44.4399, "tags": {"name": "Malayley", "pcode": "NA-3810-H21-009", "place": "village", "source": "UNDP - 2006, FSAU"}}, {"type": "node", "id": 1404233229, "lat": 1.7448035, "lon": 44.4896541, "tags": {"name": "Baraaka", "pcode": "NA-3810-G22-008", "place": "village", "source": "UNDP - 2006"}}, {"type": "node", "id": 1404233342, "lat": 1.74659, "lon": 44.44395, "tags": {"alt_name": "Armoy", "name": "Carmoy", "pcode": "NA-3810-G21-007", "place": "village", "source": "UNDP - 2006, UNDP - 1997, FSAU"}}, {"type": "node", "id": 1404233348, "lat": 1.6142193, "lon": 44.6270093, "tags": {"name": "Bulo Bishaaro", "pcode": "NA-3810-K25-002", "place": "village", "source": "KEMRI - 2007"}}, {"type": "node", "id": 1404233361, "lat": 1.7282976, "lon": 44.6221455, "tags": {"name": "Buulo Yarow", "pcode": "NA-3810-G25-012", "place": "locality", "source": "UNDP - 2006"}}, {"type": "node", "id": 1404233371, "lat": 1.66495, "lon": 44.568508, "tags": {"name": "Naanini", "pcode": "NA-3810-J24-006", "place": "locality", "source": "UNDP - 1997"}}, {"type": "node", "id": 1404233421, "lat": 1.73995, "lon": 44.51363, "tags": {"name": "Buraale", "pcode": "NA-3810-G23-001", "place": "locality", "source": "UNDP - 1997"}}, {"type": "node", "id": 1404233425, "lat": 1.68634, "lon": 44.42226, "tags": {"name": "Kamad", "pcode": "NA-3810-H21-003", "place": "locality", "source": "UNDP - 1997"}}, {"type": "node", "id": 1404233463, "lat": 1.6762, "lon": 44.59673, "tags": {"alt_name": "Faari Baasi", "name": "Faari", "pcode": "NA-3810-H25-002", "place": "village", "source": "KEMRI - 2007, UNDP - 1997"}}, {"type": "node", "id": 1404233493, "lat": 1.6907435, "lon": 44.4182185, "tags": {"name": "Bombaasa Mahdi", "pcode": "NA-3810-H21-006", "place": "village", "source": "UNDP - 2006"}}, {"type": "node", "id": 1404233523, "lat": 1.6699, "lon": 44.507999, "tags": {"name": "Noriya", "pcode": "NA-3810-H23-001", "place": "locality", "source": "UNDP - 1997"}}, {"type": "node", "id": 1404233550, "lat": 1.75251, "lon": 44.605228, "tags": {"name": "Aesow", "pcode": "NA-3810-F25-003", "place": "locality"}}, {"type": "node", "id": 1404233604, "lat": 1.7051476, "lon": 44.593091, "tags": {"alt_name": "Bardasalah", "name": "Berdasalax", "pcode": "NA-3810-H25-010", "place": "farm", "source": "KEMRI - 2007, UNDP - 2006, UNDP - 1997"}}, {"type": "node", "id": 1404233614, "lat": 1.74749, "lon": 44.604691, "tags": {"name": "Carfaale", "pcode": "NA-3810-G25-029", "place": "locality", "source": "UNDP - 1997"}}, {"type": "node", "id": 1404233631, "lat": 1.7034458, "lon": 44.3760638, "tags": {"name": "Rooxasalley", "pcode": "NA-3810-H20-007", "place": "village", "source": "UNDP - 2006"}}, {"type": "node", "id": 1404233643, "lat": 1.7347235, "lon": 44.6052513, "tags": {"name": "Jannaay", "pcode": "NA-3810-G25-019", "place": "farm", "source": "UNDP - 1997"}}, {"type": "node", "id": 1404233647, "lat": 1.5569128, "lon": 44.4358936, "tags": {"name": "Tuulada Qormoole", "pcode": "NA-3810-L21-002", "place": "locality", "source": "UNDP - 2006"}}, {"type": "node", "id": 1404233651, "lat": 1.6105099, "lon": 44.3324438, "tags": {"alt_name": "Horseed", "name": "Kurtunwaarey", "pcode": "NA-3810-K19-003", "place": "town", "source": "UNDP - 2008"}}, {"type": "node", "id": 1404233662, "lat": 1.83016, "lon": 44.46721, "tags": {"alt_name": "Madax Maroodi", "name": "Madax Marodi", "pcode": "NA-3810-E22-003", "place": "village", "source": "UNDP - 2006"}}, {"type": "node", "id": 1404233682, "lat": 1.73798, "lon": 44.61284, "tags": {"alt_name": "Dalbian", "name": "Dalbiyango", "pcode": "NA-3810-G25-022", "place": "village", "source": "KEMRI - 2007, UNDP - 2006"}}, {"type": "node", "id": 1404233697, "lat": 1.7178454, "lon": 44.4415348, "tags": {"name": "Cabdi Abuukar", "pcode": "NA-3810-G21-002", "place": "village", "source": "UNDP - 1997"}}, {"type": "node", "id": 1404233750, "lat": 1.6986938, "lon": 44.581085, "tags": {"name": "Batarmiin", "pcode": "NA-3810-H24-004", "place": "village", "source": "UNDP - 2006"}}, {"type": "node", "id": 1404233920, "lat": 1.72815, "lon": 44.594109, "tags": {"name": "Buuto Canada", "pcode": "NA-3810-G25-010", "place": "locality", "source": "UNDP - 1997"}}, {"type": "node", "id": 1404233965, "lat": 1.8431, "lon": 44.61062, "tags": {"name": "Bulo Rahmo 1", "pcode": "NA-3810-D25-002", "place": "locality"}}, {"type": "node", "id": 1404233993, "lat": 1.5557971, "lon": 44.4381668, "tags": {"name": "Lami Karis", "pcode": "NA-3810-L21-001", "place": "locality", "source": "UNDP - 2006"}}, {"type": "node", "id": 1404234022, "lat": 1.72571, "lon": 44.66116, "tags": {"name": "Matirikow", "pcode": "NA-3810-G26-003", "place": "locality", "source": "UNDP - 1997"}}, {"type": "node", "id": 2814968356, "lat": 1.7061005, "lon": 44.6088896, "tags": {"name": "Deg Jannaay", "place": "village"}}, {"type": "node", "id": 3135537229, "lat": 1.6307502, "lon": 44.5219824, "tags": {"alt_name": "Buulo Marrer Sl", "name": "Buulo Mareer", "pcode": "NA-3810-J23-001;NA-3810-J23-002", "place": "town", "source": "FSAU;UNDP - 2006, UNDP - 1997", "wikidata": "Q3007041"}}, {"type": "node", "id": 6494980932, "lat": 1.61101, "lon": 44.330299, "tags": {"name": "Kurtunwaarey", "place": "village", "postal_code": "NA-3810-K19-002", "wikidata": "Q18576123", "wikipedia": "nl:Kurtunwaarey"}}, {"type": "node", "id": 8091964595, "lat": 1.5507324, "lon": 44.5382012, "tags": {"place": "isolated_dwelling"}}, {"type": "node", "id": 8091964600, "lat": 1.5308738, "lon": 44.5117394, "tags": {"place": "hamlet"}}, {"type": "node", "id": 8092084126, "lat": 1.5963866, "lon": 44.5658449, "tags": {"place": "hamlet"}}, {"type": "node", "id": 8092091441, "lat": 1.6388212, "lon": 44.6558806, "tags": {"place": "hamlet"}}, {"type": "node", "id": 8093397376, "lat": 1.6343108, "lon": 44.6480352, "tags": {"place": "isolated_dwelling"}}, {"type": "node", "id": 8093398079, "lat": 1.6552053, "lon": 44.6826058, "tags": {"place": "farm"}}, {"type": "node", "id": 8093505608, "lat": 1.5462159, "lon": 44.5248289, "tags": {"place": "isolated_dwelling"}}, {"type": "node", "id": 8093505768, "lat": 1.5667843, "lon": 44.5307086, "tags": {"place": "hamlet"}}, {"type": "node", "id": 8093505769, "lat": 1.5623008, "lon": 44.5242513, "tags": {"place": "hamlet"}}, {"type": "node", "id": 8093505770, "lat": 1.5601682, "lon": 44.5201736, "tags": {"place": "hamlet"}}, {"type": "node", "id": 8093505771, "lat": 1.5586698, "lon": 44.5178353, "tags": {"place": "hamlet"}}, {"type": "node", "id": 8093505772, "lat": 1.5519728, "lon": 44.5071606, "tags": {"place": "hamlet"}}, {"type": "node", "id": 8093505973, "lat": 1.6114032, "lon": 44.5844334, "tags": {"place": "hamlet"}}, {"type": "node", "id": 8093505986, "lat": 1.6128885, "lon": 44.5888071, "tags": {"place": "hamlet"}}, {"type": "node", "id": 8093506020, "lat": 1.6183296, "lon": 44.5945615, "tags": {"place": "hamlet"}}, {"type": "node", "id": 8093506042, "lat": 1.6214264, "lon": 44.5979647, "tags": {"place": "hamlet"}}, {"type": "node", "id": 8093506049, "lat": 1.6233217, "lon": 44.5987985, "tags": {"place": "hamlet"}}, {"type": "node", "id": 8093506244, "lat": 1.630953, "lon": 44.6443721, "tags": {"place": "isolated_dwelling"}}, {"type": "node", "id": 8093519661, "lat": 1.6086746, "lon": 44.6111277, "tags": {"place": "hamlet"}}, {"type": "node", "id": 8093519675, "lat": 1.6054256, "lon": 44.6146981, "tags": {"place": "hamlet"}}, {"type": "node", "id": 8093701919, "lat": 1.6296828, "lon": 44.6248792, "tags": {"place": "isolated_dwelling"}}, {"type": "node", "id": 8093725645, "lat": 1.6512962, "lon": 44.6332938, "tags": {"place": "isolated_dwelling"}}, {"type": "node", "id": 8093725646, "lat": 1.6671328, "lon": 44.6496761, "tags": {"place": "hamlet"}}, {"type": "node", "id": 8096344399, "lat": 1.6069182, "lon": 44.5467976, "tags": {"place": "hamlet"}}, {"type": "node", "id": 8096344655, "lat": 1.5841287, "lon": 44.5388597, "tags": {"place": "isolated_dwelling"}}, {"type": "node", "id": 8096344666, "lat": 1.5824132, "lon": 44.5407041, "tags": {"place": "isolated_dwelling"}}, {"type": "node", "id": 8096345033, "lat": 1.5528368, "lon": 44.5096783, "tags": {"place": "isolated_dwelling"}}, {"type": "node", "id": 8096852005, "lat": 1.6711938, "lon": 44.5465725, "tags": {"place": "isolated_dwelling"}}, {"type": "node", "id": 8096852006, "lat": 1.6783205, "lon": 44.5311093, "tags": {"place": "hamlet"}}, {"type": "node", "id": 8096852036, "lat": 1.6643901, "lon": 44.5384905, "tags": {"place": "isolated_dwelling"}}, {"type": "node", "id": 8096852325, "lat": 1.6745441, "lon": 44.6027631, "tags": {"place": "hamlet"}}, {"type": "node", "id": 8096852689, "lat": 1.6406209, "lon": 44.5516803, "tags": {"place": "hamlet"}}, {"type": "node", "id": 8096852707, "lat": 1.6362207, "lon": 44.564747, "tags": {"place": "hamlet"}}, {"type": "node", "id": 8096852908, "lat": 1.750051, "lon": 44.6875643, "tags": {"place": "farm"}}, {"type": "node", "id": 8096853010, "lat": 1.6471232, "lon": 44.5377456, "tags": {"place": "farm"}}, {"type": "node", "id": 8096853079, "lat": 1.6738633, "lon": 44.5691608, "tags": {"place": "farm"}}, {"type": "node", "id": 8097581634, "lat": 1.695673, "lon": 44.5821459, "tags": {"place": "farm"}}, {"type": "node", "id": 8097775574, "lat": 1.7226047, "lon": 44.6054966, "tags": {"place": "isolated_dwelling"}}, {"type": "node", "id": 8100041597, "lat": 1.6779686, "lon": 44.6313954, "tags": {"place": "isolated_dwelling"}}, {"type": "node", "id": 8100154486, "lat": 1.7495731, "lon": 44.6391487, "tags": {"place": "hamlet"}}, {"type": "node", "id": 8100154495, "lat": 1.7466835, "lon": 44.6420629, "tags": {"place": "farm"}}, {"type": "node", "id": 8100154538, "lat": 1.7425955, "lon": 44.6387035, "tags": {"place": "farm"}}, {"type": "node", "id": 8100510278, "lat": 1.6001791, "lon": 44.6121294, "tags": {"place": "hamlet"}}, {"type": "node", "id": 8101141806, "lat": 1.6744583, "lon": 44.5770618, "tags": {"place": "isolated_dwelling"}}, {"type": "node", "id": 8101441541, "lat": 1.6363564, "lon": 44.5316248, "tags": {"place": "isolated_dwelling"}}, {"type": "node", "id": 8103968908, "lat": 1.5981464, "lon": 44.5062171, "tags": {"place": "isolated_dwelling"}}, {"type": "node", "id": 8104141052, "lat": 1.6197059, "lon": 44.5475561, "tags": {"place": "isolated_dwelling"}}, {"type": "node", "id": 8104985428, "lat": 1.7098951, "lon": 44.5242503, "tags": {"place": "isolated_dwelling"}}, {"type": "node", "id": 8107512708, "lat": 1.649988, "lon": 44.5745605, "tags": {"place": "farm"}}, {"type": "node", "id": 8107998726, "lat": 1.6363395, "lon": 44.5316259, "tags": {"place": "farm"}}, {"type": "node", "id": 8108702620, "lat": 1.6801328, "lon": 44.5540927, "tags": {"place": "farm"}}, {"type": "node", "id": 8109041707, "lat": 1.6964364, "lon": 44.6035686, "tags": {"place": "farm"}}, {"type": "node", "id": 8109588586, "lat": 1.7176446, "lon": 44.6157604, "tags": {"place": "farm"}}, {"type": "node", "id": 8109676690, "lat": 1.7369347, "lon": 44.6692024, "tags": {"place": "farm"}}, {"type": "node", "id": 8111481058, "lat": 1.7412128, "lon": 44.6632158, "tags": {"place": "isolated_dwelling"}}, {"type": "node", "id": 8115509357, "lat": 1.74078, "lon": 44.4289735, "tags": {"place": "isolated_dwelling"}}, {"type": "node", "id": 8115509399, "lat": 1.7491087, "lon": 44.3427216, "tags": {"place": "isolated_dwelling"}}, {"type": "node", "id": 8115509482, "lat": 1.7383502, "lon": 44.3606073, "tags": {"place": "isolated_dwelling"}}, {"type": "node", "id": 8115509514, "lat": 1.7337622, "lon": 44.365221, "tags": {"place": "hamlet"}}, {"type": "node", "id": 8116663423, "lat": 1.5717751, "lon": 44.4796818, "tags": {"place": "hamlet"}}, {"type": "node", "id": 8116663462, "lat": 1.5757844, "lon": 44.4706882, "tags": {"place": "hamlet"}}, {"type": "node", "id": 8116663521, "lat": 1.5750361, "lon": 44.4807752, "tags": {"place": "isolated_dwelling"}}, {"type": "node", "id": 8116663543, "lat": 1.725401, "lon": 44.4582926, "tags": {"place": "isolated_dwelling"}}, {"type": "node", "id": 8116901667, "lat": 1.6778153, "lon": 44.4479653, "tags": {"place": "isolated_dwelling"}}, {"type": "node", "id": 8116901802, "lat": 1.6859235, "lon": 44.460173, "tags": {"place": "hamlet"}}, {"type": "node", "id": 8117119749, "lat": 1.5895367, "lon": 44.3234815, "tags": {"place": "isolated_dwelling"}}, {"type": "node", "id": 8118247424, "lat": 1.6378578, "lon": 44.4230098, "tags": {"place": "hamlet"}}, {"type": "node", "id": 8118247484, "lat": 1.6387561, "lon": 44.439754, "tags": {"place": "hamlet"}}, {"type": "node", "id": 8118247607, "lat": 1.6516569, "lon": 44.4605572, "tags": {"place": "isolated_dwelling"}}, {"type": "node", "id": 8118247945, "lat": 1.5416895, "lon": 44.4677822, "tags": {"place": "isolated_dwelling"}}, {"type": "node", "id": 8118248095, "lat": 1.5362789, "lon": 44.4826, "tags": {"place": "hamlet"}}, {"type": "node", "id": 8118248098, "lat": 1.5377509, "lon": 44.4878826, "tags": {"place": "hamlet"}}, {"type": "node", "id": 8118248099, "lat": 1.5408125, "lon": 44.4882379, "tags": {"place": "hamlet"}}, {"type": "node", "id": 8118248101, "lat": 1.5395442, "lon": 44.4893549, "tags": {"place": "isolated_dwelling"}}, {"type": "node", "id": 8118248102, "lat": 1.5447803, "lon": 44.4987785, "tags": {"place": "isolated_dwelling"}}, {"type": "node", "id": 8118248104, "lat": 1.5429494, "lon": 44.4947382, "tags": {"place": "isolated_dwelling"}}, {"type": "node", "id": 8118248105, "lat": 1.5420176, "lon": 44.4929638, "tags": {"place": "isolated_dwelling"}}, {"type": "node", "id": 8118248106, "lat": 1.5411027, "lon": 44.4914342, "tags": {"place": "isolated_dwelling"}}, {"type": "node", "id": 8118248107, "lat": 1.5413052, "lon": 44.4898503, "tags": {"place": "isolated_dwelling"}}, {"type": "node", "id": 8118248117, "lat": 1.5381609, "lon": 44.4911082, "tags": {"place": "isolated_dwelling"}}, {"type": "node", "id": 8118248166, "lat": 1.5389484, "lon": 44.481303, "tags": {"place": "isolated_dwelling"}}, {"type": "node", "id": 8118578721, "lat": 1.5467091, "lon": 44.3100254, "tags": {"place": "isolated_dwelling"}}, {"type": "node", "id": 8118640880, "lat": 1.5159641, "lon": 44.4520952, "tags": {"place": "isolated_dwelling"}}, {"type": "node", "id": 8118662892, "lat": 1.7415345, "lon": 44.3802597, "tags": {"place": "hamlet"}}, {"type": "node", "id": 8119068433, "lat": 1.6496076, "lon": 44.393423, "tags": {"place": "hamlet"}}, {"type": "node", "id": 8119068611, "lat": 1.5842299, "lon": 44.4443978, "tags": {"place": "isolated_dwelling"}}, {"type": "node", "id": 8119069054, "lat": 1.5714653, "lon": 44.4124443, "tags": {"place": "hamlet"}}, {"type": "node", "id": 8119220808, "lat": 1.5644693, "lon": 44.327401, "tags": {"place": "isolated_dwelling"}}, {"type": "node", "id": 8119220809, "lat": 1.5637058, "lon": 44.3254264, "tags": {"place": "isolated_dwelling"}}, {"type": "node", "id": 8119220860, "lat": 1.5795689, "lon": 44.3225391, "tags": {"place": "hamlet"}}, {"type": "node", "id": 8119220894, "lat": 1.5491611, "lon": 44.3796629, "tags": {"place": "hamlet"}}, {"type": "node", "id": 8119221565, "lat": 1.5117454, "lon": 44.3201539, "tags": {"place": "isolated_dwelling"}}, {"type": "node", "id": 8119221576, "lat": 1.5108558, "lon": 44.3155877, "tags": {"place": "isolated_dwelling"}}, {"type": "node", "id": 8119221673, "lat": 1.5967283, "lon": 44.3094741, "tags": {"place": "isolated_dwelling"}}, {"type": "node", "id": 8119221697, "lat": 1.5929879, "lon": 44.3090003, "tags": {"place": "isolated_dwelling"}}, {"type": "node", "id": 8119222130, "lat": 1.657505, "lon": 44.3173659, "tags": {"place": "isolated_dwelling"}}, {"type": "node", "id": 8119287143, "lat": 1.5723965, "lon": 44.3403681, "tags": {"place": "isolated_dwelling"}}, {"type": "node", "id": 8119287179, "lat": 1.5581149, "lon": 44.354776, "tags": {"place": "isolated_dwelling"}}, {"type": "node", "id": 8119288305, "lat": 1.627401, "lon": 44.4453289, "tags": {"place": "isolated_dwelling"}}, {"type": "node", "id": 8120589795, "lat": 1.5604598, "lon": 44.3441667, "tags": {"place": "isolated_dwelling"}}, {"type": "node", "id": 8120589995, "lat": 1.5089159, "lon": 44.3269145, "tags": {"place": "isolated_dwelling"}}, {"type": "node", "id": 8120589996, "lat": 1.5092873, "lon": 44.3289009, "tags": {"place": "isolated_dwelling"}}, {"type": "node", "id": 8120590123, "lat": 1.547572, "lon": 44.3450363, "tags": {"place": "isolated_dwelling"}}, {"type": "node", "id": 8120699809, "lat": 1.5508179, "lon": 44.4301882, "tags": {"place": "hamlet"}}, {"type": "node", "id": 8120720852, "lat": 1.5500671, "lon": 44.4115563, "tags": {"place": "hamlet"}}, {"type": "node", "id": 8120721150, "lat": 1.5763633, "lon": 44.3878871, "tags": {"place": "hamlet"}}, {"type": "node", "id": 8120721221, "lat": 1.5155731, "lon": 44.369304, "tags": {"place": "isolated_dwelling"}}, {"type": "node", "id": 8120721372, "lat": 1.5254876, "lon": 44.326451, "tags": {"place": "isolated_dwelling"}}, {"type": "node", "id": 8120721414, "lat": 1.5394958, "lon": 44.3938923, "tags": {"place": "isolated_dwelling"}}, {"type": "node", "id": 8120721552, "lat": 1.5219598, "lon": 44.3157432, "tags": {"place": "isolated_dwelling"}}, {"type": "node", "id": 8120885920, "lat": 1.7095588, "lon": 44.3212822, "tags": {"place": "isolated_dwelling"}}, {"type": "node", "id": 8120885945, "lat": 1.7003305, "lon": 44.3208772, "tags": {"place": "isolated_dwelling"}}, {"type": "node", "id": 8120886074, "lat": 1.5652099, "lon": 44.4235837, "tags": {"place": "isolated_dwelling"}}, {"type": "node", "id": 8120886075, "lat": 1.5659799, "lon": 44.423602, "tags": {"place": "isolated_dwelling"}}, {"type": "node", "id": 8120962290, "lat": 1.6513183, "lon": 44.4161301, "tags": {"place": "farm"}}, {"type": "node", "id": 8121153329, "lat": 1.6881172, "lon": 44.322035, "tags": {"place": "isolated_dwelling"}}, {"type": "node", "id": 8121297078, "lat": 1.5091581, "lon": 44.4099309, "tags": {"place": "isolated_dwelling"}}, {"type": "node", "id": 8121297079, "lat": 1.5101643, "lon": 44.4117798, "tags": {"place": "hamlet"}}, {"type": "node", "id": 8121333813, "lat": 1.6016658, "lon": 44.4109037, "tags": {"place": "isolated_dwelling"}}, {"type": "node", "id": 8121333833, "lat": 1.5953573, "lon": 44.3982121, "tags": {"place": "isolated_dwelling"}}, {"type": "node", "id": 8121333834, "lat": 1.5944045, "lon": 44.4009961, "tags": {"place": "isolated_dwelling"}}, {"type": "node", "id": 8121333900, "lat": 1.5677968, "lon": 44.4059929, "tags": {"place": "isolated_dwelling"}}, {"type": "node", "id": 8121333969, "lat": 1.5737957, "lon": 44.3921109, "tags": {"place": "hamlet"}}, {"type": "node", "id": 8121631771, "lat": 1.5042005, "lon": 44.3688024, "tags": {"place": "isolated_dwelling"}}, {"type": "node", "id": 8121631772, "lat": 1.5065195, "lon": 44.3683194, "tags": {"place": "isolated_dwelling"}}, {"type": "node", "id": 8121631801, "lat": 1.5205064, "lon": 44.3634103, "tags": {"place": "isolated_dwelling"}}, {"type": "node", "id": 8121631802, "lat": 1.5208094, "lon": 44.3626153, "tags": {"place": "isolated_dwelling"}}, {"type": "node", "id": 8124347442, "lat": 1.6647162, "lon": 44.428331, "tags": {"place": "isolated_dwelling"}}, {"type": "node", "id": 8124347771, "lat": 1.6309773, "lon": 44.3797654, "tags": {"place": "isolated_dwelling"}}, {"type": "node", "id": 8124347776, "lat": 1.6374059, "lon": 44.382816, "tags": {"place": "isolated_dwelling"}}, {"type": "node", "id": 8125100968, "lat": 1.5229174, "lon": 44.4740154, "tags": {"place": "isolated_dwelling"}}, {"type": "node", "id": 8125100969, "lat": 1.5226823, "lon": 44.4713757, "tags": {"place": "isolated_dwelling"}}, {"type": "node", "id": 8125100970, "lat": 1.5239226, "lon": 44.4725292, "tags": {"place": "isolated_dwelling"}}, {"type": "node", "id": 8125101015, "lat": 1.516318, "lon": 44.4589507, "tags": {"place": "hamlet"}}, {"type": "node", "id": 8125219052, "lat": 1.5970764, "lon": 44.4651741, "tags": {"place": "hamlet"}}, {"type": "node", "id": 8127001071, "lat": 1.6204075, "lon": 44.4029554, "tags": {"place": "isolated_dwelling"}}, {"type": "node", "id": 8127001260, "lat": 1.510013, "lon": 44.3292423, "tags": {"place": "isolated_dwelling"}}, {"type": "node", "id": 8127001298, "lat": 1.5231717, "lon": 44.3324045, "tags": {"place": "isolated_dwelling"}}, {"type": "node", "id": 8127001299, "lat": 1.522445, "lon": 44.3299419, "tags": {"place": "isolated_dwelling"}}, {"type": "node", "id": 8127001327, "lat": 1.5204548, "lon": 44.3404511, "tags": {"place": "isolated_dwelling"}}, {"type": "node", "id": 8127001328, "lat": 1.519878, "lon": 44.3395579, "tags": {"place": "isolated_dwelling"}}, {"type": "node", "id": 8127001329, "lat": 1.5199721, "lon": 44.3421001, "tags": {"place": "isolated_dwelling"}}, {"type": "node", "id": 8128531684, "lat": 1.5093318, "lon": 44.4480371, "tags": {"place": "isolated_dwelling"}}, {"type": "node", "id": 8128531685, "lat": 1.506499, "lon": 44.4453909, "tags": {"place": "hamlet"}}, {"type": "node", "id": 8128531763, "lat": 1.5039835, "lon": 44.4408232, "tags": {"place": "hamlet"}}, {"type": "node", "id": 8128531774, "lat": 1.5025124, "lon": 44.4388843, "tags": {"place": "isolated_dwelling"}}, {"type": "node", "id": 8128531995, "lat": 1.5411633, "lon": 44.4773309, "tags": {"place": "isolated_dwelling"}}, {"type": "node", "id": 8128532039, "lat": 1.5420863, "lon": 44.4753046, "tags": {"place": "isolated_dwelling"}}, {"type": "node", "id": 8128532040, "lat": 1.5413884, "lon": 44.4748363, "tags": {"place": "isolated_dwelling"}}, {"type": "node", "id": 8129138848, "lat": 1.574634, "lon": 44.364178, "tags": {"place": "isolated_dwelling"}}, {"type": "node", "id": 8129138849, "lat": 1.5730918, "lon": 44.3647498, "tags": {"place": "isolated_dwelling"}}, {"type": "node", "id": 8129139476, "lat": 1.6453044, "lon": 44.4091344, "tags": {"place": "isolated_dwelling"}}, {"type": "node", "id": 8129139544, "lat": 1.6321851, "lon": 44.3826799, "tags": {"place": "hamlet"}}, {"type": "node", "id": 8129139598, "lat": 1.6296394, "lon": 44.3969274, "tags": {"place": "isolated_dwelling"}}, {"type": "node", "id": 8129139657, "lat": 1.6085139, "lon": 44.4119083, "tags": {"place": "hamlet"}}, {"type": "node", "id": 8129139856, "lat": 1.7406677, "lon": 44.3322917, "tags": {"place": "isolated_dwelling"}}, {"type": "node", "id": 8129264003, "lat": 1.6366236, "lon": 44.4610588, "tags": {"place": "isolated_dwelling"}}, {"type": "node", "id": 8129264144, "lat": 1.61926, "lon": 44.4430629, "tags": {"place": "isolated_dwelling"}}, {"type": "node", "id": 8130376844, "lat": 1.5524609, "lon": 44.3605096, "tags": {"place": "isolated_dwelling"}}, {"type": "node", "id": 8130377288, "lat": 1.6337979, "lon": 44.4644255, "tags": {"place": "isolated_dwelling"}}, {"type": "node", "id": 8130524113, "lat": 1.7302329, "lon": 44.3636176, "tags": {"place": "hamlet"}}, {"type": "node", "id": 8132067846, "lat": 1.6967465, "lon": 44.3685123, "tags": {"place": "isolated_dwelling"}}, {"type": "node", "id": 8135161251, "lat": 1.5634422, "lon": 44.4435299, "tags": {"place": "hamlet"}}, {"type": "node", "id": 8137151718, "lat": 1.6955497, "lon": 44.4981319, "tags": {"place": "isolated_dwelling"}}, {"type": "node", "id": 8138644612, "lat": 1.5979332, "lon": 44.4689903, "tags": {"place": "isolated_dwelling"}}, {"type": "node", "id": 8140124988, "lat": 1.7068612, "lon": 44.3776066, "tags": {"place": "isolated_dwelling"}}, {"type": "node", "id": 8140125139, "lat": 1.5670505, "lon": 44.4853996, "tags": {"place": "isolated_dwelling"}}, {"type": "node", "id": 8144025980, "lat": 1.5205453, "lon": 44.4624852}, {"type": "node", "id": 8144025981, "lat": 1.5211193, "lon": 44.461739}, {"type": "node", "id": 8144025982, "lat": 1.5212226, "lon": 44.4615208}, {"type": "node", "id": 8144025983, "lat": 1.5213833, "lon": 44.4610731}, {"type": "node", "id": 8144025984, "lat": 1.5218426, "lon": 44.4600284}, {"type": "node", "id": 8144025985, "lat": 1.5219688, "lon": 44.4595921}, {"type": "node", "id": 8144025986, "lat": 1.5220607, "lon": 44.4589377}, {"type": "node", "id": 8144025987, "lat": 1.5222099, "lon": 44.4584785}, {"type": "node", "id": 8144025988, "lat": 1.5223018, "lon": 44.4582834}, {"type": "node", "id": 8144025989, "lat": 1.5225543, "lon": 44.4579045}, {"type": "node", "id": 8144025990, "lat": 1.5227725, "lon": 44.4578586}, {"type": "node", "id": 8144025991, "lat": 1.5229906, "lon": 44.4578815}, {"type": "node", "id": 8144025992, "lat": 1.5233465, "lon": 44.45818}, {"type": "node", "id": 8144025993, "lat": 1.5234728, "lon": 44.4583867}, {"type": "node", "id": 8144025994, "lat": 1.5237713, "lon": 44.4590411}, {"type": "node", "id": 8144025995, "lat": 1.5239894, "lon": 44.4594544}, {"type": "node", "id": 8144025996, "lat": 1.5242534, "lon": 44.4600973}, {"type": "node", "id": 8144025997, "lat": 1.5244601, "lon": 44.4605106}, {"type": "node", "id": 8144025998, "lat": 1.524506, "lon": 44.4607402}, {"type": "node", "id": 8144025999, "lat": 1.524506, "lon": 44.4609812}, {"type": "node", "id": 8144026000, "lat": 1.5246667, "lon": 44.461716}, {"type": "node", "id": 8144026001, "lat": 1.5246667, "lon": 44.4621867}, {"type": "node", "id": 8144026002, "lat": 1.5242649, "lon": 44.4630592}, {"type": "node", "id": 8144026003, "lat": 1.5240009, "lon": 44.463461}, {"type": "node", "id": 8144026004, "lat": 1.5237827, "lon": 44.4635643}, {"type": "node", "id": 8144026005, "lat": 1.5235417, "lon": 44.4636332}, {"type": "node", "id": 8144026006, "lat": 1.523312, "lon": 44.4636217}, {"type": "node", "id": 8144026007, "lat": 1.5230824, "lon": 44.4635758}, {"type": "node", "id": 8144026008, "lat": 1.5228643, "lon": 44.463461}, {"type": "node", "id": 8144026009, "lat": 1.5223936, "lon": 44.4629214}, {"type": "node", "id": 8144026010, "lat": 1.5221984, "lon": 44.4630707}, {"type": "node", "id": 8144026011, "lat": 1.5219574, "lon": 44.463484}, {"type": "node", "id": 8144026012, "lat": 1.5216244, "lon": 44.4638399}, {"type": "node", "id": 8144026013, "lat": 1.5211537, "lon": 44.4638973}, {"type": "node", "id": 8144026014, "lat": 1.5202468, "lon": 44.4634151}, {"type": "node", "id": 8144026015, "lat": 1.5202468, "lon": 44.4629559}, {"type": "node", "id": 8145649708, "lat": 1.6083331, "lon": 44.4506374, "tags": {"place": "isolated_dwelling"}}, {"type": "node", "id": 8145692420, "lat": 1.6083333, "lon": 44.4420943, "tags": {"place": "farm"}}, {"type": "node", "id": 8147496026, "lat": 1.5035672, "lon": 44.3124378, "tags": {"place": "isolated_dwelling"}}, {"type": "node", "id": 8151396859, "lat": 1.7338913, "lon": 44.382033, "tags": {"place": "isolated_dwelling"}}, {"type": "node", "id": 8169957957, "lat": 1.7352285, "lon": 44.3671033, "tags": {"place": "hamlet"}}, {"type": "node", "id": 8251615176, "lat": 1.7524342, "lon": 44.6839843, "tags": {"place": "isolated_dwelling"}}, {"type": "node", "id": 8251615378, "lat": 1.751247, "lon": 44.6301587, "tags": {"checked": "no", "place": "hamlet"}}, {"type": "node", "id": 8261918870, "lat": 1.7697471, "lon": 44.651926, "tags": {"place": "hamlet"}}, {"type": "node", "id": 8261919008, "lat": 1.7885926, "lon": 44.6344272, "tags": {"place": "isolated_dwelling"}}, {"type": "node", "id": 8261919048, "lat": 1.7833877, "lon": 44.6260844, "tags": {"place": "isolated_dwelling"}}, {"type": "node", "id": 8261919079, "lat": 1.8027795, "lon": 44.6515646, "tags": {"place": "isolated_dwelling"}}, {"type": "node", "id": 8263983476, "lat": 1.7834697, "lon": 44.6785194, "tags": {"place": "isolated_dwelling"}}, {"type": "node", "id": 8263983477, "lat": 1.7845601, "lon": 44.6763967, "tags": {"place": "hamlet"}}, {"type": "node", "id": 8264385585, "lat": 1.8620845, "lon": 44.5592334, "tags": {"place": "isolated_dwelling"}}, {"type": "node", "id": 8264385612, "lat": 1.8594755, "lon": 44.5683001, "tags": {"checked": "no", "place": "hamlet"}}, {"type": "node", "id": 8270860358, "lat": 1.7574481, "lon": 44.6734804, "tags": {"place": "isolated_dwelling"}}, {"type": "node", "id": 8274369387, "lat": 1.7770347, "lon": 44.635492, "tags": {"place": "isolated_dwelling"}}, {"type": "node", "id": 8274369423, "lat": 1.7664527, "lon": 44.6306186, "tags": {"place": "isolated_dwelling"}}, {"type": "node", "id": 8274369450, "lat": 1.7613783, "lon": 44.6336179, "tags": {"place": "isolated_dwelling"}}, {"type": "node", "id": 8274369581, "lat": 1.7598335, "lon": 44.5843174, "tags": {"place": "farm"}}, {"type": "node", "id": 8274369619, "lat": 1.7709681, "lon": 44.6041153, "tags": {"place": "hamlet"}}, {"type": "node", "id": 8275979166, "lat": 1.8416544, "lon": 44.6514841, "tags": {"place": "isolated_dwelling"}}, {"type": "node", "id": 8275979180, "lat": 1.8368251, "lon": 44.6553339, "tags": {"place": "isolated_dwelling"}}, {"type": "node", "id": 8275979299, "lat": 1.843845, "lon": 44.6499659, "tags": {"place": "isolated_dwelling"}}, {"type": "node", "id": 8275980099, "lat": 1.8495523, "lon": 44.6665804, "tags": {"place": "isolated_dwelling"}}, {"type": "node", "id": 8275980650, "lat": 1.828091, "lon": 44.6574422, "tags": {"place": "isolated_dwelling"}}, {"type": "node", "id": 8275980664, "lat": 1.8263806, "lon": 44.6604074, "tags": {"place": "isolated_dwelling"}}, {"type": "node", "id": 8275980665, "lat": 1.8259141, "lon": 44.6626927, "tags": {"place": "isolated_dwelling"}}, {"type": "node", "id": 8275980695, "lat": 1.8240159, "lon": 44.6640199, "tags": {"place": "isolated_dwelling"}}, {"type": "node", "id": 8275980923, "lat": 1.8464155, "lon": 44.6566688, "tags": {"place": "isolated_dwelling"}}, {"type": "node", "id": 8278593580, "lat": 1.816675, "lon": 44.5707859, "tags": {"place": "isolated_dwelling"}}, {"type": "node", "id": 8278593671, "lat": 1.8043409, "lon": 44.5411719, "tags": {"place": "isolated_dwelling"}}, {"type": "node", "id": 8279049071, "lat": 1.8308176, "lon": 44.5380492, "tags": {"place": "isolated_dwelling"}}, {"type": "node", "id": 8281272490, "lat": 1.7989336, "lon": 44.6209607, "tags": {"place": "village"}}, {"type": "node", "id": 8283609488, "lat": 1.7610132, "lon": 44.6552177, "tags": {"place": "isolated_dwelling"}}, {"type": "node", "id": 8283609645, "lat": 1.8120871, "lon": 44.650098, "tags": {"place": "isolated_dwelling"}}, {"type": "node", "id": 8287731642, "lat": 1.7629814, "lon": 44.5371557, "tags": {"place": "isolated_dwelling"}}, {"type": "node", "id": 8287731675, "lat": 1.7709316, "lon": 44.5441538, "tags": {"place": "isolated_dwelling"}}, {"type": "node", "id": 8287731911, "lat": 1.7603617, "lon": 44.5188976, "tags": {"place": "isolated_dwelling"}}, {"type": "node", "id": 8288836157, "lat": 1.7697717, "lon": 44.6800781, "tags": {"place": "isolated_dwelling"}}, {"type": "node", "id": 8288836348, "lat": 1.7749887, "lon": 44.6576096, "tags": {"place": "isolated_dwelling"}}, {"type": "node", "id": 8289584211, "lat": 1.8660196, "lon": 44.5206646, "tags": {"place": "isolated_dwelling"}}, {"type": "node", "id": 8289584212, "lat": 1.8661968, "lon": 44.5195371, "tags": {"place": "isolated_dwelling"}}, {"type": "node", "id": 8289584270, "lat": 1.8468641, "lon": 44.5180906, "tags": {"place": "isolated_dwelling"}}, {"type": "node", "id": 8293082710, "lat": 1.8510466, "lon": 44.6878683, "tags": {"place": "isolated_dwelling"}}, {"type": "node", "id": 8293088939, "lat": 1.8620168, "lon": 44.6460534, "tags": {"place": "isolated_dwelling"}}, {"type": "node", "id": 8293089118, "lat": 1.8477017, "lon": 44.6870319, "tags": {"place": "isolated_dwelling"}}, {"type": "node", "id": 8293089434, "lat": 1.8663001, "lon": 44.6639698, "tags": {"place": "isolated_dwelling"}}, {"type": "node", "id": 8294227304, "lat": 1.7840819, "lon": 44.6777295, "tags": {"place": "isolated_dwelling"}}, {"type": "node", "id": 8294254148, "lat": 1.812129, "lon": 44.5107261, "tags": {"place": "isolated_dwelling"}}, {"type": "node", "id": 8299823228, "lat": 1.8575791, "lon": 44.5848675, "tags": {"place": "hamlet"}}, {"type": "node", "id": 8299823396, "lat": 1.8547347, "lon": 44.5795539, "tags": {"place": "hamlet"}}, {"type": "node", "id": 8300039153, "lat": 1.8465043, "lon": 44.5475662, "tags": {"place": "isolated_dwelling"}}, {"type": "node", "id": 8300039217, "lat": 1.8283996, "lon": 44.5163928, "tags": {"place": "isolated_dwelling"}}, {"type": "node", "id": 8300997431, "lat": 1.8580424, "lon": 44.6194463, "tags": {"place": "isolated_dwelling"}}, {"type": "node", "id": 8303052410, "lat": 1.8613048, "lon": 44.5758068, "tags": {"place": "isolated_dwelling"}}, {"type": "node", "id": 8305362456, "lat": 1.4708323, "lon": 44.4301398, "tags": {"place": "isolated_dwelling"}}, {"type": "node", "id": 8305408469, "lat": 1.4980522, "lon": 44.432313, "tags": {"place": "hamlet"}}, {"type": "node", "id": 8305509212, "lat": 1.4888564, "lon": 44.3299471, "tags": {"place": "isolated_dwelling"}}, {"type": "node", "id": 8305509213, "lat": 1.4881347, "lon": 44.3302306, "tags": {"place": "isolated_dwelling"}}, {"type": "node", "id": 8305509214, "lat": 1.488022, "lon": 44.3307525, "tags": {"place": "isolated_dwelling"}}, {"type": "node", "id": 8305509705, "lat": 1.4958246, "lon": 44.4240785, "tags": {"place": "isolated_dwelling"}}, {"type": "node", "id": 8305509719, "lat": 1.4933868, "lon": 44.4210643, "tags": {"place": "hamlet"}}, {"type": "node", "id": 8305509732, "lat": 1.4913799, "lon": 44.4201417, "tags": {"place": "isolated_dwelling"}}, {"type": "node", "id": 8306017813, "lat": 1.4883684, "lon": 44.3443867, "tags": {"place": "isolated_dwelling"}}, {"type": "node", "id": 8306018043, "lat": 1.4804931, "lon": 44.3882158, "tags": {"place": "isolated_dwelling"}}, {"type": "node", "id": 8306018496, "lat": 1.4794622, "lon": 44.4071619, "tags": {"place": "hamlet"}}, {"type": "node", "id": 8306018528, "lat": 1.4761923, "lon": 44.4045653, "tags": {"place": "isolated_dwelling"}}, {"type": "node", "id": 8306018529, "lat": 1.4755609, "lon": 44.4031092, "tags": {"place": "isolated_dwelling"}}, {"type": "node", "id": 8306018530, "lat": 1.475126, "lon": 44.402278, "tags": {"place": "isolated_dwelling"}}, {"type": "node", "id": 8306018531, "lat": 1.4736473, "lon": 44.3997136, "tags": {"place": "isolated_dwelling"}}, {"type": "node", "id": 8306018532, "lat": 1.4738019, "lon": 44.4002001, "tags": {"place": "isolated_dwelling"}}, {"type": "node", "id": 8306018533, "lat": 1.4736441, "lon": 44.4003676, "tags": {"place": "isolated_dwelling"}}, {"type": "node", "id": 8306018534, "lat": 1.4728419, "lon": 44.4021878, "tags": {"place": "isolated_dwelling"}}, {"type": "node", "id": 8306018535, "lat": 1.4727162, "lon": 44.4010023, "tags": {"place": "isolated_dwelling"}}, {"type": "node", "id": 8306018547, "lat": 1.4698482, "lon": 44.3982843, "tags": {"place": "hamlet"}}, {"type": "node", "id": 8306018556, "lat": 1.4710636, "lon": 44.3982188, "tags": {"place": "isolated_dwelling"}}, {"type": "node", "id": 8306018557, "lat": 1.4708155, "lon": 44.3977807, "tags": {"place": "isolated_dwelling"}}, {"type": "node", "id": 8306018558, "lat": 1.4708832, "lon": 44.3968851, "tags": {"place": "isolated_dwelling"}}, {"type": "node", "id": 8306018579, "lat": 1.468206, "lon": 44.3916919, "tags": {"place": "isolated_dwelling"}}, {"type": "node", "id": 8306018580, "lat": 1.466083, "lon": 44.3851489, "tags": {"place": "isolated_dwelling"}}, {"type": "node", "id": 8306018581, "lat": 1.4680643, "lon": 44.3872912, "tags": {"place": "isolated_dwelling"}}, {"type": "node", "id": 8306018582, "lat": 1.4669786, "lon": 44.3867854, "tags": {"place": "isolated_dwelling"}}, {"type": "node", "id": 8306018583, "lat": 1.4676551, "lon": 44.3876939, "tags": {"place": "isolated_dwelling"}}, {"type": "node", "id": 8306018584, "lat": 1.4677131, "lon": 44.3892532, "tags": {"place": "isolated_dwelling"}}, {"type": "node", "id": 8306018585, "lat": 1.4661958, "lon": 44.3903227, "tags": {"place": "isolated_dwelling"}}, {"type": "node", "id": 8306018586, "lat": 1.466824, "lon": 44.3894046, "tags": {"place": "isolated_dwelling"}}, {"type": "node", "id": 8306018587, "lat": 1.4664986, "lon": 44.3903131, "tags": {"place": "isolated_dwelling"}}, {"type": "node", "id": 8306018640, "lat": 1.4607545, "lon": 44.366889, "tags": {"place": "isolated_dwelling"}}, {"type": "node", "id": 8306018641, "lat": 1.4608447, "lon": 44.3687994, "tags": {"place": "isolated_dwelling"}}, {"type": "node", "id": 8318364478, "lat": 1.4725852, "lon": 44.4370902, "tags": {"place": "hamlet"}}, {"type": "node", "id": 8318364479, "lat": 1.4714885, "lon": 44.4351214, "tags": {"place": "hamlet"}}, {"type": "node", "id": 8560735674, "lat": 1.820042, "lon": 44.435395, "tags": {"place": "hamlet"}}, {"type": "node", "id": 8560767775, "lat": 1.7592865, "lon": 44.3277127, "tags": {"place": "village"}}, {"type": "node", "id": 11900563542, "lat": 1.7836815, "lon": 44.4178338, "tags": {"place": "village"}}, {"type": "node", "id": 11900565229, "lat": 1.8699294, "lon": 44.3545318, "tags": {"place": "village"}}, {"type": "node", "id": 11900793292, "lat": 1.8107492, "lon": 44.4332317, "tags": {"place": "hamlet"}}, {"type": "node", "id": 11900793971, "lat": 1.8178295, "lon": 44.4126152, "tags": {"place": "hamlet"}}, {"type": "node", "id": 11903350139, "lat": 1.7632955, "lon": 44.3729934, "tags": {"place": "hamlet"}}, {"type": "node", "id": 11913236097, "lat": 1.7866972, "lon": 44.3624899, "tags": {"place": "hamlet"}}, {"type": "node", "id": 11922198852, "lat": 1.8238328, "lon": 44.423891, "tags": {"place": "village"}}, {"type": "way", "id": 874897545, "nodes": [8144026015, 8144026014, 8144026013, 8144026012, 8144026011, 8144026010, 8144026009, 8144026008, 8144026007, 8144026006, 8144026005, 8144026004, 8144026003, 8144026002, 8144026001, 8144026000, 8144025999, 8144025998, 8144025997, 8144025996, 8144025995, 8144025994, 8144025993, 8144025992, 8144025991, 8144025990, 8144025989, 8144025988, 8144025987, 8144025986, 8144025985, 8144025984, 8144025983, 8144025982, 8144025981, 8144025980, 8144026015], "tags": {"name": "Busley", "place": "village", "population": "30000"}}]}