{"version": 0.6, "generator": "Overpass API 0.7.62.1 084b4234", "osm3s": {"timestamp_osm_base": "2024-09-30T23:13:00Z", "copyright": "The data included in this document is from www.openstreetmap.org. The data is made available under ODbL."}, "elements": [{"type": "node", "id": 1150887002, "lat": 6.094304, "lon": 44.768828, "tags": {"name": "Shilabo", "place": "city", "source": "GeoDatabase", "wikidata": "Q1026712"}}, {"type": "node", "id": 1150890166, "lat": 6.15, "lon": 44.75, "tags": {"is_in:country_code": "ET", "is_in:county": "Ethiopia", "name": "Iglole", "place": "locality", "source": "GeoDatabase"}}, {"type": "node", "id": 1150894510, "lat": 6.235421, "lon": 44.7574462, "tags": {"name": "Lazole Reidabe", "place": "hamlet", "source": "GeoDatabase"}}, {"type": "node", "id": 1150900760, "lat": 6.16083, "lon": 44.79778, "tags": {"is_in:country_code": "ET", "is_in:county": "Ethiopia", "name": "El Balli Addo", "place": "locality", "source": "GeoDatabase"}}, {"type": "node", "id": 1150911041, "lat": 5.8805197, "lon": 44.7626557, "tags": {"name": "Bulei", "place": "locality", "source": "GeoDatabase"}}, {"type": "node", "id": 1150920207, "lat": 6.21667, "lon": 44.63333, "tags": {"is_in:country_code": "ET", "is_in:county": "Ethiopia", "name": "Calub", "place": "locality", "source": "GeoDatabase", "wikidata": "Q24031712"}}, {"type": "node", "id": 1150944880, "lat": 5.88194, "lon": 44.67139, "tags": {"is_in:country_code": "ET", "is_in:county": "Ethiopia", "name": "Har Adde", "place": "locality", "source": "GeoDatabase"}}, {"type": "node", "id": 1150952817, "lat": 6.01472, "lon": 44.70861, "tags": {"is_in:country_code": "ET", "is_in:county": "Ethiopia", "name": "Aftol", "place": "locality", "source": "GeoDatabase"}}, {"type": "node", "id": 1150962269, "lat": 6.02083, "lon": 44.745, "tags": {"is_in:country_code": "ET", "is_in:county": "Ethiopia", "name": "Laz Lebile", "place": "locality", "source": "GeoDatabase"}}, {"type": "node", "id": 3129337970, "lat": 6.004215, "lon": 44.7870438, "tags": {"place": "village"}}]}