{"version": 0.6, "generator": "Overpass API 0.7.62.1 084b4234", "osm3s": {"timestamp_osm_base": "2024-09-30T20:45:58Z", "copyright": "The data included in this document is from www.openstreetmap.org. The data is made available under ODbL."}, "elements": [{"type": "node", "id": 1404221533, "lat": 3.87909, "lon": 43.97902, "tags": {"name": "Bonta Furoy", "pcode": "NA-3802-C11-008", "place": "village", "source": "UNDP - 2006"}}, {"type": "node", "id": 1404221718, "lat": 3.5316, "lon": 44.05685, "tags": {"name": "Buulo Sabar", "pcode": "NA-3802-M13-001", "place": "village", "source": "UNDP - 1997"}}, {"type": "node", "id": 1404221880, "lat": 3.5791, "lon": 44.201401, "tags": {"name": "Magdaad", "pcode": "NA-3802-L16-001", "place": "village", "source": "UNDP - 1997"}}, {"type": "node", "id": 1404222135, "lat": 3.89776, "lon": 43.94929, "tags": {"name": "Madoha", "pcode": "NA-3802-C10-001", "place": "village", "source": "UNDP - 2006"}}, {"type": "node", "id": 1404222867, "lat": 3.917, "lon": 44.05259, "tags": {"name": "Buulo Iri", "pcode": "NA-3802-B13-001", "place": "village", "source": "UNDP - 2006"}}, {"type": "node", "id": 1404223641, "lat": 3.90892, "lon": 43.99604, "tags": {"name": "Shabaka", "pcode": "NA-3802-C11-005", "place": "village", "source": "UNDP - 2006"}}, {"type": "node", "id": 1404224136, "lat": 3.56953, "lon": 43.95863, "tags": {"name": "Jiumdaale", "pcode": "NA-3802-L11-001", "place": "village", "source": "UNDP - 1997"}}, {"type": "node", "id": 1404225189, "lat": 3.89579, "lon": 43.98124, "tags": {"name": "Dhujiilow", "pcode": "NA-3802-C11-004", "place": "village", "source": "UNDP - 2006"}}, {"type": "node", "id": 1404225214, "lat": 3.87467, "lon": 43.96236, "tags": {"name": "Madooda", "pcode": "NA-3802-D11-001", "place": "village", "source": "UNDP - 1997"}}, {"type": "node", "id": 1404225745, "lat": 3.91318, "lon": 43.98367, "tags": {"name": "Eel Gethet", "pcode": "NA-3802-C11-007", "place": "village", "source": "UNDP - 2006"}}, {"type": "node", "id": 1404225773, "lat": 3.90991, "lon": 44.02328, "tags": {"name": "Min Dhoobi", "pcode": "NA-3802-C12-002", "place": "village", "source": "UNDP - 2006"}}, {"type": "node", "id": 1404226021, "lat": 3.91523, "lon": 44.04104, "tags": {"name": "Asturow", "pcode": "NA-3802-C12-003", "place": "village", "source": "UNDP - 2006"}}, {"type": "node", "id": 1404226843, "lat": 3.91789, "lon": 44.28789, "tags": {"name": "Rer Aw Hussenow", "pcode": "NA-3802-B18-004", "place": "village", "source": "UNDP - 2006"}}, {"type": "node", "id": 1404227497, "lat": 3.91372, "lon": 43.9786, "tags": {"name": "Uunka Maadi", "pcode": "NA-3802-C11-006", "place": "village", "source": "UNDP - 2006"}}, {"type": "node", "id": 1404227881, "lat": 3.91192, "lon": 43.986019, "tags": {"name": "Unramade", "pcode": "NA-3802-C11-001", "place": "village", "source": "UNDP - 1997"}}, {"type": "node", "id": 1404227903, "lat": 3.90888, "lon": 43.97918, "tags": {"name": "Durow", "pcode": "NA-3802-C11-003", "place": "village", "source": "UNDP - 2006"}}, {"type": "node", "id": 1404227976, "lat": 3.59304, "lon": 43.95962, "tags": {"name": "Adenwaraabow", "pcode": "NA-3802-K11-001", "place": "village", "source": "UNDP - 2006"}}, {"type": "node", "id": 1404229882, "lat": 3.87644, "lon": 43.96197, "tags": {"name": "Faratiyow", "pcode": "NA-3802-C11-002", "place": "village", "source": "UNDP - 2006"}}, {"type": "node", "id": 1404230120, "lat": 3.9063, "lon": 44.00517, "tags": {"name": "Buulo Jadid", "pcode": "NA-3802-C12-001", "place": "village", "source": "UNDP - 2006"}}, {"type": "node", "id": 1404231137, "lat": 3.53435, "lon": 44.046589, "tags": {"name": "Geba Gebah", "pcode": "NA-3802-M13-002", "place": "village", "source": "UNDP - 1997"}}, {"type": "node", "id": 1404233192, "lat": 3.87334, "lon": 43.97115, "tags": {"name": "Fajiitoole", "pcode": "NA-3802-D11-002", "place": "village", "source": "UNDP - 2006"}}, {"type": "node", "id": 1404233230, "lat": 3.53238, "lon": 44.039551, "tags": {"name": "Buulo Bilaan", "pcode": "NA-3802-M12-001", "place": "village", "source": "UNDP - 1997"}}]}