{"version": 0.6, "generator": "Overpass API 0.7.62.1 084b4234", "osm3s": {"timestamp_osm_base": "2024-09-30T23:14:58Z", "copyright": "The data included in this document is from www.openstreetmap.org. The data is made available under ODbL."}, "elements": [{"type": "node", "id": 1150886450, "lat": 6.48333, "lon": 41.95, "tags": {"is_in:country": "Ethiopia", "is_in:country_code": "ET", "name": "Deche", "place": "locality", "source": "GeoDatabase"}}, {"type": "node", "id": 1150901971, "lat": 6.69278, "lon": 42.03305, "tags": {"is_in:country": "Ethiopia", "is_in:country_code": "ET", "name": "Bilal", "place": "locality", "source": "GeoDatabase", "wikidata": "Q23962714"}}, {"type": "node", "id": 1150910563, "lat": 6.53333, "lon": 41.83333, "tags": {"is_in:country": "Ethiopia", "is_in:country_code": "ET", "name": "Dibo", "place": "locality", "source": "GeoDatabase"}}, {"type": "node", "id": 1150914357, "lat": 6.59667, "lon": 42.0475, "tags": {"is_in:country": "Ethiopia", "is_in:country_code": "ET", "name": "Bomnissa", "place": "locality", "source": "GeoDatabase", "wikidata": "Q23963440"}}, {"type": "node", "id": 1150921965, "lat": 6.59833, "lon": 42.06833, "tags": {"is_in:country": "Ethiopia", "is_in:country_code": "ET", "name": "Khakek", "place": "locality", "source": "GeoDatabase"}}, {"type": "node", "id": 1150938555, "lat": 6.69583, "lon": 42.03417, "tags": {"is_in:country": "Ethiopia", "is_in:country_code": "ET", "name": "Bulo Bilal", "place": "locality", "source": "GeoDatabase"}}, {"type": "node", "id": 1150962412, "lat": 6.3, "lon": 41.95, "tags": {"is_in:country": "Ethiopia", "is_in:country_code": "ET", "name": "Medale", "place": "locality", "source": "GeoDatabase"}}, {"type": "node", "id": 1150977730, "lat": 6.67806, "lon": 42.08306, "tags": {"is_in:country": "Ethiopia", "is_in:country_code": "ET", "name": "Sirrei", "place": "locality", "source": "GeoDatabase"}}, {"type": "node", "id": 1680860698, "lat": 6.546907, "lon": 41.797026, "tags": {"name": "Raaso", "place": "town", "wikidata": "Q590149"}}, {"type": "node", "id": 1680867519, "lat": 6.6157195, "lon": 42.0225838, "tags": {"name": "Buundada", "place": "town"}}, {"type": "node", "id": 3199039646, "lat": 6.5463808, "lon": 41.7937123, "tags": {"place": "village"}}]}