{"version": 0.6, "generator": "Overpass API 0.7.62.1 084b4234", "osm3s": {"timestamp_osm_base": "2024-09-30T23:23:26Z", "copyright": "The data included in this document is from www.openstreetmap.org. The data is made available under ODbL."}, "elements": [{"type": "node", "id": 1150891420, "lat": 7.71667, "lon": 46.1, "tags": {"is_in:country_code": "ET", "is_in:county": "Ethiopia", "name": "Andadaha", "place": "locality", "source": "GeoDatabase"}}, {"type": "node", "id": 1150898168, "lat": 7.86667, "lon": 45.95, "tags": {"is_in:country_code": "ET", "is_in:county": "Ethiopia", "name": "Gheraro", "place": "locality", "source": "GeoDatabase"}}, {"type": "node", "id": 1150902939, "lat": 8.01667, "lon": 46.13333, "tags": {"is_in:country_code": "ET", "is_in:county": "Ethiopia", "name": "Chair Debin", "place": "locality", "source": "GeoDatabase"}}, {"type": "node", "id": 1150961653, "lat": 7.847506, "lon": 45.891937, "tags": {"is_in:country_code": "ET", "is_in:county": "Ethiopia", "name": "Qararo Laasalay", "place": "locality", "source": "GeoDatabase"}}, {"type": "node", "id": 1150972196, "lat": 7.79667, "lon": 46.07694, "tags": {"is_in:country_code": "ET", "is_in:county": "Ethiopia", "name": "Kheygali", "place": "locality", "source": "GeoDatabase"}}, {"type": "node", "id": 1150982935, "lat": 7.95, "lon": 46.06472, "tags": {"is_in:country_code": "ET", "is_in:county": "Ethiopia", "name": "Gorasa", "place": "village", "source": "GeoDatabase"}}, {"type": "node", "id": 8920489641, "lat": 7.9394869, "lon": 46.1442491, "tags": {"place": "village"}}]}