{"version": 0.6, "generator": "Overpass API 0.7.62.1 084b4234", "osm3s": {"timestamp_osm_base": "2024-09-30T23:28:30Z", "copyright": "The data included in this document is from www.openstreetmap.org. The data is made available under ODbL."}, "elements": [{"type": "node", "id": 316873971, "lat": 9.5603009, "lon": 43.2473615, "tags": {"FIXME": "name", "name": "Unknown", "place": "village"}}, {"type": "node", "id": 1136466520, "lat": 9.4399966, "lon": 43.0907615, "tags": {"name": "Aroresa", "place": "village"}}, {"type": "node", "id": 1150697818, "lat": 9.7834822, "lon": 43.2239854, "tags": {"GNS:id": "-620304", "alt_name": "Taferi Ber", "loc_name": "Au Barre", "name": "Tefer\u012b Ber", "place": "town"}}, {"type": "node", "id": 1150881001, "lat": 9.45778, "lon": 43.14028, "tags": {"is_in:country": "Ethiopia", "is_in:country_code": "ET", "name": "Souboul Odle", "place": "locality", "source": "GeoDatabase"}}, {"type": "node", "id": 1150881307, "lat": 9.49806, "lon": 43.10166, "tags": {"is_in:country": "Ethiopia", "is_in:country_code": "ET", "name": "Sulul Bar Bod", "place": "locality", "source": "GeoDatabase"}}, {"type": "node", "id": 1150882018, "lat": 9.73333, "lon": 43.08333, "tags": {"is_in:country": "Ethiopia", "is_in:country_code": "ET", "name": "Tore", "place": "locality", "source": "GeoDatabase"}}, {"type": "node", "id": 1150885034, "lat": 9.51056, "lon": 43.06083, "tags": {"is_in:country": "Ethiopia", "is_in:country_code": "ET", "name": "Urudzhis", "place": "locality", "source": "GeoDatabase"}}, {"type": "node", "id": 1150885625, "lat": 9.47, "lon": 42.91556, "tags": {"is_in:country": "Ethiopia", "is_in:country_code": "ET", "name": "Orafadi", "place": "locality", "source": "GeoDatabase"}}, {"type": "node", "id": 1150889354, "lat": 9.55167, "lon": 43.01194, "tags": {"is_in:country": "Ethiopia", "is_in:country_code": "ET", "name": "Sebel", "place": "locality", "source": "GeoDatabase"}}, {"type": "node", "id": 1150890408, "lat": 9.47972, "lon": 43.00194, "tags": {"is_in:country": "Ethiopia", "is_in:country_code": "ET", "name": "Uol'Go", "place": "locality", "source": "GeoDatabase"}}, {"type": "node", "id": 1150890568, "lat": 9.4860902, "lon": 43.1661852, "tags": {"is_in:country": "Ethiopia", "is_in:country_code": "ET", "name": "Gobiyere", "place": "locality", "source": "GeoDatabase"}}, {"type": "node", "id": 1150890629, "lat": 9.63111, "lon": 42.90139, "tags": {"is_in:country": "Ethiopia", "is_in:country_code": "ET", "name": "Bulloynko", "place": "locality", "source": "GeoDatabase", "wikidata": "Q24032487"}}, {"type": "node", "id": 1150891375, "lat": 9.6852804, "lon": 43.0104854, "tags": {"is_in:country": "Ethiopia", "is_in:country_code": "ET", "name": "Solsol", "place": "locality", "source": "GeoDatabase"}}, {"type": "node", "id": 1150894028, "lat": 9.66667, "lon": 43.2, "tags": {"is_in:country": "Ethiopia", "is_in:country_code": "ET", "name": "Hase'Ade", "place": "locality", "source": "GeoDatabase"}}, {"type": "node", "id": 1150894174, "lat": 9.62972, "lon": 43.06444, "tags": {"is_in:country": "Ethiopia", "is_in:country_code": "ET", "name": "Eyna Sheladi", "place": "locality", "source": "GeoDatabase"}}, {"type": "node", "id": 1150897298, "lat": 9.53806, "lon": 42.95389, "tags": {"is_in:country": "Ethiopia", "is_in:country_code": "ET", "name": "Gelbob", "place": "locality", "source": "GeoDatabase"}}, {"type": "node", "id": 1150898364, "lat": 9.63167, "lon": 43.02806, "tags": {"is_in:country": "Ethiopia", "is_in:country_code": "ET", "name": "Ela Hamar", "place": "locality", "source": "GeoDatabase"}}, {"type": "node", "id": 1150899183, "lat": 9.5, "lon": 43.11667, "tags": {"is_in:country": "Ethiopia", "is_in:country_code": "ET", "name": "Subul Niric", "place": "locality", "source": "GeoDatabase"}}, {"type": "node", "id": 1150899200, "lat": 9.76667, "lon": 43.21667, "tags": {"name": "Au Barre", "place": "locality", "source": "GeoDatabase"}}, {"type": "node", "id": 1150899628, "lat": 9.6725, "lon": 42.92333, "tags": {"is_in:country": "Ethiopia", "is_in:country_code": "ET", "name": "Dzhare", "place": "locality", "source": "GeoDatabase"}}, {"type": "node", "id": 1150899866, "lat": 9.57, "lon": 42.89639, "tags": {"is_in:country": "Ethiopia", "is_in:country_code": "ET", "name": "Machannis", "place": "locality", "source": "GeoDatabase"}}, {"type": "node", "id": 1150907270, "lat": 9.49417, "lon": 43.09667, "tags": {"is_in:country": "Ethiopia", "is_in:country_code": "ET", "name": "Subul Berol", "place": "locality", "source": "GeoDatabase"}}, {"type": "node", "id": 1150910701, "lat": 9.5325, "lon": 43.04083, "tags": {"is_in:country": "Ethiopia", "is_in:country_code": "ET", "name": "Adem Yonis", "place": "locality", "source": "GeoDatabase"}}, {"type": "node", "id": 1150914914, "lat": 9.67917, "lon": 43.20611, "tags": {"is_in:country": "Ethiopia", "is_in:country_code": "ET", "name": "Gobobley", "place": "locality", "source": "GeoDatabase"}}, {"type": "node", "id": 1150918883, "lat": 9.4440184, "lon": 43.0885085, "tags": {"is_in:country": "Ethiopia", "is_in:country_code": "ET", "name": "Haroresa", "place": "locality", "source": "GeoDatabase"}}, {"type": "node", "id": 1150920117, "lat": 9.5725, "lon": 43.18139, "tags": {"is_in:country": "Ethiopia", "is_in:country_code": "ET", "name": "Gedeb (1)", "place": "locality", "source": "GeoDatabase"}}, {"type": "node", "id": 1150924851, "lat": 9.57472, "lon": 43.22972, "tags": {"is_in:country": "Ethiopia", "is_in:country_code": "ET", "name": "Gedeb (2)", "place": "locality", "source": "GeoDatabase"}}, {"type": "node", "id": 1150925024, "lat": 9.65972, "lon": 43.07111, "tags": {"is_in:country": "Ethiopia", "is_in:country_code": "ET", "name": "Kharkebobe", "place": "locality", "source": "GeoDatabase"}}, {"type": "node", "id": 1150925936, "lat": 9.5, "lon": 43.15, "tags": {"is_in:country": "Ethiopia", "is_in:country_code": "ET", "name": "Monti Uaialeh", "place": "locality", "source": "GeoDatabase"}}, {"type": "node", "id": 1150926612, "lat": 9.51444, "lon": 43.02194, "tags": {"is_in:country": "Ethiopia", "is_in:country_code": "ET", "name": "Mule'Ale", "place": "locality", "source": "GeoDatabase"}}, {"type": "node", "id": 1150928205, "lat": 9.56194, "lon": 42.93194, "tags": {"is_in:country": "Ethiopia", "is_in:country_code": "ET", "name": "Beley", "place": "locality", "source": "GeoDatabase"}}, {"type": "node", "id": 1150928766, "lat": 9.61111, "lon": 42.89556, "tags": {"is_in:country": "Ethiopia", "is_in:country_code": "ET", "name": "Bulo", "place": "locality", "source": "GeoDatabase"}}, {"type": "node", "id": 1150931161, "lat": 9.69528, "lon": 42.97389, "tags": {"is_in:country": "Ethiopia", "is_in:country_code": "ET", "name": "Goljini", "place": "locality", "source": "GeoDatabase"}}, {"type": "node", "id": 1150936383, "lat": 9.73333, "lon": 43.15, "tags": {"is_in:country": "Ethiopia", "is_in:country_code": "ET", "name": "Tore Bota", "place": "locality", "source": "GeoDatabase"}}, {"type": "node", "id": 1150938300, "lat": 9.58528, "lon": 42.99389, "tags": {"is_in:country": "Ethiopia", "is_in:country_code": "ET", "name": "Werabeley", "place": "locality", "source": "GeoDatabase"}}, {"type": "node", "id": 1150940317, "lat": 9.43833, "lon": 43.02778, "tags": {"is_in:country": "Ethiopia", "is_in:country_code": "ET", "name": "Kharoreys", "place": "locality", "source": "GeoDatabase"}}, {"type": "node", "id": 1150946235, "lat": 9.55, "lon": 43.08333, "tags": {"is_in:country": "Ethiopia", "is_in:country_code": "ET", "name": "Ghediit Addole", "place": "locality", "source": "GeoDatabase"}}, {"type": "node", "id": 1150947685, "lat": 9.66972, "lon": 42.89833, "tags": {"is_in:country": "Ethiopia", "is_in:country_code": "ET", "name": "Samaua", "place": "locality", "source": "GeoDatabase"}}, {"type": "node", "id": 1150949157, "lat": 9.78167, "lon": 43.00861, "tags": {"is_in:country": "Ethiopia", "is_in:country_code": "ET", "name": "Harewe (2)", "place": "locality", "source": "GeoDatabase"}}, {"type": "node", "id": 1150957873, "lat": 9.7050748, "lon": 43.2282534, "tags": {"name": "Idenki", "place": "locality", "source": "GeoDatabase"}}, {"type": "node", "id": 1150962219, "lat": 9.49167, "lon": 43.22722, "tags": {"is_in:country": "Ethiopia", "is_in:country_code": "ET", "name": "Medigan", "place": "locality", "source": "GeoDatabase"}}, {"type": "node", "id": 1150969239, "lat": 9.62667, "lon": 43.21278, "tags": {"is_in:country": "Ethiopia", "is_in:country_code": "ET", "name": "Benka", "place": "locality", "source": "GeoDatabase"}}, {"type": "node", "id": 1150969329, "lat": 9.64667, "lon": 43.15111, "tags": {"is_in:country": "Ethiopia", "is_in:country_code": "ET", "name": "Khagi", "place": "locality", "source": "GeoDatabase"}}, {"type": "node", "id": 1150969734, "lat": 9.77389, "lon": 43.11972, "tags": {"is_in:country": "Ethiopia", "is_in:country_code": "ET", "name": "Dabey Weyna", "place": "locality", "source": "GeoDatabase"}}, {"type": "node", "id": 1150970392, "lat": 9.55056, "lon": 43.12972, "tags": {"is_in:country": "Ethiopia", "is_in:country_code": "ET", "name": "Erasen", "place": "locality", "source": "GeoDatabase"}}, {"type": "node", "id": 1150971004, "lat": 9.53083, "lon": 42.99361, "tags": {"is_in:country": "Ethiopia", "is_in:country_code": "ET", "name": "Arbe'In", "place": "locality", "source": "GeoDatabase"}}, {"type": "node", "id": 1150972699, "lat": 9.53639, "lon": 42.96639, "tags": {"is_in:country": "Ethiopia", "is_in:country_code": "ET", "name": "Marar", "place": "locality", "source": "GeoDatabase"}}, {"type": "node", "id": 1150973718, "lat": 9.73583, "lon": 42.93167, "tags": {"is_in:country": "Ethiopia", "is_in:country_code": "ET", "name": "Ag Giogsi", "place": "locality", "source": "GeoDatabase"}}, {"type": "node", "id": 1150979720, "lat": 9.6117949, "lon": 42.9808803, "tags": {"is_in:country": "Ethiopia", "is_in:country_code": "ET", "name": "Lefe Isa", "place": "village", "source": "GeoDatabase", "wikidata": "Q6516632"}}, {"type": "node", "id": 1150980205, "lat": 9.64111, "lon": 43.18472, "tags": {"is_in:country": "Ethiopia", "is_in:country_code": "ET", "name": "Derey", "place": "locality", "source": "GeoDatabase"}}, {"type": "node", "id": 1150981992, "lat": 9.58333, "lon": 43.0, "tags": {"is_in:country": "Ethiopia", "is_in:country_code": "ET", "name": "Souboul Hanfele", "place": "locality", "source": "GeoDatabase"}}, {"type": "node", "id": 1151003102, "lat": 9.49528, "lon": 42.96389, "tags": {"is_in:country": "Ethiopia", "is_in:country_code": "ET", "name": "Welgo", "place": "locality", "source": "GeoDatabase"}}, {"type": "node", "id": 1151004521, "lat": 9.61667, "lon": 43.01667, "tags": {"is_in:country": "Ethiopia", "is_in:country_code": "ET", "name": "Gabri Nono", "place": "locality", "source": "GeoDatabase"}}, {"type": "node", "id": 1404228377, "lat": 9.73611, "lon": 43.177502, "tags": {"name": "Weraar", "pcode": "NC-3809-G26-001", "place": "village", "source": "UNDP - 1997"}}, {"type": "node", "id": 1404233857, "lat": 9.7324675, "lon": 43.2426984, "tags": {"name": "Daba Buur-Sararka", "pcode": "NC-3809-G28-001", "place": "village", "source": "UNDP - 2006"}}]}