{"version": 0.6, "generator": "Overpass API 0.7.62.1 084b4234", "osm3s": {"timestamp_osm_base": "2024-10-01T00:12:27Z", "copyright": "The data included in this document is from www.openstreetmap.org. The data is made available under ODbL."}, "elements": [{"type": "node", "id": 1150882158, "lat": 6.26667, "lon": 36.33333, "tags": {"is_in:country": "Ethiopia", "is_in:country_code": "ET", "name": "Dime", "place": "locality", "source": "GeoDatabase"}}, {"type": "node", "id": 1150883039, "lat": 6.3, "lon": 36.55, "tags": {"is_in:country": "Ethiopia", "is_in:country_code": "ET", "name": "Daula", "place": "locality", "source": "GeoDatabase"}}, {"type": "node", "id": 1150885863, "lat": 6.26667, "lon": 36.25, "tags": {"is_in:country": "Ethiopia", "is_in:country_code": "ET", "name": "Bonca", "place": "locality", "source": "GeoDatabase"}}, {"type": "node", "id": 1150889759, "lat": 6.18333, "lon": 36.41667, "tags": {"is_in:country": "Ethiopia", "is_in:country_code": "ET", "name": "Donke", "place": "locality", "source": "GeoDatabase"}}, {"type": "node", "id": 1150890964, "lat": 6.0611436, "lon": 36.5884155, "tags": {"alt_name": "Woba Ari - Boyka Town", "name": "Wib Hamer", "place": "village", "source": "GeoDatabase"}}, {"type": "node", "id": 1150897343, "lat": 6.33333, "lon": 36.6, "tags": {"is_in:country": "Ethiopia", "is_in:country_code": "ET", "name": "Balma", "place": "locality", "source": "GeoDatabase"}}, {"type": "node", "id": 1150898115, "lat": 6.38333, "lon": 36.38333, "tags": {"is_in:country": "Ethiopia", "is_in:country_code": "ET", "name": "Galdo", "place": "locality", "source": "GeoDatabase"}}, {"type": "node", "id": 1150900247, "lat": 6.25, "lon": 36.41667, "tags": {"is_in:country": "Ethiopia", "is_in:country_code": "ET", "name": "Mesketo", "place": "locality", "source": "GeoDatabase"}}, {"type": "node", "id": 1150902311, "lat": 6.4, "lon": 36.48333, "tags": {"is_in:country": "Ethiopia", "is_in:country_code": "ET", "name": "Lots'E", "place": "locality", "source": "GeoDatabase"}}, {"type": "node", "id": 1150902717, "lat": 6.33333, "lon": 36.33333, "tags": {"is_in:country": "Ethiopia", "is_in:country_code": "ET", "name": "Dinghe", "place": "locality", "source": "GeoDatabase"}}, {"type": "node", "id": 1150903690, "lat": 6.25, "lon": 36.58333, "tags": {"is_in:country": "Ethiopia", "is_in:country_code": "ET", "name": "Scialla Gallila", "place": "locality", "source": "GeoDatabase"}}, {"type": "node", "id": 1150909417, "lat": 6.26667, "lon": 36.28333, "tags": {"is_in:country": "Ethiopia", "is_in:country_code": "ET", "name": "Dize", "place": "locality", "source": "GeoDatabase"}}, {"type": "node", "id": 1150920470, "lat": 6.16667, "lon": 36.5, "tags": {"is_in:country": "Ethiopia", "is_in:country_code": "ET", "name": "Gofa Awraja", "place": "locality", "source": "GeoDatabase"}}, {"type": "node", "id": 1150929526, "lat": 6.38333, "lon": 36.4, "tags": {"is_in:country": "Ethiopia", "is_in:country_code": "ET", "name": "Gaciro", "place": "locality", "source": "GeoDatabase"}}, {"type": "node", "id": 1150940779, "lat": 6.41667, "lon": 36.5, "tags": {"is_in:country": "Ethiopia", "is_in:country_code": "ET", "name": "Doco", "place": "locality", "source": "GeoDatabase"}}, {"type": "node", "id": 1150941876, "lat": 6.31667, "lon": 36.36667, "tags": {"is_in:country": "Ethiopia", "is_in:country_code": "ET", "name": "Sueze", "place": "locality", "source": "GeoDatabase"}}, {"type": "node", "id": 1150949506, "lat": 6.25, "lon": 36.33333, "tags": {"is_in:country": "Ethiopia", "is_in:country_code": "ET", "name": "Gomiz", "place": "locality", "source": "GeoDatabase"}}, {"type": "node", "id": 1150956576, "lat": 6.16667, "lon": 36.61667, "tags": {"is_in:country": "Ethiopia", "is_in:country_code": "ET", "name": "Bulchi", "place": "locality", "source": "GeoDatabase"}}, {"type": "node", "id": 1150958187, "lat": 6.38333, "lon": 36.6, "tags": {"is_in:country": "Ethiopia", "is_in:country_code": "ET", "name": "Delela Bota", "place": "locality", "source": "GeoDatabase"}}, {"type": "node", "id": 1150962698, "lat": 6.18333, "lon": 36.53333, "tags": {"is_in:country": "Ethiopia", "is_in:country_code": "ET", "name": "Sala Shet'", "place": "locality", "source": "GeoDatabase", "wikidata": "Q23961441"}}, {"type": "node", "id": 1151003134, "lat": 6.35, "lon": 36.55, "tags": {"is_in:country": "Ethiopia", "is_in:country_code": "ET", "name": "Anghila", "place": "locality", "source": "GeoDatabase"}}, {"type": "node", "id": 1151003797, "lat": 6.35, "lon": 36.43333, "tags": {"is_in:country": "Ethiopia", "is_in:country_code": "ET", "name": "Zanga", "place": "locality", "source": "GeoDatabase"}}, {"type": "node", "id": 5234433561, "lat": 6.058133, "lon": 36.1791909, "tags": {"place": "hamlet"}}, {"type": "node", "id": 5234439132, "lat": 6.0628167, "lon": 36.1871329, "tags": {"place": "hamlet"}}, {"type": "node", "id": 5234439145, "lat": 6.0591519, "lon": 36.1862934, "tags": {"place": "hamlet"}}, {"type": "node", "id": 5234455697, "lat": 6.0631474, "lon": 36.5388965, "tags": {"place": "village"}}, {"type": "node", "id": 5237918640, "lat": 6.3105372, "lon": 36.1720857, "tags": {"place": "hamlet"}}, {"type": "node", "id": 5237918865, "lat": 6.1468351, "lon": 36.1957481, "tags": {"place": "hamlet"}}, {"type": "node", "id": 5237919256, "lat": 6.1797369, "lon": 36.1789092, "tags": {"place": "hamlet"}}, {"type": "node", "id": 5237919287, "lat": 6.1624329, "lon": 36.1791855, "tags": {"place": "hamlet"}}, {"type": "node", "id": 5237919388, "lat": 6.1969657, "lon": 36.2742752, "tags": {"place": "village"}}, {"type": "node", "id": 5237919405, "lat": 6.197323, "lon": 36.2640881, "tags": {"place": "village"}}, {"type": "node", "id": 5237919415, "lat": 6.1999309, "lon": 36.2490195, "tags": {"place": "village"}}, {"type": "node", "id": 5237919510, "lat": 6.3287027, "lon": 36.2459779, "tags": {"place": "village"}}, {"type": "node", "id": 5237919511, "lat": 6.325237, "lon": 36.2689376, "tags": {"place": "village"}}, {"type": "node", "id": 5237919730, "lat": 6.2933308, "lon": 36.199007, "tags": {"place": "village"}}, {"type": "node", "id": 5237919731, "lat": 6.3122594, "lon": 36.229552, "tags": {"name": "Dakuba", "place": "village"}}, {"type": "node", "id": 5237919847, "lat": 6.2321175, "lon": 36.1753365, "tags": {"place": "isolated_dwelling"}}, {"type": "node", "id": 5237919857, "lat": 6.2409564, "lon": 36.1902416, "tags": {"place": "village"}}, {"type": "node", "id": 9440442481, "lat": 6.4397943, "lon": 36.5264807, "tags": {"place": "village"}}, {"type": "node", "id": 12175525944, "lat": 6.1664329, "lon": 36.5664369}, {"type": "node", "id": 12175525945, "lat": 6.1665605, "lon": 36.5661457}, {"type": "node", "id": 12175525946, "lat": 6.1662316, "lon": 36.565731}, {"type": "node", "id": 12175525947, "lat": 6.167061, "lon": 36.564877}, {"type": "node", "id": 12175525948, "lat": 6.1673162, "lon": 36.5644032}, {"type": "node", "id": 12175525949, "lat": 6.1674095, "lon": 36.563949}, {"type": "node", "id": 12175525950, "lat": 6.1669825, "lon": 36.5632135}, {"type": "node", "id": 12175525951, "lat": 6.1667519, "lon": 36.5627001}, {"type": "node", "id": 12175525952, "lat": 6.1663445, "lon": 36.5627248}, {"type": "node", "id": 12175525953, "lat": 6.1656133, "lon": 36.5635541}, {"type": "node", "id": 12175525954, "lat": 6.164936, "lon": 36.5635442}, {"type": "node", "id": 12175525955, "lat": 6.1640722, "lon": 36.5630753}, {"type": "node", "id": 12175525956, "lat": 6.1638121, "lon": 36.5633468}, {"type": "node", "id": 12175525957, "lat": 6.1631251, "lon": 36.5634801}, {"type": "node", "id": 12175525958, "lat": 6.1628846, "lon": 36.5635985}, {"type": "node", "id": 12175525959, "lat": 6.1627717, "lon": 36.5639935}, {"type": "node", "id": 12175525960, "lat": 6.1627717, "lon": 36.5645118}, {"type": "node", "id": 12175525961, "lat": 6.1634637, "lon": 36.5653707}, {"type": "node", "id": 12175525962, "lat": 6.1643618, "lon": 36.5658791}, {"type": "node", "id": 12175525963, "lat": 6.1648084, "lon": 36.5660223}, {"type": "node", "id": 12175525964, "lat": 6.1651961, "lon": 36.5660667}, {"type": "node", "id": 12175525965, "lat": 6.1654366, "lon": 36.5662296}, {"type": "node", "id": 12180916099, "lat": 6.0832376, "lon": 36.6003909, "tags": {"place": "village"}}, {"type": "node", "id": 12184798819, "lat": 6.1655586, "lon": 36.6103766, "tags": {"place": "village"}}, {"type": "node", "id": 12184798820, "lat": 6.1430748, "lon": 36.5987325, "tags": {"place": "village"}}, {"type": "node", "id": 12184916016, "lat": 6.166921, "lon": 36.6010373, "tags": {"place": "village"}}, {"type": "node", "id": 12190267959, "lat": 6.1894536, "lon": 36.6116951, "tags": {"place": "village"}}, {"type": "node", "id": 12190347238, "lat": 6.2106723, "lon": 36.5929683, "tags": {"place": "village"}}, {"type": "node", "id": 12190457571, "lat": 6.2033452, "lon": 36.5791283, "tags": {"place": "village"}}, {"type": "way", "id": 1315398145, "nodes": [12175525944, 12175525945, 12175525946, 12175525947, 12175525948, 12175525949, 12175525950, 12175525951, 12175525952, 12175525953, 12175525954, 12175525955, 12175525956, 12175525957, 12175525958, 12175525959, 12175525960, 12175525961, 12175525962, 12175525963, 12175525964, 12175525965, 12175525944], "tags": {"place": "village"}}]}