{"version": 0.6, "generator": "Overpass API 0.7.62.1 084b4234", "osm3s": {"timestamp_osm_base": "2024-09-30T19:57:44Z", "copyright": "The data included in this document is from www.openstreetmap.org. The data is made available under ODbL."}, "elements": [{"type": "node", "id": 313941532, "lat": 9.9561523, "lon": 49.0537801, "tags": {"name": "Xidda", "place": "town"}}, {"type": "node", "id": 313973934, "lat": 10.268345, "lon": 49.062415, "tags": {"name": "Dalweyn", "place": "village", "wikidata": "Q5211768"}}, {"type": "node", "id": 1404221893, "lat": 9.9738277, "lon": 48.97958, "tags": {"fixme": "Please, check location!", "name": "Kalad Hacda", "pcode": "NC-3909-A22-001", "place": "hamlet", "source": "GTZ - 2002"}}, {"type": "node", "id": 1404222190, "lat": 10.136301, "lon": 49.011269, "tags": {"alt_name": "Qayadsame", "fixme": "Please, check location!", "name": "Qayaad Samo", "pcode": "NC-3905-W23-001", "place": "hamlet", "source": "UNDP - 2006, GTZ - 2002, UNDP - 1997"}}, {"type": "node", "id": 1404222938, "lat": 10.0854812, "lon": 49.0296791, "tags": {"alt_name": "Alhamdulilah", "name": "Alxamdullileh", "pcode": "NC-3905-X23-001", "place": "village", "source": "UNDP - 2006, GTZ - 2002, UNDP - 1997"}}, {"type": "node", "id": 1404223250, "lat": 10.2482, "lon": 49.219502, "tags": {"fixme": "Please, check location!", "name": "El Medo", "pcode": "NC-3905-U27-001", "place": "village", "source": "UNDP - 1997"}}, {"type": "node", "id": 1404229836, "lat": 10.2007, "lon": 49.082199, "tags": {"fixme": "Please, check location!", "name": "Hanghei", "pcode": "NC-3905-V24-001", "place": "hamlet", "source": "UNDP - 1997"}}, {"type": "node", "id": 1404233451, "lat": 10.0119611, "lon": 49.0431561, "tags": {"name": "Waaciye", "name:ar": "\u0648\u0627\u0639\u064a", "pcode": "NC-3905-Z23-001", "place": "town", "source": "UNDP - 2006, GTZ - 2002, UNDP - 1997"}}]}