{"version": 0.6, "generator": "Overpass API 0.7.62.1 084b4234", "osm3s": {"timestamp_osm_base": "2024-09-30T21:10:24Z", "copyright": "The data included in this document is from www.openstreetmap.org. The data is made available under ODbL."}, "elements": [{"type": "node", "id": 36155827, "lat": 1.7148358, "lon": 44.7699326, "tags": {"alt_name": "\u0645\u0631\u0643\u0629", "alt_name:ar": "\u0645\u0631\u0643\u0629", "name": "Marka \u0645\u0631\u0643\u0627", "name:ar": "\u0645\u0631\u0643\u0627", "name:ca": "Marka", "name:da": "Merca", "name:de": "Merka", "name:en": "Merca", "name:eo": "Merka", "name:es": "Merca", "name:fa": "\u0645\u0631\u06a9\u0647", "name:fi": "Merka", "name:fr": "Merka", "name:id": "Marka", "name:it": "Merca", "name:ja": "\u30de\u30eb\u30ab", "name:ka": "\u10db\u10d0\u10e0\u10d9\u10d0", "name:kk": "\u041c\u0430\u0440\u043a\u0430", "name:ko": "\ub9c8\ub974\uce74", "name:lt": "Merka", "name:ml": "\u0d2e\u0d46\u0d7c\u0d15\u0d4d\u0d15", "name:nb": "Marka", "name:nl": "Marka", "name:pl": "Marka", "name:pt": "Merca", "name:ro": "Merca", "name:ru": "\u041c\u0430\u0440\u043a\u0430", "name:so": "Marka", "name:sv": "Merca", "name:sw": "Merka", "name:tr": "Merka", "name:uk": "\u041c\u0430\u0440\u043a\u0430", "name:ur": "\u0645\u0631\u06a9\u06c1", "name:zh": "\u9a6c\u5c14\u5361", "name:zu": "Merca", "place": "city", "wikidata": "Q657428", "wikipedia": "ar:\u0645\u0631\u0643\u0629 (\u0627\u0644\u0635\u0648\u0645\u0627\u0644)"}}, {"type": "node", "id": 43528137, "lat": 1.8427539, "lon": 44.5937239, "tags": {"name": "Shabeellaha Hoose \u0634\u0628\u064a\u0644\u064a \u0627\u0644\u0633\u0641\u0644\u0649", "name:ar": "\u0634\u0628\u064a\u0644\u064a \u0627\u0644\u0633\u0641\u0644\u0649", "name:de": "Unter-Shabelle", "name:en": "Lower Shebelle", "name:fr": "Shabeellaha Hoose", "name:it": "Basso Scebeli", "name:ru": "\u041d\u0438\u0436\u043d\u044f\u044f \u0428\u0430\u0431\u0435\u043b\u043b\u0435", "place": "state", "ref": "SH", "state_code": "SH"}}, {"type": "node", "id": 1401886690, "lat": 1.6911834, "lon": 44.7486579, "tags": {"gns:modify_date": "2011-05-27", "gns:type": "PT", "gns:ufi": "-3217723", "name": "Cagarre", "place": "locality"}}, {"type": "node", "id": 1401897131, "lat": 1.7931741, "lon": 44.9128158, "tags": {"gns:modify_date": "1994-02-25", "gns:type": "ISL", "gns:ufi": "-3216826", "name": "Bolo-Bolo", "place": "islet", "source": "GNS"}}, {"type": "node", "id": 1401899573, "lat": 1.7990524, "lon": 44.9108444, "tags": {"gns:modify_date": "1994-02-25", "gns:type": "ISL", "gns:ufi": "-3215019", "name": "Addilo", "place": "islet", "source": "GNS"}}, {"type": "node", "id": 1404221319, "lat": 1.84712, "lon": 44.83199, "tags": {"name": "Buulo Nuugiriish", "pcode": "NA-3810-D30-002", "place": "locality", "source": "KEMRI - 2007"}}, {"type": "node", "id": 1404221334, "lat": 1.8711807, "lon": 44.786907, "tags": {"name": "Ciroole", "pcode": "NA-3810-D29-017", "place": "hamlet", "source": "KEMRI - 2007"}}, {"type": "node", "id": 1404221388, "lat": 1.66379, "lon": 44.589779, "tags": {"name": "Muuto", "pcode": "NA-3810-J24-005", "place": "locality", "source": "UNDP - 1997"}}, {"type": "node", "id": 1404221491, "lat": 1.8362281, "lon": 44.7899067, "tags": {"name": "Buulo-Xaaji Cusmaan", "pcode": "NA-3810-D29-001", "place": "village", "source": "UNDP - 2006"}}, {"type": "node", "id": 1404221503, "lat": 1.75705, "lon": 44.666, "tags": {"name": "Jennale Area", "pcode": "NA-3810-F26-004", "place": "locality"}}, {"type": "node", "id": 1404221561, "lat": 1.8193416, "lon": 44.6728182, "tags": {"name": "Farange Muunge", "pcode": "NA-3810-E26-010", "place": "village"}}, {"type": "node", "id": 1404221583, "lat": 1.8460429, "lon": 44.6313361, "tags": {"name": "Majiwo", "pcode": "NA-3810-D25-003", "place": "isolated_dwelling"}}, {"type": "node", "id": 1404221590, "lat": 1.712471, "lon": 44.610401, "tags": {"name": "Madiina", "pcode": "NA-3810-G25-002", "place": "locality", "source": "UNDP - 1997"}}, {"type": "node", "id": 1404221690, "lat": 1.7743914, "lon": 44.6906499, "tags": {"alt_name": "Kamiiro", "name": "Kamiirow", "pcode": "NA-3810-F27-007", "place": "hamlet"}}, {"type": "node", "id": 1404221693, "lat": 1.8297, "lon": 44.9203, "tags": {"name": "Bulo Saile", "pcode": "NA-3810-E32-002", "place": "locality", "source": "UNDP - 1997"}}, {"type": "node", "id": 1404221773, "lat": 1.9491412, "lon": 44.9784827, "tags": {"alt_name": "Balafley", "name": "Sh. Usman \u0627\u0644\u0634\u064a\u062e \u0639\u062b\u0645\u0627\u0646", "name:ar": "\u0627\u0644\u0634\u064a\u062e \u0639\u062b\u0645\u0627\u0646", "name:en": "Sh. Usman", "name:fr": "Sh. Usman", "pcode": "NA-3810-B33-005", "place": "hamlet", "source": "KEMRI - 2007"}}, {"type": "node", "id": 1404221780, "lat": 1.8785933, "lon": 44.7303776, "tags": {"alt_name": "Saalixiya", "name": "Buulo-Saalixi", "pcode": "NA-3810-C28-001", "place": "hamlet"}}, {"type": "node", "id": 1404221813, "lat": 1.8012, "lon": 44.8815, "tags": {"name": "Ariradle", "pcode": "NA-3810-E31-003", "place": "locality", "source": "UNDP - 1997"}}, {"type": "node", "id": 1404221822, "lat": 1.78337, "lon": 44.6152, "tags": {"alt_name": "Madiina", "checked": "no", "name": "Cumariya", "pcode": "NA-3810-F25-012", "place": "hamlet"}}, {"type": "node", "id": 1404221845, "lat": 1.8986412, "lon": 44.7541889, "tags": {"name": "Abdi Hakim", "pcode": "NA-3810-C28-011", "place": "locality", "source": "UNDP - 2006"}}, {"type": "node", "id": 1404221855, "lat": 1.8429969, "lon": 44.7692615, "tags": {"name": "Sagaaroole", "pcode": "NA-3810-D28-003", "place": "village", "source": "UNDP - 2006, UNDP - 1997"}}, {"type": "node", "id": 1404221858, "lat": 1.942109, "lon": 44.947832, "tags": {"alt_name": "Cali Qare", "name": "Cali-Qare", "pcode": "NA-3810-B32-004", "place": "village", "source": "KEMRI - 2007, UNDP - 2006"}}, {"type": "node", "id": 1404221887, "lat": 1.82705, "lon": 44.635071, "tags": {"name": "Cabdillahi Caddow", "pcode": "NA-3810-E25-006", "place": "locality"}}, {"type": "node", "id": 1404221898, "lat": 1.8491778, "lon": 44.750439, "tags": {"alt_name": "Buulo Shiikh Saciid", "name": "Bulo Sh Said", "pcode": "NA-3810-D28-005", "place": "hamlet"}}, {"type": "node", "id": 1404221914, "lat": 1.8736012, "lon": 44.7217317, "tags": {"name": "Ugunji", "pcode": "NA-3810-D27-015", "place": "village"}}, {"type": "node", "id": 1404221934, "lat": 1.8908492, "lon": 44.5989003, "tags": {"alt_name": "Garasley", "checked": "no", "name": "Yarasiey", "pcode": "NA-3810-C25-001", "place": "hamlet"}}, {"type": "node", "id": 1404221939, "lat": 1.9300748, "lon": 44.9570553, "tags": {"name": "Maalim Siid", "pcode": "NA-3810-B33-003", "place": "hamlet", "source": "KEMRI - 2007"}}, {"type": "node", "id": 1404222005, "lat": 1.71616, "lon": 44.76693, "tags": {"name": "Cadeey", "pcode": "NA-3810-G28-006", "place": "suburb", "source": "FSAU"}}, {"type": "node", "id": 1404222007, "lat": 1.9560893, "lon": 44.8553176, "tags": {"name": "Biro Biraha", "pcode": "NA-3810-B30-003", "place": "hamlet", "source": "UNDP - 2006"}}, {"type": "node", "id": 1404222011, "lat": 1.9157419, "lon": 44.9265868, "tags": {"alt_name": "Fidi Caroote", "name": "Fidi-Carootay", "pcode": "NA-3810-B32-001", "place": "hamlet", "source": "KEMRI - 2007, UNDP - 2006"}}, {"type": "node", "id": 1404222035, "lat": 1.6825, "lon": 44.730202, "tags": {"name": "El L Mugne", "pcode": "NA-3810-H28-001", "place": "locality", "source": "UNDP - 1997"}}, {"type": "node", "id": 1404222050, "lat": 1.8098091, "lon": 44.686435, "tags": {"name": "Qoriole", "pcode": "NA-3810-E27-004", "place": "locality"}}, {"type": "node", "id": 1404222095, "lat": 1.9422618, "lon": 44.7370358, "tags": {"alt_name": "Isomareey", "name": "Isoo Mareey", "pcode": "NA-3810-B28-003", "place": "hamlet"}}, {"type": "node", "id": 1404222106, "lat": 1.9140454, "lon": 44.9064808, "tags": {"alt_name": "Kilomitirka Lixdanaao;Lambar 60;K60;No. 60", "name": "Km 60", "pcode": "NA-3810-C31-002", "place": "locality", "source": "KEMRI - 2007, UNDP - 1997"}}, {"type": "node", "id": 1404222127, "lat": 1.84052, "lon": 44.712471, "tags": {"name": "Sooni", "pcode": "NA-3810-D27-004", "place": "locality"}}, {"type": "node", "id": 1404222131, "lat": 1.82725, "lon": 44.70606, "tags": {"alt_name": "Sarcade", "name": "Naaji", "pcode": "NA-3810-E27-011", "place": "village"}}, {"type": "node", "id": 1404222136, "lat": 1.77886, "lon": 44.637508, "tags": {"name": "Daasani Anjalo", "pcode": "NA-3810-F26-008", "place": "locality"}}, {"type": "node", "id": 1404222155, "lat": 1.7897245, "lon": 44.7144586, "tags": {"alt_name": "Falkoni", "checked": "no", "name": "Cadceed", "pcode": "NA-3810-F27-014", "place": "hamlet"}}, {"type": "node", "id": 1404222166, "lat": 1.739605, "lon": 44.67195, "tags": {"name": "Luusi", "pcode": "NA-3810-G26-004", "place": "village", "source": "UNDP - 1997"}}, {"type": "node", "id": 1404222191, "lat": 1.9227944, "lon": 44.786087, "tags": {"alt_name": "Darusalan", "name": "Dara Salaam \u062f\u0627\u0631 \u0627\u0644\u0633\u0644\u0627\u0645", "name:ar": "\u062f\u0627\u0631 \u0627\u0644\u0633\u0644\u0627\u0645", "name:en": "Dara Salaam", "name:fr": "Dara Salaam", "pcode": "NA-3810-B29-003", "place": "town", "source": "UNDP - 2006, UNDP - 1997, FSAU"}}, {"type": "node", "id": 1404222205, "lat": 1.88376, "lon": 44.717682, "tags": {"name": "Mukiyo", "pcode": "NA-3810-C27-002", "place": "locality"}}, {"type": "node", "id": 1404222206, "lat": 1.88397, "lon": 44.812889, "tags": {"name": "Jadiid", "pcode": "NA-3810-C29-003", "place": "locality", "source": "UNDP - 1997"}}, {"type": "node", "id": 1404222323, "lat": 1.8677, "lon": 44.9795, "tags": {"name": "Bulo Gof Adde", "pcode": "NA-3810-D33-005", "place": "locality", "source": "UNDP - 1997"}}, {"type": "node", "id": 1404222373, "lat": 1.7670122, "lon": 44.6160766, "tags": {"name": "Muraale", "pcode": "NA-3810-F25-006", "place": "village"}}, {"type": "node", "id": 1404222375, "lat": 1.81802, "lon": 44.860371, "tags": {"name": "Budho Cabdi", "pcode": "NA-3810-E30-001", "place": "locality", "source": "UNDP - 1997"}}, {"type": "node", "id": 1404222379, "lat": 1.8792285, "lon": 44.7846548, "tags": {"name": "Garas Ciroole", "pcode": "NA-3810-C29-002", "place": "locality", "source": "KEMRI - 2007"}}, {"type": "node", "id": 1404222534, "lat": 1.7654945, "lon": 44.626033, "tags": {"name": "Khaliif", "pcode": "NA-3810-F25-005", "place": "locality"}}, {"type": "node", "id": 1404222572, "lat": 1.7519376, "lon": 44.7594181, "tags": {"alt_name": "Cusmaan Quule", "name": "Cusman Qule", "pcode": "NA-3810-F28-002", "place": "village", "source": "KEMRI - 2007, UNDP - 1997"}}, {"type": "node", "id": 1404222627, "lat": 1.91388, "lon": 44.804722, "tags": {"name": "Cali Xaaji", "pcode": "NA-3810-C29-010", "place": "locality", "source": "UNDP - 1997"}}, {"type": "node", "id": 1404222646, "lat": 1.8984361, "lon": 44.5868179, "tags": {"alt_name": "Yomorey", "name": "Gomorey", "pcode": "NA-3810-C24-001", "place": "hamlet"}}, {"type": "node", "id": 1404222647, "lat": 1.86075, "lon": 44.78525, "tags": {"name": "Garas-Weyne", "pcode": "NA-3810-D29-009", "place": "locality", "source": "UNDP - 2006"}}, {"type": "node", "id": 1404222677, "lat": 1.8624077, "lon": 44.7807255, "tags": {"alt_name": "Buulo Siidow", "name": "Bulo Siidow", "pcode": "NA-3810-D29-012", "place": "village", "source": "KEMRI - 2007, UNDP - 2006, UNDP - 1997"}}, {"type": "node", "id": 1404222691, "lat": 1.864019, "lon": 44.7967848, "tags": {"name": "Diinle Maxaad", "pcode": "NA-3810-D29-011", "place": "village", "source": "UNDP - 1997"}}, {"type": "node", "id": 1404222693, "lat": 1.7784214, "lon": 44.7263685, "tags": {"name": "Garshiin", "pcode": "NA-3810-F27-011", "place": "locality"}}, {"type": "node", "id": 1404222731, "lat": 1.7542054, "lon": 44.6857524, "tags": {"alt_name": "Jimeesi", "name": "Jimees", "pcode": "NA-3810-F27-002", "place": "village"}}, {"type": "node", "id": 1404222751, "lat": 1.6956234, "lon": 44.7464279, "tags": {"alt_name": "Cagaaran", "name": "Agaran", "pcode": "NA-3810-H28-002", "place": "village", "source": "KEMRI - 2007, UNDP - 2006, UNDP - 1997"}}, {"type": "node", "id": 1404222795, "lat": 1.7700619, "lon": 44.721685, "tags": {"alt_name": "Dhuroow", "name": "Bulo Dhurow", "pcode": "NA-3810-F27-006", "place": "village"}}, {"type": "node", "id": 1404222821, "lat": 1.8055157, "lon": 44.679739, "tags": {"alt_name": "Boordi", "name": "Borde", "pcode": "NA-3810-E26-007", "place": "farm"}}, {"type": "node", "id": 1404222828, "lat": 1.806201, "lon": 44.913022, "tags": {"name": "Jilib \u062c\u064a\u0644\u064a\u0628", "name:ar": "Jilib \u062c\u064a\u0644\u064a\u0628", "pcode": "NA-3810-E32-001", "place": "locality", "source": "UNDP - 1997"}}, {"type": "node", "id": 1404222829, "lat": 1.88677, "lon": 44.689819, "tags": {"name": "Bashir \u0628\u0634\u064a\u0631", "name:ar": "\u0628\u0634\u064a\u0631", "name:en": "Bashir", "pcode": "NA-3810-C27-004", "place": "locality"}}, {"type": "node", "id": 1404222844, "lat": 1.71891, "lon": 44.77445, "tags": {"name": "Hawlwathag", "pcode": "NA-3810-G29-005", "place": "suburb", "source": "KEMRI - 2007"}}, {"type": "node", "id": 1404222859, "lat": 1.8915705, "lon": 44.8187995, "tags": {"alt_name": "Godey", "name": "Godey", "pcode": "NA-3810-C30-001", "place": "village", "source": "KEMRI - 2007, UNDP - 2006"}}, {"type": "node", "id": 1404222884, "lat": 1.8843368, "lon": 44.7360837, "tags": {"name": "Khaliid", "pcode": "NA-3810-C28-005", "place": "isolated_dwelling"}}, {"type": "node", "id": 1404222901, "lat": 1.874297, "lon": 44.7898627, "tags": {"alt_name": "Buulo Yarow", "name": "Buulo-Yerow", "pcode": "NA-3810-C29-001", "place": "village", "source": "KEMRI - 2007, UNDP - 2006"}}, {"type": "node", "id": 1404222937, "lat": 1.85158, "lon": 44.664371, "tags": {"name": "Shalleeday", "pcode": "NA-3810-D26-002", "place": "locality"}}, {"type": "node", "id": 1404222948, "lat": 1.7446, "lon": 44.59048, "tags": {"name": "Buufow-Shiidka", "pcode": "NA-3810-G24-008", "place": "locality", "source": "UNDP - 2006"}}, {"type": "node", "id": 1404222980, "lat": 1.7863601, "lon": 44.7127276, "tags": {"alt_name": "Doondheere", "checked": "no", "name": "Doon-Dheere", "pcode": "NA-3810-F27-013", "place": "hamlet"}}, {"type": "node", "id": 1404222985, "lat": 1.9152187, "lon": 44.8140342, "tags": {"name": "Shiikh Siidow", "pcode": "NA-3810-C29-012", "place": "village", "source": "UNDP - 1997"}}, {"type": "node", "id": 1404223020, "lat": 1.8667401, "lon": 44.7278926, "tags": {"name": "Bardiid", "pcode": "NA-3810-D28-014", "place": "village"}}, {"type": "node", "id": 1404223235, "lat": 1.9051355, "lon": 44.6676824, "tags": {"alt_name": "Raydableey", "name": "Raydabiey", "pcode": "NA-3810-C26-003", "place": "village"}}, {"type": "node", "id": 1404223334, "lat": 1.9172773, "lon": 44.7731843, "tags": {"alt_name": "Mubarak", "name": "Mubaarak \u0645\u0628\u0627\u0631\u0643", "name:ar": "\u0645\u0628\u0627\u0631\u0643", "name:en": "Mubaarak", "name:fr": "Mubaarak", "pcode": "NA-3810-B29-006", "place": "town", "source": "UNDP - 2006, UNDP - 1997"}}, {"type": "node", "id": 1404223348, "lat": 1.8121977, "lon": 44.7688288, "tags": {"name": "Laanibilal", "pcode": "NA-3810-E28-003", "place": "village", "source": "KEMRI - 2007, UNDP - 2006"}}, {"type": "node", "id": 1404223351, "lat": 1.830923, "lon": 44.776447, "tags": {"name": "Kulmaash", "pcode": "NA-3810-E29-004", "place": "locality", "source": "KEMRI - 2007"}}, {"type": "node", "id": 1404223367, "lat": 1.7436783, "lon": 44.6009479, "tags": {"name": "Mashalaay", "pcode": "NA-3810-G25-027", "place": "locality", "source": "UNDP - 2006, UNDP - 1997"}}, {"type": "node", "id": 1404223434, "lat": 1.7985256, "lon": 44.9066103, "tags": {"name": "Jino", "pcode": "NA-3810-E31-002", "place": "village", "source": "UNDP - 1997"}}, {"type": "node", "id": 1404223455, "lat": 1.76743, "lon": 44.59206, "tags": {"name": "Dhukey", "pcode": "NA-3810-F25-008", "place": "locality"}}, {"type": "node", "id": 1404223488, "lat": 1.7165873, "lon": 44.7734989, "tags": {"name": "Sheikh Abroone", "pcode": "NA-3810-G29-004", "place": "suburb", "source": "KEMRI - 2007"}}, {"type": "node", "id": 1404223506, "lat": 1.7555267, "lon": 44.6550331, "tags": {"alt_name": "Aadan Cade", "name": "Deegaanta", "pcode": "NA-3810-F26-003", "place": "village"}}, {"type": "node", "id": 1404223540, "lat": 1.7180501, "lon": 44.6059167, "tags": {"name": "Limaan", "pcode": "NA-3810-G25-007", "place": "isolated_dwelling", "source": "UNDP - 1997"}}, {"type": "node", "id": 1404223551, "lat": 1.6731606, "lon": 44.658541, "tags": {"name": "Sinai", "pcode": "NA-3810-H26-001", "place": "hamlet", "source": "KEMRI - 2007"}}, {"type": "node", "id": 1404223567, "lat": 1.9011, "lon": 44.9002, "tags": {"name": "Dongab", "pcode": "NA-3810-C31-001", "place": "locality", "source": "UNDP - 1997"}}, {"type": "node", "id": 1404223579, "lat": 1.80356, "lon": 44.65803, "tags": {"alt_name": "Cadimole, Adimole", "name": "Cadiimale", "pcode": "NA-3810-E26-003", "place": "village"}}, {"type": "node", "id": 1404223583, "lat": 1.8089881, "lon": 44.6815366, "tags": {"name": "Gariiley", "pcode": "NA-3810-E26-008", "place": "hamlet"}}, {"type": "node", "id": 1404223672, "lat": 1.79736, "lon": 44.72155, "tags": {"checked": "no", "name": "Xumaan Diid", "pcode": "NA-3810-E27-001", "place": "locality"}}, {"type": "node", "id": 1404223673, "lat": 1.74387, "lon": 44.683159, "tags": {"name": "Baraale", "pcode": "NA-3810-G27-005", "place": "locality"}}, {"type": "node", "id": 1404223697, "lat": 1.8366568, "lon": 44.6976395, "tags": {"name": "Maaero", "pcode": "NA-3810-D27-001", "place": "locality"}}, {"type": "node", "id": 1404223741, "lat": 1.733888, "lon": 44.607522, "tags": {"alt_name": "Cadey Bari", "name": "Waberi Sec", "pcode": "NA-3810-G25-016", "place": "locality", "source": "UNDP - 2006"}}, {"type": "node", "id": 1404223773, "lat": 1.8551852, "lon": 44.7564876, "tags": {"alt_name": "Burburshe", "name": "Bulo Bur Buriye", "pcode": "NA-3810-D28-010", "place": "hamlet", "source": "KEMRI - 2007, UNDP - 2006"}}, {"type": "node", "id": 1404223787, "lat": 1.9417583, "lon": 44.8577945, "tags": {"name": "Adey Yuure", "pcode": "NA-3810-B30-002", "place": "village", "source": "UNDP - 2006"}}, {"type": "node", "id": 1404223816, "lat": 1.84172, "lon": 44.74598, "tags": {"name": "Berta Sh. Abubakar", "pcode": "NA-3810-D28-001", "place": "hamlet"}}, {"type": "node", "id": 1404223888, "lat": 1.82407, "lon": 44.688919, "tags": {"name": "Jiddo", "pcode": "NA-3810-E27-009", "place": "locality"}}, {"type": "node", "id": 1404223960, "lat": 1.77998, "lon": 44.74764, "tags": {"checked": "no", "name": "Timir", "pcode": "NA-3810-F28-008", "place": "hamlet"}}, {"type": "node", "id": 1404223998, "lat": 1.8317312, "lon": 44.7057822, "tags": {"alt_name": "Buul Aruundo;Bulo-arundi", "name": "Bulo-Aurundo", "pcode": "NA-3810-E27-014", "place": "hamlet"}}, {"type": "node", "id": 1404224096, "lat": 1.738318, "lon": 44.611999, "tags": {"name": "Gendilow", "pcode": "NA-3810-G25-021", "place": "locality", "source": "UNDP - 2006"}}, {"type": "node", "id": 1404224109, "lat": 1.8349369, "lon": 44.9668452, "tags": {"alt_name": "Gandarshe", "name": "Gendershe \u063a\u0646\u062f\u0631\u0634\u064a", "name:ar": "\u063a\u0646\u062f\u0631\u0634\u064a", "name:en": "Gendershe", "name:fr": "Gandarshe", "pcode": "NA-3810-D33-002", "place": "village", "source": "KEMRI - 2007, UNDP - 1997"}}, {"type": "node", "id": 1404224145, "lat": 1.8434541, "lon": 44.6840889, "tags": {"alt_name": "Dagwariri", "name": "Deg-Wariiri", "pcode": "NA-3810-D27-007", "place": "village"}}, {"type": "node", "id": 1404224163, "lat": 1.78107, "lon": 44.63583, "tags": {"name": "Tawakal", "pcode": "NA-3810-F25-010", "place": "locality"}}, {"type": "node", "id": 1404224178, "lat": 1.72143, "lon": 44.60084, "tags": {"alt_name": "Danisow", "name": "Wadaq Sec", "pcode": "NA-3810-G25-008", "place": "locality"}}, {"type": "node", "id": 1404224194, "lat": 1.78942, "lon": 44.67297, "tags": {"alt_name": "Kayloy", "name": "Kaaytoy", "pcode": "NA-3810-F26-011", "place": "hamlet"}}, {"type": "node", "id": 1404224260, "lat": 1.8685279, "lon": 44.8042891, "tags": {"alt_name": "Bulo Muudey", "name": "Bulo Mudey", "pcode": "NA-3810-D29-015", "place": "village", "source": "KEMRI - 2007, UNDP - 2006"}}, {"type": "node", "id": 1404224266, "lat": 1.7666904, "lon": 44.6951803, "tags": {"alt_name": "Falastiin Gaarilow", "name": "Labooalas", "pcode": "NA-3810-F27-003", "place": "village"}}, {"type": "node", "id": 1404224312, "lat": 1.8870003, "lon": 44.7784733, "tags": {"name": "Hantiwadaag", "pcode": "NA-3810-C29-006", "place": "hamlet", "source": "UNDP - 2006"}}, {"type": "node", "id": 1404224342, "lat": 1.7492097, "lon": 44.6936082, "tags": {"name": "Laba-Garas", "pcode": "NA-3810-F27-001", "place": "locality"}}, {"type": "node", "id": 1404224379, "lat": 1.92847, "lon": 44.96518, "tags": {"alt_name": "Yaaq", "name": "Wa Bashir Muudey", "pcode": "NA-3810-B33-002", "place": "locality", "source": "KEMRI - 2007"}}, {"type": "node", "id": 1404224405, "lat": 1.7310675, "lon": 44.7873466, "tags": {"alt_name": "Ceel Xaaji", "name": "Ceel Haji", "pcode": "NA-3810-G29-003", "place": "village", "source": "KEMRI - 2007, UNDP - 2006, UNDP - 1997"}}, {"type": "node", "id": 1404224416, "lat": 1.8424356, "lon": 44.7677974, "tags": {"alt_name": "Deg Xabash (Main)", "name": "Deg Habash", "pcode": "NA-3810-D28-002", "place": "village", "source": "KEMRI - 2007, UNDP - 2006"}}, {"type": "node", "id": 1404224443, "lat": 1.92056, "lon": 44.800678, "tags": {"name": "Barila", "pcode": "NA-3810-B29-002", "place": "locality", "source": "UNDP - 1997"}}, {"type": "node", "id": 1404224456, "lat": 1.82195, "lon": 44.632339, "tags": {"name": "Cabdi Dashir", "pcode": "NA-3810-E25-004", "place": "locality"}}, {"type": "node", "id": 1404224460, "lat": 1.7152502, "lon": 44.7723164, "tags": {"name": "Awbale", "pcode": "NA-3810-G28-004", "place": "suburb", "source": "KEMRI - 2007"}}, {"type": "node", "id": 1404224493, "lat": 1.72788, "lon": 44.620491, "tags": {"alt_name": "Beldamin", "name": "Beled Amiin", "pcode": "NA-3810-G25-009", "place": "locality", "source": "UNDP - 1997"}}, {"type": "node", "id": 1404224599, "lat": 1.8390095, "lon": 44.7808662, "tags": {"alt_name": "Cali Qarode", "name": "Cali Qarale", "pcode": "NA-3810-D29-003", "place": "village", "source": "KEMRI - 2007, UNDP - 2006"}}, {"type": "node", "id": 1404224658, "lat": 1.6959449, "lon": 44.6101977, "tags": {"alt_name": "Steefal", "name": "Steval", "pcode": "NA-3810-H25-006", "place": "village", "source": "KEMRI - 2007, UNDP - 1997"}}, {"type": "node", "id": 1404224660, "lat": 1.76621, "lon": 44.76994, "tags": {"alt_name": "Fidi-Lebi", "name": "Fadi Labi", "pcode": "NA-3810-F28-004", "place": "village", "source": "KEMRI - 2007, UNDP - 2006, UNDP - 1997"}}, {"type": "node", "id": 1404224717, "lat": 1.7406593, "lon": 44.6283275, "tags": {"name": "Dhamme Yaasiin", "pcode": "NA-3810-G25-025", "place": "isolated_dwelling", "source": "UNDP - 1997"}}, {"type": "node", "id": 1404224753, "lat": 1.9175575, "lon": 44.7272316, "tags": {"name": "Cannoole", "pcode": "NA-3810-B28-001", "place": "hamlet"}}, {"type": "node", "id": 1404224805, "lat": 1.8628695, "lon": 44.7672837, "tags": {"alt_name": "Jinni", "name": "Buulo-Jinni", "pcode": "NA-3810-D28-013", "place": "village", "source": "KEMRI - 2007, UNDP - 2006, UNDP - 1997"}}, {"type": "node", "id": 1404224836, "lat": 1.84555, "lon": 44.839161, "tags": {"name": "Cusmaan Xasan", "pcode": "NA-3810-D30-001", "place": "locality", "source": "UNDP - 1997"}}, {"type": "node", "id": 1404224844, "lat": 1.68901, "lon": 44.612541, "tags": {"name": "Inkaar", "pcode": "NA-3810-H25-005", "place": "locality", "source": "UNDP - 1997"}}, {"type": "node", "id": 1404225043, "lat": 1.6506979, "lon": 44.6734268, "tags": {"name": "Melled", "pcode": "NA-3810-J26-002", "place": "village", "source": "KEMRI - 2007, UNDP - 2006, UNDP - 1997"}}, {"type": "node", "id": 1404225103, "lat": 1.77018, "lon": 44.600349, "tags": {"name": "Dabiil", "pcode": "NA-3810-F25-009", "place": "locality"}}, {"type": "node", "id": 1404225108, "lat": 1.59051, "lon": 44.58945, "tags": {"name": "Ceel Haraar", "pcode": "NA-3810-K24-002", "place": "village", "source": "KEMRI - 2007"}}, {"type": "node", "id": 1404225110, "lat": 1.6788123, "lon": 44.5990348, "tags": {"alt_name": "Gobeyle", "name": "Gabayle", "pcode": "NA-3810-H25-003", "place": "village", "source": "KEMRI - 2007, UNDP - 2006, UNDP - 1997"}}, {"type": "node", "id": 1404225196, "lat": 1.768493, "lon": 44.614607, "tags": {"name": "Xaaji Rooble", "pcode": "NA-3810-F25-007", "place": "hamlet"}}, {"type": "node", "id": 1404225222, "lat": 1.71624, "lon": 44.76982, "tags": {"alt_name": "Wadajir Town", "name": "Wadajir \u0648\u062f\u0627\u062c\u064a\u0631 \u0645\u062f\u064a\u0646\u0629", "name:ar": "\u0648\u062f\u0627\u062c\u064a\u0631 \u0645\u062f\u064a\u0646\u0629", "name:ar1": "\u0648\u062f\u0627\u062c\u064a\u0631", "name:en": "Wadajir", "pcode": "NA-3810-G28-007", "place": "suburb", "source": "KEMRI - 2007, UNDP - 2006"}}, {"type": "node", "id": 1404225274, "lat": 1.7201527, "lon": 44.6243506, "tags": {"name": "Limaan (Raamo)", "pcode": "NA-3810-G25-006", "place": "isolated_dwelling", "source": "UNDP - 1997"}}, {"type": "node", "id": 1404225315, "lat": 1.8403851, "lon": 44.706367, "tags": {"alt_name": "Malabley", "name": "Malable", "pcode": "NA-3810-D27-005", "place": "hamlet"}}, {"type": "node", "id": 1404225319, "lat": 1.739108, "lon": 44.7607254, "tags": {"alt_name": "Cadaad", "name": "Tisnaar", "pcode": "NA-3810-G28-011", "place": "locality", "source": "KEMRI - 2007"}}, {"type": "node", "id": 1404225375, "lat": 1.7493716, "lon": 44.6278624, "tags": {"alt_name": "Cadaaliyow", "name": "Adaliyow", "pcode": "NA-3810-G25-030", "place": "village"}}, {"type": "node", "id": 1404225392, "lat": 1.8541082, "lon": 44.7653093, "tags": {"alt_name": "Abokar Gesey", "name": "Abokar Yesey", "pcode": "NA-3810-D28-009", "place": "hamlet", "source": "KEMRI - 2007, UNDP - 2006"}}, {"type": "node", "id": 1404225394, "lat": 1.95594, "lon": 44.95616, "tags": {"name": "Lambr 60 Merka", "pcode": "NA-3810-B33-008", "place": "locality", "source": "FSAU"}}, {"type": "node", "id": 1404225473, "lat": 1.8832761, "lon": 44.7286829, "tags": {"name": "Garab Giise", "pcode": "NA-3810-C28-004", "place": "isolated_dwelling"}}, {"type": "node", "id": 1404225482, "lat": 1.8845833, "lon": 44.8067038, "tags": {"name": "Haanoole", "pcode": "NA-3810-C29-004", "place": "hamlet", "source": "KEMRI - 2007, UNDP - 2006"}}, {"type": "node", "id": 1404225493, "lat": 1.9212709, "lon": 44.7781168, "tags": {"alt_name": "Mareerre", "name": "Marera", "pcode": "NA-3810-B29-004", "place": "village", "source": "UNDP - 2006, UNDP - 1997"}}, {"type": "node", "id": 1404225517, "lat": 1.8449087, "lon": 44.6374739, "tags": {"alt_name": "Cadayley", "checked": "no", "name": "Adeyiey", "pcode": "NA-3810-D26-001", "place": "hamlet"}}, {"type": "node", "id": 1404225665, "lat": 1.8536577, "lon": 44.7452139, "tags": {"alt_name": "Busley Daud", "name": "Busley Da'Ud", "pcode": "NA-3810-D28-008", "place": "village"}}, {"type": "node", "id": 1404225684, "lat": 1.6958866, "lon": 44.6083508, "tags": {"name": "Istiifan", "pcode": "NA-3810-H25-007", "place": "village", "source": "UNDP - 2006"}}, {"type": "node", "id": 1404225691, "lat": 1.734442, "lon": 44.606548, "tags": {"alt_name": "Dala Roobal", "name": "Urugle", "pcode": "NA-3810-G25-017", "place": "locality", "source": "KEMRI - 2007, UNDP - 2006"}}, {"type": "node", "id": 1404225698, "lat": 1.77666, "lon": 44.75666, "tags": {"alt_name": "Buulo-Xamaali", "name": "Xamali", "pcode": "NA-3810-F28-006", "place": "village", "source": "KEMRI - 2007, UNDP - 2006, UNDP - 1997"}}, {"type": "node", "id": 1404225710, "lat": 1.7064566, "lon": 44.6945629, "tags": {"alt_name": "Shalaamboot;Shalanbod", "name": "Shalaambood", "pcode": "NA-3810-H27-008", "place": "town", "source": "KEMRI - 2007, UNDP - 2006, UNDP - 1997"}}, {"type": "node", "id": 1404225751, "lat": 1.7552052, "lon": 44.641477, "tags": {"alt_name": "Waagade", "name": "Waagaadi", "pcode": "NA-3810-F26-002", "place": "village"}}, {"type": "node", "id": 1404225771, "lat": 1.73523, "lon": 44.631729, "tags": {"name": "Hunlaa", "pcode": "NA-3810-G25-018", "place": "locality", "source": "UNDP - 1997"}}, {"type": "node", "id": 1404225788, "lat": 1.9478011, "lon": 44.8014276, "tags": {"name": "Degta Jirada-Jowhar", "pcode": "NA-3810-B29-005", "place": "locality", "source": "UNDP - 2006"}}, {"type": "node", "id": 1404225846, "lat": 1.8246, "lon": 44.717049, "tags": {"name": "Daloolyo", "pcode": "NA-3810-E27-010", "place": "locality"}}, {"type": "node", "id": 1404225903, "lat": 1.8050043, "lon": 44.6218779, "tags": {"alt_name": "Muuse", "name": "Bulo Muse", "pcode": "NA-3810-E25-002", "place": "hamlet"}}, {"type": "node", "id": 1404225928, "lat": 1.7466923, "lon": 44.6401715, "tags": {"name": "Baasani", "pcode": "NA-3810-G26-006", "place": "farm", "source": "UNDP - 1997"}}, {"type": "node", "id": 1404225954, "lat": 1.8947407, "lon": 44.7604965, "tags": {"alt_name": "Tugaarey", "name": "Tugaarrey", "pcode": "NA-3810-C28-009", "place": "village", "source": "KEMRI - 2007, UNDP - 2006, UNDP - 1997"}}, {"type": "node", "id": 1404225967, "lat": 1.9294434, "lon": 44.9352969, "tags": {"name": "Garasweyne", "pcode": "NA-3810-B32-003", "place": "hamlet", "source": "KEMRI - 2007"}}, {"type": "node", "id": 1404226006, "lat": 1.8947018, "lon": 44.7794284, "tags": {"name": "Beerta Gaambuya", "pcode": "NA-3810-C29-009", "place": "isolated_dwelling", "source": "KEMRI - 2007"}}, {"type": "node", "id": 1404226013, "lat": 1.76274, "lon": 44.734322, "tags": {"name": "Barsame", "pcode": "NA-3810-F28-003", "place": "locality"}}, {"type": "node", "id": 1404226014, "lat": 1.8082015, "lon": 44.6957368, "tags": {"alt_name": "Janale", "name": "Janaale", "pcode": "NA-3810-E27-003", "place": "town", "wikidata": "Q1682541"}}, {"type": "node", "id": 1404226061, "lat": 1.94695, "lon": 44.95705, "tags": {"name": "Goobaha-Shiikha", "pcode": "NA-3810-B33-004", "place": "locality", "source": "UNDP - 2006"}}, {"type": "node", "id": 1404226136, "lat": 1.778358, "lon": 44.6584057, "tags": {"alt_name": "Mishaani", "name": "Mushaani", "pcode": "NA-3810-F26-007", "place": "village"}}, {"type": "node", "id": 1404226158, "lat": 1.82385, "lon": 44.7058, "tags": {"name": "Axmed Naaji", "pcode": "NA-3810-E27-008", "place": "locality"}}, {"type": "node", "id": 1404226242, "lat": 1.6646162, "lon": 44.6985568, "tags": {"name": "Buulo Harani", "pcode": "NA-3810-H27-001", "place": "village", "source": "KEMRI - 2007"}}, {"type": "node", "id": 1404226288, "lat": 1.9562852, "lon": 44.9429556, "tags": {"name": "Buulo-Xusseen Gaabow", "pcode": "NA-3810-B32-007", "place": "hamlet", "source": "UNDP - 2006"}}, {"type": "node", "id": 1404226305, "lat": 1.8224739, "lon": 44.5866602, "tags": {"alt_name": "Garasjerad", "name": "Garasjeret (Main)", "pcode": "NA-3810-E24-005", "place": "village"}}, {"type": "node", "id": 1404226324, "lat": 1.86314, "lon": 44.64254, "tags": {"name": "Maajiyow", "pcode": "NA-3810-D26-003", "place": "locality"}}, {"type": "node", "id": 1404226352, "lat": 1.8698612, "lon": 44.8030711, "tags": {"name": "Nagaadweyne", "pcode": "NA-3810-D29-016", "place": "village", "source": "UNDP - 1997"}}, {"type": "node", "id": 1404226362, "lat": 1.73823, "lon": 44.60647, "tags": {"alt_name": "Jadiid", "name": "Urugle 2", "pcode": "NA-3810-G25-024", "place": "locality", "source": "KEMRI - 2007"}}, {"type": "node", "id": 1404226454, "lat": 1.7192456, "lon": 44.7011112, "tags": {"alt_name": "Gandawe", "name": "Gendawe", "pcode": "NA-3810-G27-001", "place": "village", "source": "KEMRI - 2007, UNDP - 2006, UNDP - 1997"}}, {"type": "node", "id": 1404226469, "lat": 1.8405603, "lon": 44.9730227, "tags": {"name": "Oriale", "pcode": "NA-3810-D33-001", "place": "village", "source": "UNDP - 1997"}}, {"type": "node", "id": 1404226566, "lat": 1.73813, "lon": 44.59128, "tags": {"name": "Degta-Buufow", "pcode": "NA-3810-G25-023", "place": "locality", "source": "UNDP - 2006"}}, {"type": "node", "id": 1404226591, "lat": 1.9234999, "lon": 44.9567425, "tags": {"name": "Ceel Saliini", "pcode": "NA-3810-B33-001", "place": "hamlet", "source": "KEMRI - 2007"}}, {"type": "node", "id": 1404226609, "lat": 1.8433013, "lon": 44.7049366, "tags": {"alt_name": "Jameeco", "name": "Buulo-Jameeco", "pcode": "NA-3810-D27-006", "place": "hamlet"}}, {"type": "node", "id": 1404226645, "lat": 1.84883, "lon": 44.631039, "tags": {"name": "Baanyaale", "pcode": "NA-3810-D25-004", "place": "locality"}}, {"type": "node", "id": 1404226653, "lat": 1.75101, "lon": 44.66703, "tags": {"alt_name": "Kibiile", "name": "Kibil", "pcode": "NA-3810-F26-001", "place": "village"}}, {"type": "node", "id": 1404226659, "lat": 1.8591172, "lon": 44.7127108, "tags": {"name": "Buulo Bashiir", "pcode": "NA-3810-D27-013", "place": "hamlet"}}, {"type": "node", "id": 1404226668, "lat": 1.9237, "lon": 44.95078, "tags": {"alt_name": "Sh.Abkorow", "name": "Buulo-Shiikh-Abkow", "pcode": "NA-3810-B32-002", "place": "locality", "source": "KEMRI - 2007, UNDP - 2006"}}, {"type": "node", "id": 1404226684, "lat": 1.8358456, "lon": 44.6924106, "tags": {"name": "Cusman Khamisow", "pcode": "NA-3810-D27-003", "place": "farm"}}, {"type": "node", "id": 1404226725, "lat": 1.70051, "lon": 44.611549, "tags": {"name": "Benday Cadde", "pcode": "NA-3810-H25-008", "place": "locality", "source": "UNDP - 1997"}}, {"type": "node", "id": 1404226764, "lat": 1.77938, "lon": 44.672009, "tags": {"name": "Baasani Oreste", "pcode": "NA-3810-F26-009", "place": "locality"}}, {"type": "node", "id": 1404226791, "lat": 1.844, "lon": 44.744831, "tags": {"name": "Laabaas", "pcode": "NA-3810-D28-004", "place": "locality"}}, {"type": "node", "id": 1404226800, "lat": 1.861372, "lon": 44.7658004, "tags": {"alt_name": "Buulo Barow", "name": "Bulo Barow", "pcode": "NA-3810-D28-012", "place": "village", "source": "UNDP - 2006, UNDP - 1997"}}, {"type": "node", "id": 1404226847, "lat": 1.7158614, "lon": 44.6135045, "tags": {"alt_name": "Bula Iman", "name": "Diyeeni", "pcode": "NA-3810-G25-004", "place": "village", "source": "KEMRI - 2007, UNDP - 2006"}}, {"type": "node", "id": 1404226921, "lat": 1.80406, "lon": 44.653271, "tags": {"name": "Xumey Samey", "pcode": "NA-3810-E26-004", "place": "locality"}}, {"type": "node", "id": 1404226993, "lat": 1.72337, "lon": 44.77934, "tags": {"name": "Obisivo", "pcode": "NA-3810-G29-001", "place": "suburb", "source": "UNDP - 2006"}}, {"type": "node", "id": 1404227172, "lat": 1.76073, "lon": 44.640251, "tags": {"name": "Baadino Fittoriy", "pcode": "NA-3810-F26-005", "place": "locality"}}, {"type": "node", "id": 1404227314, "lat": 1.84922, "lon": 44.81012, "tags": {"alt_name": "Nagaad Weyn", "name": "Nagaad-Weyn", "pcode": "NA-3810-D29-005", "place": "village", "source": "KEMRI - 2007, UNDP - 2006"}}, {"type": "node", "id": 1404227332, "lat": 1.89098, "lon": 44.69948, "tags": {"name": "Garasley", "pcode": "NA-3810-C27-005", "place": "locality"}}, {"type": "node", "id": 1404227357, "lat": 1.8286305, "lon": 44.8348625, "tags": {"alt_name": "Macalim-Cusmaan", "name": "Buulo Macallin Osman", "pcode": "NA-3810-E30-002", "place": "hamlet", "source": "KEMRI - 2007, UNDP - 2006"}}, {"type": "node", "id": 1404227400, "lat": 1.85593, "lon": 44.94806, "tags": {"name": "Timirtey", "pcode": "NA-3810-D32-002", "place": "locality", "source": "KEMRI - 2007"}}, {"type": "node", "id": 1404227417, "lat": 1.7497934, "lon": 44.7438558, "tags": {"alt_name": "Buufow", "name": "Buufow Bacaad", "pcode": "NA-3810-F28-001", "place": "village"}}, {"type": "node", "id": 1404227463, "lat": 1.7764054, "lon": 44.7316615, "tags": {"name": "Raxmo", "pcode": "NA-3810-F28-005", "place": "village"}}, {"type": "node", "id": 1404227464, "lat": 1.80936, "lon": 44.810268, "tags": {"name": "Fed Guduud", "pcode": "NA-3810-E29-003", "place": "locality", "source": "UNDP - 1997"}}, {"type": "node", "id": 1404227466, "lat": 1.8961961, "lon": 44.7085431, "tags": {"name": "Suleyman", "pcode": "NA-3810-C27-007", "place": "village"}}, {"type": "node", "id": 1404227488, "lat": 1.83182, "lon": 44.77548, "tags": {"name": "Bulo Abukar Meyle", "pcode": "NA-3810-E29-005", "place": "locality", "source": "UNDP - 2006"}}, {"type": "node", "id": 1404227648, "lat": 1.6768801, "lon": 44.6015842, "tags": {"name": "Farax", "pcode": "NA-3810-H25-001", "place": "hamlet", "source": "UNDP - 2006"}}, {"type": "node", "id": 1404227765, "lat": 1.80212, "lon": 44.59762, "tags": {"alt_name": "Bulu Keey", "name": "Bulukoy", "pcode": "NA-3810-E25-001", "place": "locality"}}, {"type": "node", "id": 1404228001, "lat": 1.79385, "lon": 44.639721, "tags": {"name": "Siimow", "pcode": "NA-3810-E26-001", "place": "locality"}}, {"type": "node", "id": 1404228084, "lat": 1.77727, "lon": 44.70656, "tags": {"alt_name": "Buur Foole", "name": "Shufeeri", "pcode": "NA-3810-F27-010", "place": "hamlet"}}, {"type": "node", "id": 1404228087, "lat": 1.89984, "lon": 44.755741, "tags": {"name": "Cali Daahir", "pcode": "NA-3810-C28-012", "place": "locality", "source": "UNDP - 1997"}}, {"type": "node", "id": 1404228143, "lat": 1.7254615, "lon": 44.7116592, "tags": {"name": "Afar Yak", "pcode": "NA-3810-G27-003", "place": "village", "source": "KEMRI - 2007"}}, {"type": "node", "id": 1404228165, "lat": 1.75815, "lon": 44.61726, "tags": {"name": "Islaaw", "pcode": "NA-3810-F25-004", "place": "locality"}}, {"type": "node", "id": 1404228208, "lat": 1.873404, "lon": 44.8099657, "tags": {"name": "Llahi Qoorey", "pcode": "NA-3810-D29-018", "place": "isolated_dwelling", "source": "KEMRI - 2007"}}, {"type": "node", "id": 1404228250, "lat": 1.72661, "lon": 44.783459, "tags": {"name": "Istaduuto", "pcode": "NA-3810-G29-002", "place": "locality", "source": "UNDP - 1997"}}, {"type": "node", "id": 1404228268, "lat": 1.6033164, "lon": 44.6065338, "tags": {"alt_name": "Mungeye", "name": "Muungiyo", "pcode": "NA-3810-K25-001", "place": "village", "source": "KEMRI - 2007, UNDP - 2006, UNDP - 1997"}}, {"type": "node", "id": 1404228338, "lat": 1.6613842, "lon": 44.6961537, "tags": {"name": "Harraa", "pcode": "NA-3810-J27-001", "place": "village", "source": "UNDP - 1997"}}, {"type": "node", "id": 1404228500, "lat": 1.6960269, "lon": 44.6793088, "tags": {"name": "Shalanb.", "pcode": "NA-3810-H26-003", "place": "locality", "source": "FSAU"}}, {"type": "node", "id": 1404228691, "lat": 1.81777, "lon": 44.666531, "tags": {"name": "Cariiley", "pcode": "NA-3810-E26-009", "place": "locality"}}, {"type": "node", "id": 1404228774, "lat": 1.78172, "lon": 44.63293, "tags": {"alt_name": "Hirta Sh. Cumar", "name": "Majabto", "pcode": "NA-3810-F25-011", "place": "village"}}, {"type": "node", "id": 1404228845, "lat": 1.71466, "lon": 44.77065, "tags": {"alt_name": "Saraha", "name": "Saraha", "pcode": "NA-3810-G28-002", "place": "suburb", "source": "KEMRI - 2007"}}, {"type": "node", "id": 1404229102, "lat": 1.8283447, "lon": 44.7026231, "tags": {"name": "Biiji", "pcode": "NA-3810-E27-012", "place": "farm"}}, {"type": "node", "id": 1404229126, "lat": 1.6223598, "lon": 44.6356219, "tags": {"alt_name": "Ceel-Axmed", "name": "Ceel Ahmed", "pcode": "NA-3810-K25-003", "place": "village", "source": "KEMRI - 2007, UNDP - 2006"}}, {"type": "node", "id": 1404229154, "lat": 1.9103768, "lon": 44.8269601, "tags": {"alt_name": "Beledul Raxma", "name": "Gumesi Diid", "pcode": "NA-3810-C30-003", "place": "village", "source": "KEMRI - 2007"}}, {"type": "node", "id": 1404229189, "lat": 1.8514093, "lon": 44.792332, "tags": {"name": "Fiilley", "pcode": "NA-3810-D29-007", "place": "hamlet", "source": "UNDP - 1997"}}, {"type": "node", "id": 1404229355, "lat": 1.7833791, "lon": 44.6608617, "tags": {"checked": "no", "name": "Daanti", "pcode": "NA-3810-F26-010", "place": "hamlet"}}, {"type": "node", "id": 1404229364, "lat": 1.6322477, "lon": 44.611358, "tags": {"name": "Jabad-Cade", "pcode": "NA-3810-J25-001", "place": "village", "source": "UNDP - 2006"}}, {"type": "node", "id": 1404229417, "lat": 1.85575, "lon": 44.6285509, "tags": {"alt_name": "Dhooblow", "name": "Dhoobley", "pcode": "NA-3810-D25-005", "place": "village"}}, {"type": "node", "id": 1404229765, "lat": 1.8364829, "lon": 44.7887019, "tags": {"alt_name": "Cusman Saalax", "name": "Osman Salah", "pcode": "NA-3810-D29-002", "place": "village", "source": "KEMRI - 2007, UNDP - 2006"}}, {"type": "node", "id": 1404229809, "lat": 1.8506768, "lon": 44.7663286, "tags": {"alt_name": "Deg Abayariley", "name": "Abay Eriley", "pcode": "NA-3810-D28-006", "place": "village", "source": "KEMRI - 2007, UNDP - 2006"}}, {"type": "node", "id": 1404229819, "lat": 1.8915544, "lon": 44.817045, "tags": {"name": "Xanlaay", "pcode": "NA-3810-C29-008", "place": "hamlet", "source": "UNDP - 1997"}}, {"type": "node", "id": 1404229837, "lat": 1.7109887, "lon": 44.6108875, "tags": {"alt_name": "Basiili", "name": "Basiile", "pcode": "NA-3810-G25-001", "place": "village", "source": "KEMRI - 2007, UNDP - 2006"}}, {"type": "node", "id": 1404229840, "lat": 1.88108, "lon": 44.70686, "tags": {"name": "Buulo Khaliif", "pcode": "NA-3810-C27-001", "place": "locality"}}, {"type": "node", "id": 1404229845, "lat": 1.8969682, "lon": 44.7302744, "tags": {"alt_name": "Madulow", "name": "Maduulow", "pcode": "NA-3810-C28-010", "place": "hamlet"}}, {"type": "node", "id": 1404229864, "lat": 1.731074, "lon": 44.625363, "tags": {"alt_name": "Degat;Danowe;Danawe", "name": "Danow", "pcode": "NA-3810-G25-014", "place": "hamlet", "source": "KEMRI - 2007, UNDP - 2006"}}, {"type": "node", "id": 1404229888, "lat": 1.82986, "lon": 44.69492, "tags": {"alt_name": "Tinisar", "checked": "no", "name": "Uraay", "pcode": "NA-3810-E27-013", "place": "hamlet"}}, {"type": "node", "id": 1404229951, "lat": 1.83308, "lon": 44.90675, "tags": {"name": "Gendershe", "pcode": "NA-3810-E31-004", "place": "locality", "source": "UNDP - 2006"}}, {"type": "node", "id": 1404230011, "lat": 1.73675, "lon": 44.613152, "tags": {"name": "Surriyo", "pcode": "NA-3810-G25-020", "place": "locality", "source": "UNDP - 1997"}}, {"type": "node", "id": 1404230037, "lat": 1.8319593, "lon": 44.8408191, "tags": {"alt_name": "Buula Markow", "name": "Markow", "pcode": "NA-3810-E30-003", "place": "hamlet", "source": "KEMRI - 2007, UNDP - 2006"}}, {"type": "node", "id": 1404230060, "lat": 1.852818, "lon": 44.7990794, "tags": {"name": "Buulo Xaaji Cisman", "pcode": "NA-3810-D29-008", "place": "hamlet", "source": "KEMRI - 2007"}}, {"type": "node", "id": 1404230089, "lat": 1.6435864, "lon": 44.6620566, "tags": {"alt_name": "Lixmooro", "name": "Lix Mooro", "pcode": "NA-3810-J26-001", "place": "village", "source": "KEMRI - 2007, UNDP - 2006, UNDP - 1997"}}, {"type": "node", "id": 1404230100, "lat": 1.8542751, "lon": 44.7076122, "tags": {"alt_name": "Sigale;Siigale;Siigale Degta", "name": "Siqaale", "pcode": "NA-3810-D27-011", "place": "hamlet"}}, {"type": "node", "id": 1404230109, "lat": 1.742, "lon": 44.590691, "tags": {"name": "Cusboole", "pcode": "NA-3810-G24-004", "place": "locality", "source": "UNDP - 1997"}}, {"type": "node", "id": 1404230132, "lat": 1.88439, "lon": 44.706089, "tags": {"name": "Cilmi Nuux", "pcode": "NA-3810-C27-003", "place": "locality"}}, {"type": "node", "id": 1404230158, "lat": 1.77744, "lon": 44.76907, "tags": {"name": "Moxamed Nurow", "pcode": "NA-3810-F28-007", "place": "locality", "source": "UNDP - 1997"}}, {"type": "node", "id": 1404230190, "lat": 1.8494304, "lon": 44.6843427, "tags": {"name": "Qabadka", "pcode": "NA-3810-D27-010", "place": "isolated_dwelling"}}, {"type": "node", "id": 1404230217, "lat": 1.903465, "lon": 44.7199797, "tags": {"name": "Garasweynow", "pcode": "NA-3810-C27-008", "place": "village"}}, {"type": "node", "id": 1404230239, "lat": 1.8911414, "lon": 44.6440886, "tags": {"alt_name": "Hanuwadaag", "name": "Hantiwadag", "pcode": "NA-3810-C26-001", "place": "village"}}, {"type": "node", "id": 1404230249, "lat": 1.7516343, "lon": 44.6279836, "tags": {"name": "Horseed", "pcode": "NA-3810-F25-001", "place": "hamlet", "wikidata": "Q5905753"}}, {"type": "node", "id": 1404230309, "lat": 1.71658, "lon": 44.77184, "tags": {"name": "Hawl Wadaag", "pcode": "NA-3810-G28-008", "place": "suburb", "source": "UNDP - 2006"}}, {"type": "node", "id": 1404230365, "lat": 1.8810286, "lon": 44.7362611, "tags": {"name": "Buulo-Qaliif", "pcode": "NA-3810-C28-003", "place": "village"}}, {"type": "node", "id": 1404230416, "lat": 1.87291, "lon": 44.95293, "tags": {"name": "Buulo Caliyow", "pcode": "NA-3810-D32-004", "place": "locality", "source": "KEMRI - 2007"}}, {"type": "node", "id": 1404230468, "lat": 1.9540143, "lon": 44.9553746, "tags": {"alt_name": "Ceel-Biyoole", "name": "Ceebiyoole", "pcode": "NA-3810-B33-007", "place": "village", "source": "KEMRI - 2007, UNDP - 2006"}}, {"type": "node", "id": 1404230490, "lat": 1.89243, "lon": 44.695389, "tags": {"name": "Suleymaan \u0633\u0644\u064a\u0645\u0627\u0646", "name:ar": "\u0633\u0644\u064a\u0645\u0627\u0646", "name:en": "Suleymaan", "pcode": "NA-3810-C27-006", "place": "locality"}}, {"type": "node", "id": 1404230541, "lat": 1.9452334, "lon": 44.896822, "tags": {"name": "Balan", "pcode": "NA-3810-B31-001", "place": "isolated_dwelling", "source": "UNDP - 2006"}}, {"type": "node", "id": 1404230551, "lat": 1.74234, "lon": 44.69305, "tags": {"name": "Jaakumow", "pcode": "NA-3810-G27-004", "place": "locality"}}, {"type": "node", "id": 1404230639, "lat": 1.7692954, "lon": 44.6969882, "tags": {"name": "Buulo-Jadiid", "pcode": "NA-3810-F27-004", "place": "hamlet"}}, {"type": "node", "id": 1404230652, "lat": 1.6819868, "lon": 44.7260971, "tags": {"alt_name": "Buulo Xaaji Ciise", "name": "Bulo Hagi Ise", "pcode": "NA-3810-H27-006", "place": "village", "source": "UNDP - 2006"}}, {"type": "node", "id": 1404230675, "lat": 1.70333, "lon": 44.618401, "tags": {"name": "Jaanjow", "pcode": "NA-3810-H25-009", "place": "locality", "source": "UNDP - 1997"}}, {"type": "node", "id": 1404230707, "lat": 1.7195006, "lon": 44.6255403, "tags": {"name": "Jeelow", "pcode": "NA-3810-G25-005", "place": "village", "source": "UNDP - 2006"}}, {"type": "node", "id": 1404230749, "lat": 1.78335, "lon": 44.77678, "tags": {"name": "Danada Marka", "pcode": "NA-3810-F29-002", "place": "locality", "source": "FSAU"}}, {"type": "node", "id": 1404230832, "lat": 1.6804, "lon": 44.72268, "tags": {"alt_name": "Ceel Munye", "name": "Ceel-Jaale", "pcode": "NA-3810-H27-005", "place": "village", "source": "KEMRI - 2007, UNDP - 2006, UNDP - 1997"}}, {"type": "node", "id": 1404230848, "lat": 1.8693233, "lon": 44.8293927, "tags": {"name": "Majabaale", "pcode": "NA-3810-D30-005", "place": "hamlet", "source": "KEMRI - 2007"}}, {"type": "node", "id": 1404230870, "lat": 1.9696728, "lon": 44.8211305, "tags": {"name": "Deg Yeroy", "pcode": "NA-3810-A30-002", "place": "locality"}}, {"type": "node", "id": 1404230971, "lat": 1.7151, "lon": 44.76283, "tags": {"alt_name": "Buulo Jan", "name": "Horseet", "pcode": "NA-3810-G28-003", "place": "suburb", "source": "KEMRI - 2007"}}, {"type": "node", "id": 1404231012, "lat": 1.6725924, "lon": 44.7048317, "tags": {"alt_name": "Ceel Aduu", "name": "Ceel-Caddow", "pcode": "NA-3810-H27-002", "place": "village", "source": "KEMRI - 2007, UNDP - 2006, UNDP - 1997"}}, {"type": "node", "id": 1404231037, "lat": 1.8227609, "lon": 44.6479644, "tags": {"name": "Cali Xirsi", "pcode": "NA-3810-E26-012", "place": "isolated_dwelling"}}, {"type": "node", "id": 1404231054, "lat": 1.7425476, "lon": 44.5922103, "tags": {"name": "Xuseen-Camalow", "pcode": "NA-3810-G25-026", "place": "locality", "source": "UNDP - 2006"}}, {"type": "node", "id": 1404231068, "lat": 1.7671015, "lon": 44.6512737, "tags": {"alt_name": "Donka Daafeedo", "checked": "no", "name": "Doonka-Daafeedow", "pcode": "NA-3810-F26-006", "place": "village"}}, {"type": "node", "id": 1404231094, "lat": 1.85235, "lon": 44.73568, "tags": {"name": "Busley", "pcode": "NA-3810-D28-007", "place": "locality"}}, {"type": "node", "id": 1404231114, "lat": 1.85195, "lon": 44.94533, "tags": {"name": "Yaqbino", "pcode": "NA-3810-D32-001", "place": "locality", "source": "KEMRI - 2007"}}, {"type": "node", "id": 1404231127, "lat": 1.7302, "lon": 44.604851, "tags": {"name": "Dalaroobare", "pcode": "NA-3810-G25-013", "place": "locality", "source": "UNDP - 1997"}}, {"type": "node", "id": 1404231144, "lat": 1.7248931, "lon": 44.6514957, "tags": {"alt_name": "Abikarow", "name": "Abiikarow", "pcode": "NA-3810-G26-002", "place": "isolated_dwelling", "source": "KEMRI - 2007, UNDP - 2006, UNDP - 1997"}}, {"type": "node", "id": 1404231167, "lat": 1.7772741, "lon": 44.7023087, "tags": {"alt_name": "Bulla Raxmo", "name": "Gershiine", "pcode": "NA-3810-F27-009", "place": "locality"}}, {"type": "node", "id": 1404231289, "lat": 1.65598, "lon": 44.603771, "tags": {"name": "Moyle", "pcode": "NA-3810-J25-003", "place": "locality", "source": "UNDP - 1997"}}, {"type": "node", "id": 1404231292, "lat": 1.8585521, "lon": 44.611468, "tags": {"name": "Bula Xariin", "pcode": "NA-3810-D25-006", "place": "locality"}}, {"type": "node", "id": 1404231293, "lat": 1.8904637, "lon": 44.7833716, "tags": {"alt_name": "Barwaqo", "name": "Tuulo Sh. Nuur", "pcode": "NA-3810-C29-007", "place": "isolated_dwelling", "source": "KEMRI - 2007"}}, {"type": "node", "id": 1404231294, "lat": 1.8076279, "lon": 44.7999237, "tags": {"alt_name": "Ceel Wareegow", "name": "Ceel Waregow", "pcode": "NA-3810-E29-002", "place": "village", "source": "KEMRI - 2007, UNDP - 2006, UNDP - 1997"}}, {"type": "node", "id": 1404231322, "lat": 1.8391851, "lon": 44.6117638, "tags": {"alt_name": "Osman Gaduud", "name": "Osman Gadud", "pcode": "NA-3810-D25-001", "place": "locality"}}, {"type": "node", "id": 1404231338, "lat": 1.8550492, "lon": 44.7575496, "tags": {"alt_name": "Habar Muumina", "name": "Buulo Habar Muumino", "pcode": "NA-3810-D28-011", "place": "hamlet", "source": "KEMRI - 2007, UNDP - 2006"}}, {"type": "node", "id": 1404231390, "lat": 1.7696, "lon": 44.800201, "tags": {"name": "Bulo Gian", "pcode": "NA-3810-F29-001", "place": "locality", "source": "UNDP - 1997"}}, {"type": "node", "id": 1404231402, "lat": 1.9547446, "lon": 44.9465574, "tags": {"name": "Garas-Hufey", "pcode": "NA-3810-B32-006", "place": "hamlet", "source": "UNDP - 2006"}}, {"type": "node", "id": 1404231415, "lat": 1.80887, "lon": 44.659248, "tags": {"name": "Mafarolini", "pcode": "NA-3810-E26-006", "place": "locality"}}, {"type": "node", "id": 1404231448, "lat": 1.88759, "lon": 44.776958, "tags": {"name": "Ismaaciil", "pcode": "NA-3810-C29-013", "place": "locality", "source": "UNDP - 1997"}}, {"type": "node", "id": 1404231452, "lat": 1.9662539, "lon": 44.8552198, "tags": {"name": "Farah Awahes", "pcode": "NA-3810-A30-001", "place": "locality", "source": "UNDP - 2006"}}, {"type": "node", "id": 1404231470, "lat": 1.7519, "lon": 44.592892, "tags": {"name": "Siimow", "pcode": "NA-3810-F25-002", "place": "locality"}}, {"type": "node", "id": 1404231522, "lat": 1.80542, "lon": 44.66921, "tags": {"alt_name": "Kulaas", "name": "Kulas", "pcode": "NA-3810-E26-005", "place": "locality"}}, {"type": "node", "id": 1404231531, "lat": 1.71429, "lon": 44.635231, "tags": {"name": "Dhamme Yaaslin", "pcode": "NA-3810-G25-003", "place": "locality", "source": "UNDP - 1997"}}, {"type": "node", "id": 1404231569, "lat": 1.9346217, "lon": 44.8310503, "tags": {"alt_name": "Jowhar Aw Dheegle", "name": "Jowhar", "name:ar": "\u062c\u0648\u0647\u0631", "pcode": "NA-3810-B30-001", "place": "village", "source": "UNDP - 2006, UNDP - 1997"}}, {"type": "node", "id": 1404231574, "lat": 1.82682, "lon": 44.60606, "tags": {"name": "Xaaji Xasan", "pcode": "NA-3810-E25-005", "place": "locality"}}, {"type": "node", "id": 1404231578, "lat": 1.8671384, "lon": 44.81149, "tags": {"alt_name": "Tuulada-Cabdi-Kariim 'M", "name": "Tuulada-Cabdi-Kariim M'", "pcode": "NA-3810-D29-013", "place": "locality", "source": "UNDP - 2006"}}, {"type": "node", "id": 1404231584, "lat": 1.9138676, "lon": 44.8157778, "tags": {"alt_name": "Aybuutey", "name": "Aybutey", "pcode": "NA-3810-C29-011", "place": "village", "source": "KEMRI - 2007, UNDP - 2006"}}, {"type": "node", "id": 1404231616, "lat": 1.8358238, "lon": 44.6418115, "tags": {"name": "Aadao Nuur", "pcode": "NA-3810-E26-013", "place": "village"}}, {"type": "node", "id": 1404231694, "lat": 1.8929747, "lon": 44.6821421, "tags": {"name": "Cabdillahi Mudey", "pcode": "NA-3810-C26-002", "place": "hamlet"}}, {"type": "node", "id": 1404231723, "lat": 1.68013, "lon": 44.664509, "tags": {"name": "Sunaay", "pcode": "NA-3810-H26-002", "place": "locality", "source": "UNDP - 1997"}}, {"type": "node", "id": 1404231737, "lat": 1.8369625, "lon": 44.6988746, "tags": {"checked": "no", "name": "B.Khamiisow", "pcode": "NA-3810-D27-002", "place": "hamlet"}}, {"type": "node", "id": 1404231740, "lat": 1.8615546, "lon": 44.7960771, "tags": {"alt_name": "Garas Weynow", "name": "Yaras Weynow", "pcode": "NA-3810-D29-010", "place": "village", "source": "KEMRI - 2007, UNDP - 2006"}}, {"type": "node", "id": 1404231748, "lat": 1.845988, "lon": 44.710758, "tags": {"name": "Bijollino", "pcode": "NA-3810-D27-008", "place": "locality"}}, {"type": "node", "id": 1404231750, "lat": 1.9440414, "lon": 44.9441176, "tags": {"alt_name": "Buushka;No 60;Kilometer 60", "name": "K60", "pcode": "NA-3810-B32-005", "place": "village", "source": "KEMRI - 2007, UNDP - 2006"}}, {"type": "node", "id": 1404231753, "lat": 1.6840485, "lon": 44.5979754, "tags": {"name": "Teesiyow", "pcode": "NA-3810-H25-004", "place": "locality", "source": "UNDP - 1997"}}, {"type": "node", "id": 1404231774, "lat": 1.67534, "lon": 44.71428, "tags": {"name": "Sambusa", "pcode": "NA-3810-H27-003", "place": "locality", "source": "KEMRI - 2007"}}, {"type": "node", "id": 1404231812, "lat": 1.6434094, "lon": 44.6245881, "tags": {"alt_name": "Dudumaay", "name": "Dudumo", "pcode": "NA-3810-J25-002", "place": "village", "source": "KEMRI - 2007, UNDP - 2006"}}, {"type": "node", "id": 1404231835, "lat": 1.8490513, "lon": 44.8470409, "tags": {"alt_name": "Buulo Barwaqo", "name": "Buulo Naagad", "pcode": "NA-3810-D30-003", "place": "locality", "source": "KEMRI - 2007"}}, {"type": "node", "id": 1404231927, "lat": 1.893002, "lon": 44.7504276, "tags": {"alt_name": "Moxamed Cumar 2", "name": "Buulo-Maxamed Cumar", "pcode": "NA-3810-C28-007", "place": "farm"}}, {"type": "node", "id": 1404231987, "lat": 1.85973, "lon": 44.71258, "tags": {"name": "Buulo-Xaaji Cumarow", "pcode": "NA-3810-D27-014", "place": "hamlet"}}, {"type": "node", "id": 1404232008, "lat": 1.91819, "lon": 44.80938, "tags": {"name": "Muuno", "pcode": "NA-3810-B29-001", "place": "locality", "source": "UNDP - 1997"}}, {"type": "node", "id": 1404232052, "lat": 1.8503701, "lon": 44.7922556, "tags": {"name": "Buulo Kashiito", "pcode": "NA-3810-D29-006", "place": "hamlet", "source": "KEMRI - 2007"}}, {"type": "node", "id": 1404232136, "lat": 1.893531, "lon": 44.7412425, "tags": {"alt_name": "Bullo Abdalle", "name": "Buulo-Cabdalla", "pcode": "NA-3810-C28-008", "place": "hamlet"}}, {"type": "node", "id": 1404232151, "lat": 1.89666, "lon": 44.818649, "tags": {"name": "Jadiid", "pcode": "NA-3810-C30-002", "place": "locality", "source": "UNDP - 1997"}}, {"type": "node", "id": 1404232158, "lat": 1.83162, "lon": 44.719028, "tags": {"name": "Faranga Mashiim", "pcode": "NA-3810-E27-015", "place": "locality"}}, {"type": "node", "id": 1404232243, "lat": 1.9641626, "lon": 44.9649264, "tags": {"name": "Merca Zone", "pcode": "NA-3810-A33-001", "place": "locality", "source": "FSAU"}}, {"type": "node", "id": 1404232247, "lat": 1.8224488, "lon": 44.6636032, "tags": {"alt_name": "Biyo Cagaar", "name": "Biyo Cayar", "pcode": "NA-3810-E26-011", "place": "village"}}, {"type": "node", "id": 1404232250, "lat": 1.8656134, "lon": 44.856389, "tags": {"alt_name": "Keli Caafimaad", "name": "Kali-Caafimaad", "pcode": "NA-3810-D30-004", "place": "locality", "source": "KEMRI - 2007, UNDP - 2006"}}, {"type": "node", "id": 1404232320, "lat": 1.9525, "lon": 44.970402, "tags": {"name": "Dabab", "pcode": "NA-3810-B33-006", "place": "locality", "source": "UNDP - 1997"}}, {"type": "node", "id": 1404232368, "lat": 1.8054602, "lon": 44.747118, "tags": {"alt_name": "Canbanaane;Abananey", "name": "Canbanane", "pcode": "NA-3810-E28-001", "place": "village"}}, {"type": "node", "id": 1404232420, "lat": 1.7307257, "lon": 44.5886854, "tags": {"alt_name": "Buufow Cusboley", "name": "Bufuow-Cosbooley", "pcode": "NA-3810-G24-002", "place": "village", "source": "KEMRI - 2007, UNDP - 2006, UNDP - 1997"}}, {"type": "node", "id": 1404232436, "lat": 1.8428224, "lon": 44.7888426, "tags": {"alt_name": "D. Macallin Baalow", "name": "Macalim-Haaji Ballow", "pcode": "NA-3810-D29-004", "place": "hamlet", "source": "KEMRI - 2007, UNDP - 2006"}}, {"type": "node", "id": 1404232623, "lat": 1.81353, "lon": 44.68326, "tags": {"name": "Da", "pcode": "NA-3810-E27-005", "place": "locality"}}, {"type": "node", "id": 1404232709, "lat": 1.62414, "lon": 44.636589, "tags": {"name": "Siyoweyne", "pcode": "NA-3810-K26-001", "place": "village", "source": "UNDP - 1997"}}, {"type": "node", "id": 1404232745, "lat": 1.8082, "lon": 44.7813, "tags": {"alt_name": "Geelle", "name": "Geelle", "pcode": "NA-3810-E29-001", "place": "locality", "source": "KEMRI - 2007, UNDP - 2006, UNDP - 1997"}}, {"type": "node", "id": 1404232786, "lat": 1.6985477, "lon": 44.6835218, "tags": {"name": "Marsaano", "pcode": "NA-3810-H27-007", "place": "hamlet", "source": "UNDP - 1997"}}, {"type": "node", "id": 1404232874, "lat": 1.7979701, "lon": 44.9078339, "tags": {"alt_name": "Jilib Merka", "name": "Jilib-Marca", "pcode": "NA-3810-E31-001", "place": "village", "source": "KEMRI - 2007, UNDP - 2006"}}, {"type": "node", "id": 1404232875, "lat": 1.81481, "lon": 44.687561, "tags": {"name": "Gabaay", "pcode": "NA-3810-E27-006", "place": "locality"}}, {"type": "node", "id": 1404232978, "lat": 1.70721, "lon": 44.75588, "tags": {"name": "Ayuub", "pcode": "NA-3810-H28-003", "place": "suburb", "source": "UNDP - 2006"}}, {"type": "node", "id": 1404232998, "lat": 1.77615, "lon": 44.6819, "tags": {"name": "Beer Bari", "pcode": "NA-3810-F27-008", "place": "locality"}}, {"type": "node", "id": 1404233011, "lat": 1.79743, "lon": 44.645359, "tags": {"name": "Maanjoor", "pcode": "NA-3810-E26-002", "place": "locality"}}, {"type": "node", "id": 1404233065, "lat": 1.71742, "lon": 44.76743, "tags": {"name": "Horseet Lanti 1", "pcode": "NA-3810-G28-010", "place": "suburb", "source": "KEMRI - 2007"}}, {"type": "node", "id": 1404233129, "lat": 1.8478504, "lon": 44.7109811, "tags": {"alt_name": "Siigaale Bari", "name": "Sigaale-Bari", "pcode": "NA-3810-D27-009", "place": "village"}}, {"type": "node", "id": 1404233160, "lat": 1.71552, "lon": 44.654388, "tags": {"name": "Mirimiri", "pcode": "NA-3810-G26-001", "place": "locality", "source": "UNDP - 1997"}}, {"type": "node", "id": 1404233187, "lat": 1.89086, "lon": 44.729462, "tags": {"name": "Cabdalle", "pcode": "NA-3810-C28-006", "place": "locality"}}, {"type": "node", "id": 1404233248, "lat": 1.8176, "lon": 44.699299, "tags": {"name": "Babaay", "pcode": "NA-3810-E27-007", "place": "locality"}}, {"type": "node", "id": 1404233325, "lat": 1.86411, "lon": 44.937901, "tags": {"name": "Xinka Oomamne", "pcode": "NA-3810-D32-003", "place": "locality", "source": "UNDP - 1997"}}, {"type": "node", "id": 1404233348, "lat": 1.6142193, "lon": 44.6270093, "tags": {"name": "Bulo Bishaaro", "pcode": "NA-3810-K25-002", "place": "village", "source": "KEMRI - 2007"}}, {"type": "node", "id": 1404233361, "lat": 1.7282976, "lon": 44.6221455, "tags": {"name": "Buulo Yarow", "pcode": "NA-3810-G25-012", "place": "locality", "source": "UNDP - 2006"}}, {"type": "node", "id": 1404233445, "lat": 1.8691189, "lon": 44.8099511, "tags": {"name": "Karim Caruush", "pcode": "NA-3810-D29-014", "place": "hamlet", "source": "KEMRI - 2007"}}, {"type": "node", "id": 1404233463, "lat": 1.6762, "lon": 44.59673, "tags": {"alt_name": "Faari Baasi", "name": "Faari", "pcode": "NA-3810-H25-002", "place": "village", "source": "KEMRI - 2007, UNDP - 1997"}}, {"type": "node", "id": 1404233520, "lat": 1.93499, "lon": 44.74506, "tags": {"name": "Isoo Mareey Weyn", "pcode": "NA-3810-B28-002", "place": "locality"}}, {"type": "node", "id": 1404233550, "lat": 1.75251, "lon": 44.605228, "tags": {"name": "Aesow", "pcode": "NA-3810-F25-003", "place": "locality"}}, {"type": "node", "id": 1404233604, "lat": 1.7051476, "lon": 44.593091, "tags": {"alt_name": "Bardasalah", "name": "Berdasalax", "pcode": "NA-3810-H25-010", "place": "farm", "source": "KEMRI - 2007, UNDP - 2006, UNDP - 1997"}}, {"type": "node", "id": 1404233614, "lat": 1.74749, "lon": 44.604691, "tags": {"name": "Carfaale", "pcode": "NA-3810-G25-029", "place": "locality", "source": "UNDP - 1997"}}, {"type": "node", "id": 1404233643, "lat": 1.7347235, "lon": 44.6052513, "tags": {"name": "Jannaay", "pcode": "NA-3810-G25-019", "place": "farm", "source": "UNDP - 1997"}}, {"type": "node", "id": 1404233669, "lat": 1.71705, "lon": 44.77105, "tags": {"name": "Wadajir-Bulla", "pcode": "NA-3810-G28-009", "place": "suburb", "source": "KEMRI - 2007"}}, {"type": "node", "id": 1404233682, "lat": 1.73798, "lon": 44.61284, "tags": {"alt_name": "Dalbian", "name": "Dalbiyango", "pcode": "NA-3810-G25-022", "place": "village", "source": "KEMRI - 2007, UNDP - 2006"}}, {"type": "node", "id": 1404233754, "lat": 1.67705, "lon": 44.71764, "tags": {"name": "Hebta Sambusa", "pcode": "NA-3810-H27-004", "place": "locality", "source": "UNDP - 2006"}}, {"type": "node", "id": 1404233765, "lat": 1.8005627, "lon": 44.7012542, "tags": {"name": "Doobis", "pcode": "NA-3810-E27-002", "place": "hamlet"}}, {"type": "node", "id": 1404233767, "lat": 1.85752, "lon": 44.97317, "tags": {"name": "Bocorow", "pcode": "NA-3810-D33-004", "place": "locality", "source": "KEMRI - 2007"}}, {"type": "node", "id": 1404233797, "lat": 1.905246, "lon": 44.767186, "tags": {"name": "Sadiiq", "pcode": "NA-3810-C28-013", "place": "hamlet", "source": "UNDP - 1997"}}, {"type": "node", "id": 1404233920, "lat": 1.72815, "lon": 44.594109, "tags": {"name": "Buuto Canada", "pcode": "NA-3810-G25-010", "place": "locality", "source": "UNDP - 1997"}}, {"type": "node", "id": 1404233965, "lat": 1.8431, "lon": 44.61062, "tags": {"name": "Bulo Rahmo 1", "pcode": "NA-3810-D25-002", "place": "locality"}}, {"type": "node", "id": 1404234019, "lat": 1.8154722, "lon": 44.7317237, "tags": {"name": "Marsaan", "pcode": "NA-3810-E28-004", "place": "farm"}}, {"type": "node", "id": 1404234022, "lat": 1.72571, "lon": 44.66116, "tags": {"name": "Matirikow", "pcode": "NA-3810-G26-003", "place": "locality", "source": "UNDP - 1997"}}, {"type": "node", "id": 2814968356, "lat": 1.7061005, "lon": 44.6088896, "tags": {"name": "Deg Jannaay", "place": "village"}}, {"type": "node", "id": 8062578809, "lat": 1.946675, "lon": 44.9450726, "tags": {"place": "hamlet"}}, {"type": "node", "id": 8063150019, "lat": 1.7779991, "lon": 44.7923459, "tags": {"place": "hamlet"}}, {"type": "node", "id": 8063150038, "lat": 1.7739363, "lon": 44.7894841, "tags": {"place": "hamlet"}}, {"type": "node", "id": 8063150081, "lat": 1.7992465, "lon": 44.8102209, "tags": {"place": "hamlet"}}, {"type": "node", "id": 8063150098, "lat": 1.8000214, "lon": 44.8052327, "tags": {"place": "hamlet"}}, {"type": "node", "id": 8063150106, "lat": 1.7993321, "lon": 44.8070113, "tags": {"place": "hamlet"}}, {"type": "node", "id": 8063302569, "lat": 1.9043889, "lon": 44.8652595, "tags": {"place": "isolated_dwelling"}}, {"type": "node", "id": 8063302570, "lat": 1.9052206, "lon": 44.8659936, "tags": {"place": "isolated_dwelling"}}, {"type": "node", "id": 8063302571, "lat": 1.9065965, "lon": 44.8657621, "tags": {"place": "isolated_dwelling"}}, {"type": "node", "id": 8063320654, "lat": 1.9077757, "lon": 44.8449661, "tags": {"place": "hamlet"}}, {"type": "node", "id": 8063320714, "lat": 1.9231229, "lon": 44.8437179, "tags": {"place": "hamlet"}}, {"type": "node", "id": 8063372864, "lat": 1.9042767, "lon": 44.8410342, "tags": {"place": "hamlet"}}, {"type": "node", "id": 8063552098, "lat": 1.8450389, "lon": 44.8497193, "tags": {"place": "isolated_dwelling"}}, {"type": "node", "id": 8063552236, "lat": 1.7859983, "lon": 44.8093199, "tags": {"place": "isolated_dwelling"}}, {"type": "node", "id": 8063552237, "lat": 1.7849482, "lon": 44.8074907, "tags": {"place": "hamlet"}}, {"type": "node", "id": 8063837606, "lat": 1.9219686, "lon": 44.8613288, "tags": {"place": "isolated_dwelling"}}, {"type": "node", "id": 8063837607, "lat": 1.9222778, "lon": 44.8624805, "tags": {"place": "isolated_dwelling"}}, {"type": "node", "id": 8063837632, "lat": 1.9286041, "lon": 44.8617663, "tags": {"place": "isolated_dwelling"}}, {"type": "node", "id": 8064849502, "lat": 1.9228187, "lon": 44.855669, "tags": {"place": "isolated_dwelling"}}, {"type": "node", "id": 8065388716, "lat": 1.8436836, "lon": 44.789654, "tags": {"place": "isolated_dwelling"}}, {"type": "node", "id": 8065388814, "lat": 1.936292, "lon": 44.7549594, "tags": {"place": "isolated_dwelling"}}, {"type": "node", "id": 8065388924, "lat": 1.9596538, "lon": 44.8765019, "tags": {"place": "farm"}}, {"type": "node", "id": 8065389076, "lat": 1.9463162, "lon": 44.8740376, "tags": {"place": "isolated_dwelling"}}, {"type": "node", "id": 8065389077, "lat": 1.9463621, "lon": 44.8733746, "tags": {"place": "isolated_dwelling"}}, {"type": "node", "id": 8065389078, "lat": 1.9455671, "lon": 44.8747178, "tags": {"place": "isolated_dwelling"}}, {"type": "node", "id": 8065389079, "lat": 1.9446314, "lon": 44.8751512, "tags": {"place": "isolated_dwelling"}}, {"type": "node", "id": 8065389129, "lat": 1.9565431, "lon": 44.8844894, "tags": {"place": "farm"}}, {"type": "node", "id": 8065389211, "lat": 1.9394136, "lon": 44.8797577, "tags": {"place": "isolated_dwelling"}}, {"type": "node", "id": 8065389236, "lat": 1.9240729, "lon": 44.8707313, "tags": {"place": "isolated_dwelling"}}, {"type": "node", "id": 8065389266, "lat": 1.9032015, "lon": 44.8524766, "tags": {"place": "isolated_dwelling"}}, {"type": "node", "id": 8065389434, "lat": 1.9626172, "lon": 44.8748096, "tags": {"place": "hamlet"}}, {"type": "node", "id": 8065389552, "lat": 1.949864, "lon": 44.9064038, "tags": {"place": "isolated_dwelling"}}, {"type": "node", "id": 8065389830, "lat": 1.8965836, "lon": 44.8410153, "tags": {"place": "isolated_dwelling"}}, {"type": "node", "id": 8065639674, "lat": 1.8921258, "lon": 44.7643043, "tags": {"place": "hamlet"}}, {"type": "node", "id": 8065877137, "lat": 1.8914886, "lon": 44.7799729, "tags": {"place": "farm"}}, {"type": "node", "id": 8065877162, "lat": 1.9512556, "lon": 44.7503047, "tags": {"place": "hamlet"}}, {"type": "node", "id": 8065877163, "lat": 1.9531958, "lon": 44.7516422, "tags": {"place": "hamlet"}}, {"type": "node", "id": 8066038703, "lat": 1.8745533, "lon": 44.8146527, "tags": {"place": "isolated_dwelling"}}, {"type": "node", "id": 8066038767, "lat": 1.9518732, "lon": 44.7761408, "tags": {"place": "hamlet"}}, {"type": "node", "id": 8066090989, "lat": 1.9348358, "lon": 44.9384398, "tags": {"place": "hamlet"}}, {"type": "node", "id": 8066419759, "lat": 1.8825712, "lon": 44.7984737, "tags": {"place": "hamlet"}}, {"type": "node", "id": 8066419833, "lat": 1.9158546, "lon": 44.8101184, "tags": {"place": "isolated_dwelling"}}, {"type": "node", "id": 8066808590, "lat": 1.9678605, "lon": 44.7529687, "tags": {"place": "isolated_dwelling"}}, {"type": "node", "id": 8066808760, "lat": 1.9526888, "lon": 44.9863502, "tags": {"place": "isolated_dwelling"}}, {"type": "node", "id": 8066808761, "lat": 1.9518003, "lon": 44.9851383, "tags": {"place": "isolated_dwelling"}}, {"type": "node", "id": 8066808853, "lat": 1.9613452, "lon": 44.9878446, "tags": {"place": "hamlet"}}, {"type": "node", "id": 8066831288, "lat": 1.9037937, "lon": 44.8067253, "tags": {"place": "hamlet"}}, {"type": "node", "id": 8066831302, "lat": 1.9013426, "lon": 44.8050965, "tags": {"place": "hamlet"}}, {"type": "node", "id": 8066831311, "lat": 1.8997981, "lon": 44.8051443, "tags": {"place": "isolated_dwelling"}}, {"type": "node", "id": 8066852407, "lat": 1.9583382, "lon": 44.7559714, "tags": {"place": "isolated_dwelling"}}, {"type": "node", "id": 8068230994, "lat": 1.932034, "lon": 44.8339115, "tags": {"place": "farm"}}, {"type": "node", "id": 8068231054, "lat": 1.9212717, "lon": 44.8077354, "tags": {"place": "isolated_dwelling"}}, {"type": "node", "id": 8069036980, "lat": 1.9209301, "lon": 44.8465162, "tags": {"place": "isolated_dwelling"}}, {"type": "node", "id": 8069037178, "lat": 1.9408286, "lon": 44.8030485, "tags": {"place": "isolated_dwelling"}}, {"type": "node", "id": 8069037179, "lat": 1.9407999, "lon": 44.804894, "tags": {"place": "isolated_dwelling"}}, {"type": "node", "id": 8069037198, "lat": 1.9381665, "lon": 44.8255279, "tags": {"place": "isolated_dwelling"}}, {"type": "node", "id": 8069094913, "lat": 1.9169809, "lon": 44.9293129, "tags": {"place": "isolated_dwelling"}}, {"type": "node", "id": 8069094914, "lat": 1.9170383, "lon": 44.92834, "tags": {"place": "isolated_dwelling"}}, {"type": "node", "id": 8069095030, "lat": 1.931185, "lon": 44.923013, "tags": {"place": "hamlet"}}, {"type": "node", "id": 8069731444, "lat": 1.8398759, "lon": 44.9631003, "tags": {"place": "isolated_dwelling"}}, {"type": "node", "id": 8069732392, "lat": 1.804691, "lon": 44.8507353, "tags": {"place": "isolated_dwelling"}}, {"type": "node", "id": 8069732514, "lat": 1.8118146, "lon": 44.8252258, "tags": {"place": "hamlet"}}, {"type": "node", "id": 8069732792, "lat": 1.8021038, "lon": 44.8127119, "tags": {"place": "isolated_dwelling"}}, {"type": "node", "id": 8069732999, "lat": 1.802217, "lon": 44.8164835, "tags": {"place": "hamlet"}}, {"type": "node", "id": 8069733142, "lat": 1.7926134, "lon": 44.8096836, "tags": {"place": "isolated_dwelling"}}, {"type": "node", "id": 8069733322, "lat": 1.7812236, "lon": 44.8015633, "tags": {"place": "isolated_dwelling"}}, {"type": "node", "id": 8069733477, "lat": 1.7718172, "lon": 44.7773557, "tags": {"place": "hamlet"}}, {"type": "node", "id": 8069866021, "lat": 1.8297678, "lon": 44.7837904, "tags": {"place": "isolated_dwelling"}}, {"type": "node", "id": 8069866121, "lat": 1.8145957, "lon": 44.7789974, "tags": {"place": "hamlet"}}, {"type": "node", "id": 8071957695, "lat": 1.9700953, "lon": 44.915498, "tags": {"place": "isolated_dwelling"}}, {"type": "node", "id": 8071987269, "lat": 1.9640853, "lon": 44.9112129, "tags": {"place": "isolated_dwelling"}}, {"type": "node", "id": 8071987330, "lat": 1.9094159, "lon": 44.8742088, "tags": {"place": "isolated_dwelling"}}, {"type": "node", "id": 8071987331, "lat": 1.9178534, "lon": 44.8689145, "tags": {"place": "isolated_dwelling"}}, {"type": "node", "id": 8073714716, "lat": 1.968139, "lon": 44.7597832, "tags": {"place": "isolated_dwelling"}}, {"type": "node", "id": 8073714721, "lat": 1.9673651, "lon": 44.7595554, "tags": {"place": "isolated_dwelling"}}, {"type": "node", "id": 8073714808, "lat": 1.9564794, "lon": 44.7578348, "tags": {"place": "isolated_dwelling"}}, {"type": "node", "id": 8073714809, "lat": 1.957468, "lon": 44.756853, "tags": {"place": "isolated_dwelling"}}, {"type": "node", "id": 8073782931, "lat": 1.9198104, "lon": 44.931947, "tags": {"place": "isolated_dwelling"}}, {"type": "node", "id": 8075280568, "lat": 1.9597966, "lon": 44.9829744, "tags": {"place": "hamlet"}}, {"type": "node", "id": 8075280578, "lat": 1.9568531, "lon": 44.98279, "tags": {"place": "isolated_dwelling"}}, {"type": "node", "id": 8075280579, "lat": 1.9565385, "lon": 44.9822187, "tags": {"place": "isolated_dwelling"}}, {"type": "node", "id": 8075280580, "lat": 1.9580175, "lon": 44.9845293, "tags": {"place": "isolated_dwelling"}}, {"type": "node", "id": 8075314535, "lat": 1.9544484, "lon": 44.980577, "tags": {"place": "hamlet"}}, {"type": "node", "id": 8075315443, "lat": 1.9463086, "lon": 44.9809928, "tags": {"place": "hamlet"}}, {"type": "node", "id": 8075315444, "lat": 1.9486301, "lon": 44.9816075, "tags": {"place": "hamlet"}}, {"type": "node", "id": 8075315445, "lat": 1.9480298, "lon": 44.982837, "tags": {"place": "hamlet"}}, {"type": "node", "id": 8075315446, "lat": 1.9451804, "lon": 44.9795825, "tags": {"place": "hamlet"}}, {"type": "node", "id": 8075315447, "lat": 1.9429456, "lon": 44.9763714, "tags": {"place": "hamlet"}}, {"type": "node", "id": 8075440338, "lat": 1.8529624, "lon": 44.8129351, "tags": {"place": "isolated_dwelling"}}, {"type": "node", "id": 8075440493, "lat": 1.9383803, "lon": 44.8132798, "tags": {"place": "hamlet"}}, {"type": "node", "id": 8078049633, "lat": 1.8747531, "lon": 44.78406, "tags": {"place": "isolated_dwelling"}}, {"type": "node", "id": 8078241268, "lat": 1.8692224, "lon": 44.8221806, "tags": {"place": "hamlet"}}, {"type": "node", "id": 8078241532, "lat": 1.9163817, "lon": 44.7903122, "tags": {"place": "hamlet"}}, {"type": "node", "id": 8078242007, "lat": 1.885793, "lon": 44.7917588, "tags": {"place": "hamlet"}}, {"type": "node", "id": 8078271361, "lat": 1.9171155, "lon": 44.8405194, "tags": {"place": "hamlet"}}, {"type": "node", "id": 8078271409, "lat": 1.9236169, "lon": 44.8339975, "tags": {"place": "hamlet"}}, {"type": "node", "id": 8078314817, "lat": 1.919386, "lon": 44.8366775, "tags": {"place": "isolated_dwelling"}}, {"type": "node", "id": 8078314949, "lat": 1.8935822, "lon": 44.8269758, "tags": {"place": "hamlet"}}, {"type": "node", "id": 8078314958, "lat": 1.8923274, "lon": 44.8281691, "tags": {"place": "hamlet"}}, {"type": "node", "id": 8078315098, "lat": 1.8816652, "lon": 44.8278059, "tags": {"place": "hamlet"}}, {"type": "node", "id": 8078771231, "lat": 1.9602247, "lon": 44.8844561, "tags": {"place": "isolated_dwelling"}}, {"type": "node", "id": 8080190141, "lat": 1.9381916, "lon": 44.8250313, "tags": {"place": "isolated_dwelling"}}, {"type": "node", "id": 8080266289, "lat": 1.9634887, "lon": 44.8046392, "tags": {"place": "hamlet"}}, {"type": "node", "id": 8080266534, "lat": 1.961131, "lon": 44.7715529, "tags": {"place": "hamlet"}}, {"type": "node", "id": 8080449038, "lat": 1.9470051, "lon": 44.8394032, "tags": {"place": "farm"}}, {"type": "node", "id": 8080565042, "lat": 1.9480239, "lon": 44.7977618, "tags": {"place": "isolated_dwelling"}}, {"type": "node", "id": 8080840139, "lat": 1.9545017, "lon": 44.8079966, "tags": {"place": "hamlet"}}, {"type": "node", "id": 8081163995, "lat": 1.9554679, "lon": 44.9652468, "tags": {"place": "isolated_dwelling"}}, {"type": "node", "id": 8081523709, "lat": 1.871817, "lon": 44.8094948, "tags": {"place": "isolated_dwelling"}}, {"type": "node", "id": 8081771215, "lat": 1.8037052, "lon": 44.8513331, "tags": {"place": "isolated_dwelling"}}, {"type": "node", "id": 8081771297, "lat": 1.8857246, "lon": 44.7833803, "tags": {"place": "isolated_dwelling"}}, {"type": "node", "id": 8084122177, "lat": 1.7246755, "lon": 44.7699521, "tags": {"place": "hamlet"}}, {"type": "node", "id": 8084405979, "lat": 1.7190455, "lon": 44.7519122, "tags": {"place": "isolated_dwelling"}}, {"type": "node", "id": 8092091441, "lat": 1.6388212, "lon": 44.6558806, "tags": {"place": "hamlet"}}, {"type": "node", "id": 8093152922, "lat": 1.6792446, "lon": 44.7164576, "tags": {"place": "hamlet"}}, {"type": "node", "id": 8093272483, "lat": 1.7381557, "lon": 44.7335285, "tags": {"place": "isolated_dwelling"}}, {"type": "node", "id": 8093285476, "lat": 1.7199913, "lon": 44.7464055, "tags": {"place": "isolated_dwelling"}}, {"type": "node", "id": 8093285477, "lat": 1.732098, "lon": 44.7295798, "tags": {"place": "isolated_dwelling"}}, {"type": "node", "id": 8093285678, "lat": 1.6979367, "lon": 44.7004774, "tags": {"place": "isolated_dwelling"}}, {"type": "node", "id": 8093397376, "lat": 1.6343108, "lon": 44.6480352, "tags": {"place": "isolated_dwelling"}}, {"type": "node", "id": 8093398079, "lat": 1.6552053, "lon": 44.6826058, "tags": {"place": "farm"}}, {"type": "node", "id": 8093505986, "lat": 1.6128885, "lon": 44.5888071, "tags": {"place": "hamlet"}}, {"type": "node", "id": 8093506020, "lat": 1.6183296, "lon": 44.5945615, "tags": {"place": "hamlet"}}, {"type": "node", "id": 8093506042, "lat": 1.6214264, "lon": 44.5979647, "tags": {"place": "hamlet"}}, {"type": "node", "id": 8093506049, "lat": 1.6233217, "lon": 44.5987985, "tags": {"place": "hamlet"}}, {"type": "node", "id": 8093506244, "lat": 1.630953, "lon": 44.6443721, "tags": {"place": "isolated_dwelling"}}, {"type": "node", "id": 8093519661, "lat": 1.6086746, "lon": 44.6111277, "tags": {"place": "hamlet"}}, {"type": "node", "id": 8093519675, "lat": 1.6054256, "lon": 44.6146981, "tags": {"place": "hamlet"}}, {"type": "node", "id": 8093701919, "lat": 1.6296828, "lon": 44.6248792, "tags": {"place": "isolated_dwelling"}}, {"type": "node", "id": 8093725645, "lat": 1.6512962, "lon": 44.6332938, "tags": {"place": "isolated_dwelling"}}, {"type": "node", "id": 8093725646, "lat": 1.6671328, "lon": 44.6496761, "tags": {"place": "hamlet"}}, {"type": "node", "id": 8094090026, "lat": 1.7402812, "lon": 44.7449518, "tags": {"place": "isolated_dwelling"}}, {"type": "node", "id": 8096852325, "lat": 1.6745441, "lon": 44.6027631, "tags": {"place": "hamlet"}}, {"type": "node", "id": 8096852908, "lat": 1.750051, "lon": 44.6875643, "tags": {"place": "farm"}}, {"type": "node", "id": 8097775574, "lat": 1.7226047, "lon": 44.6054966, "tags": {"place": "isolated_dwelling"}}, {"type": "node", "id": 8098176224, "lat": 1.7471356, "lon": 44.7493401, "tags": {"place": "isolated_dwelling"}}, {"type": "node", "id": 8098176225, "lat": 1.7490788, "lon": 44.7463674, "tags": {"place": "isolated_dwelling"}}, {"type": "node", "id": 8098176257, "lat": 1.7472974, "lon": 44.7505429, "tags": {"place": "isolated_dwelling"}}, {"type": "node", "id": 8100041597, "lat": 1.6779686, "lon": 44.6313954, "tags": {"place": "isolated_dwelling"}}, {"type": "node", "id": 8100154486, "lat": 1.7495731, "lon": 44.6391487, "tags": {"place": "hamlet"}}, {"type": "node", "id": 8100154495, "lat": 1.7466835, "lon": 44.6420629, "tags": {"place": "farm"}}, {"type": "node", "id": 8100154538, "lat": 1.7425955, "lon": 44.6387035, "tags": {"place": "farm"}}, {"type": "node", "id": 8100510278, "lat": 1.6001791, "lon": 44.6121294, "tags": {"place": "hamlet"}}, {"type": "node", "id": 8109041707, "lat": 1.6964364, "lon": 44.6035686, "tags": {"place": "farm"}}, {"type": "node", "id": 8109588586, "lat": 1.7176446, "lon": 44.6157604, "tags": {"place": "farm"}}, {"type": "node", "id": 8109676690, "lat": 1.7369347, "lon": 44.6692024, "tags": {"place": "farm"}}, {"type": "node", "id": 8110783903, "lat": 1.7260446, "lon": 44.715806, "tags": {"place": "isolated_dwelling"}}, {"type": "node", "id": 8111481058, "lat": 1.7412128, "lon": 44.6632158, "tags": {"place": "isolated_dwelling"}}, {"type": "node", "id": 8124516930, "lat": 1.7841611, "lon": 44.8017928, "tags": {"place": "isolated_dwelling"}}, {"type": "node", "id": 8251615176, "lat": 1.7524342, "lon": 44.6839843, "tags": {"place": "isolated_dwelling"}}, {"type": "node", "id": 8251615378, "lat": 1.751247, "lon": 44.6301587, "tags": {"checked": "no", "place": "hamlet"}}, {"type": "node", "id": 8251615449, "lat": 1.9120617, "lon": 44.7238994, "tags": {"place": "isolated_dwelling"}}, {"type": "node", "id": 8251615450, "lat": 1.9107713, "lon": 44.7235011, "tags": {"checked": "no", "place": "hamlet"}}, {"type": "node", "id": 8251615556, "lat": 1.8984893, "lon": 44.7415129, "tags": {"checked": "no", "place": "hamlet"}}, {"type": "node", "id": 8251615604, "lat": 1.907346, "lon": 44.7328975, "tags": {"place": "isolated_dwelling"}}, {"type": "node", "id": 8251615631, "lat": 1.9159218, "lon": 44.7292956, "tags": {"place": "hamlet"}}, {"type": "node", "id": 8251615794, "lat": 1.8090679, "lon": 44.7452849, "tags": {"place": "hamlet"}}, {"type": "node", "id": 8251844566, "lat": 1.8758267, "lon": 44.7378203, "tags": {"checked": "no", "place": "hamlet"}}, {"type": "node", "id": 8251844642, "lat": 1.8549379, "lon": 44.7370563, "tags": {"place": "farm"}}, {"type": "node", "id": 8251844665, "lat": 1.8539397, "lon": 44.734237, "tags": {"place": "isolated_dwelling"}}, {"type": "node", "id": 8251844727, "lat": 1.8427242, "lon": 44.7493934, "tags": {"place": "isolated_dwelling"}}, {"type": "node", "id": 8252008169, "lat": 1.9420598, "lon": 44.7412581, "tags": {"place": "hamlet"}}, {"type": "node", "id": 8252008198, "lat": 1.8984177, "lon": 44.7120379, "tags": {"place": "isolated_dwelling"}}, {"type": "node", "id": 8252008325, "lat": 1.8802292, "lon": 44.7421565, "tags": {"place": "isolated_dwelling"}}, {"type": "node", "id": 8261918870, "lat": 1.7697471, "lon": 44.651926, "tags": {"place": "hamlet"}}, {"type": "node", "id": 8261919008, "lat": 1.7885926, "lon": 44.6344272, "tags": {"place": "isolated_dwelling"}}, {"type": "node", "id": 8261919048, "lat": 1.7833877, "lon": 44.6260844, "tags": {"place": "isolated_dwelling"}}, {"type": "node", "id": 8261919079, "lat": 1.8027795, "lon": 44.6515646, "tags": {"place": "isolated_dwelling"}}, {"type": "node", "id": 8261919222, "lat": 1.7796352, "lon": 44.7406667, "tags": {"place": "isolated_dwelling"}}, {"type": "node", "id": 8263515799, "lat": 1.9199715, "lon": 44.7267756, "tags": {"checked": "no", "place": "hamlet"}}, {"type": "node", "id": 8263921405, "lat": 1.8328209, "lon": 44.6952102, "tags": {"place": "isolated_dwelling"}}, {"type": "node", "id": 8263921483, "lat": 1.8192712, "lon": 44.7248928, "tags": {"place": "farm"}}, {"type": "node", "id": 8263983438, "lat": 1.7904996, "lon": 44.6926225, "tags": {"place": "farm"}}, {"type": "node", "id": 8263983476, "lat": 1.7834697, "lon": 44.6785194, "tags": {"place": "isolated_dwelling"}}, {"type": "node", "id": 8263983477, "lat": 1.7845601, "lon": 44.6763967, "tags": {"place": "hamlet"}}, {"type": "node", "id": 8264448055, "lat": 1.877451, "lon": 44.7321111, "tags": {"place": "isolated_dwelling"}}, {"type": "node", "id": 8266421069, "lat": 1.9359412, "lon": 44.711087, "tags": {"place": "isolated_dwelling"}}, {"type": "node", "id": 8266421087, "lat": 1.918172, "lon": 44.7229211, "tags": {"place": "hamlet"}}, {"type": "node", "id": 8266421206, "lat": 1.8967237, "lon": 44.7442947, "tags": {"place": "isolated_dwelling"}}, {"type": "node", "id": 8266421402, "lat": 1.9199084, "lon": 44.7067997, "tags": {"checked": "no", "place": "hamlet"}}, {"type": "node", "id": 8266421455, "lat": 1.9155889, "lon": 44.7167389, "tags": {"place": "hamlet"}}, {"type": "node", "id": 8266421469, "lat": 1.9137377, "lon": 44.7132603, "tags": {"place": "hamlet"}}, {"type": "node", "id": 8266715039, "lat": 1.8522859, "lon": 44.6998167, "tags": {"place": "farm"}}, {"type": "node", "id": 8266715378, "lat": 1.8714481, "lon": 44.6673683, "tags": {"checked": "no", "place": "hamlet"}}, {"type": "node", "id": 8269830947, "lat": 1.9078712, "lon": 44.6871309, "tags": {"place": "isolated_dwelling"}}, {"type": "node", "id": 8269830971, "lat": 1.9043792, "lon": 44.6893513, "tags": {"place": "isolated_dwelling"}}, {"type": "node", "id": 8269831005, "lat": 1.8969939, "lon": 44.6868318, "tags": {"place": "isolated_dwelling"}}, {"type": "node", "id": 8270004716, "lat": 1.8783303, "lon": 44.681499, "tags": {"place": "hamlet"}}, {"type": "node", "id": 8270008038, "lat": 1.8759139, "lon": 44.6840458, "tags": {"place": "isolated_dwelling"}}, {"type": "node", "id": 8270008059, "lat": 1.8643279, "lon": 44.6943698, "tags": {"place": "hamlet"}}, {"type": "node", "id": 8270008076, "lat": 1.861012, "lon": 44.6930174, "tags": {"place": "hamlet"}}, {"type": "node", "id": 8270008352, "lat": 1.9618723, "lon": 44.7225247, "tags": {"place": "hamlet"}}, {"type": "node", "id": 8270008466, "lat": 1.9425876, "lon": 44.6572035, "tags": {"place": "hamlet"}}, {"type": "node", "id": 8270008887, "lat": 1.9365468, "lon": 44.6500899, "tags": {"place": "hamlet"}}, {"type": "node", "id": 8270859553, "lat": 1.7593047, "lon": 44.7102975, "tags": {"place": "hamlet"}}, {"type": "node", "id": 8270859650, "lat": 1.8443345, "lon": 44.7099009, "tags": {"place": "isolated_dwelling"}}, {"type": "node", "id": 8270859735, "lat": 1.8429929, "lon": 44.7261191, "tags": {"place": "farm"}}, {"type": "node", "id": 8270860358, "lat": 1.7574481, "lon": 44.6734804, "tags": {"place": "isolated_dwelling"}}, {"type": "node", "id": 8273829146, "lat": 1.828044, "lon": 44.6918674, "tags": {"place": "isolated_dwelling"}}, {"type": "node", "id": 8273829303, "lat": 1.8367913, "lon": 44.6944891, "tags": {"place": "isolated_dwelling"}}, {"type": "node", "id": 8273829341, "lat": 1.8469734, "lon": 44.699679, "tags": {"place": "isolated_dwelling"}}, {"type": "node", "id": 8274369387, "lat": 1.7770347, "lon": 44.635492, "tags": {"place": "isolated_dwelling"}}, {"type": "node", "id": 8274369423, "lat": 1.7664527, "lon": 44.6306186, "tags": {"place": "isolated_dwelling"}}, {"type": "node", "id": 8274369450, "lat": 1.7613783, "lon": 44.6336179, "tags": {"place": "isolated_dwelling"}}, {"type": "node", "id": 8274369619, "lat": 1.7709681, "lon": 44.6041153, "tags": {"place": "hamlet"}}, {"type": "node", "id": 8274614217, "lat": 1.8784578, "lon": 44.6956226, "tags": {"place": "isolated_dwelling"}}, {"type": "node", "id": 8275979166, "lat": 1.8416544, "lon": 44.6514841, "tags": {"place": "isolated_dwelling"}}, {"type": "node", "id": 8275979180, "lat": 1.8368251, "lon": 44.6553339, "tags": {"place": "isolated_dwelling"}}, {"type": "node", "id": 8275979299, "lat": 1.843845, "lon": 44.6499659, "tags": {"place": "isolated_dwelling"}}, {"type": "node", "id": 8275980099, "lat": 1.8495523, "lon": 44.6665804, "tags": {"place": "isolated_dwelling"}}, {"type": "node", "id": 8275980650, "lat": 1.828091, "lon": 44.6574422, "tags": {"place": "isolated_dwelling"}}, {"type": "node", "id": 8275980664, "lat": 1.8263806, "lon": 44.6604074, "tags": {"place": "isolated_dwelling"}}, {"type": "node", "id": 8275980665, "lat": 1.8259141, "lon": 44.6626927, "tags": {"place": "isolated_dwelling"}}, {"type": "node", "id": 8275980695, "lat": 1.8240159, "lon": 44.6640199, "tags": {"place": "isolated_dwelling"}}, {"type": "node", "id": 8275980923, "lat": 1.8464155, "lon": 44.6566688, "tags": {"place": "isolated_dwelling"}}, {"type": "node", "id": 8279047999, "lat": 1.8135543, "lon": 44.7234577, "tags": {"place": "isolated_dwelling"}}, {"type": "node", "id": 8279048000, "lat": 1.815073, "lon": 44.7221921, "tags": {"place": "farm"}}, {"type": "node", "id": 8279048592, "lat": 1.8235419, "lon": 44.7266796, "tags": {"place": "farm"}}, {"type": "node", "id": 8279048835, "lat": 1.8074593, "lon": 44.7262801, "tags": {"place": "farm"}}, {"type": "node", "id": 8279048855, "lat": 1.7934885, "lon": 44.7096876, "tags": {"place": "isolated_dwelling"}}, {"type": "node", "id": 8279048856, "lat": 1.7923603, "lon": 44.7107796, "tags": {"place": "isolated_dwelling"}}, {"type": "node", "id": 8279049030, "lat": 1.7690903, "lon": 44.7276108, "tags": {"place": "isolated_dwelling"}}, {"type": "node", "id": 8280719438, "lat": 1.9706098, "lon": 44.7464289, "tags": {"place": "isolated_dwelling"}}, {"type": "node", "id": 8281272490, "lat": 1.7989336, "lon": 44.6209607, "tags": {"place": "village"}}, {"type": "node", "id": 8283316446, "lat": 1.8053477, "lon": 44.7133591, "tags": {"place": "isolated_dwelling"}}, {"type": "node", "id": 8283316448, "lat": 1.8102454, "lon": 44.7200564, "tags": {"place": "isolated_dwelling"}}, {"type": "node", "id": 8283317177, "lat": 1.7951932, "lon": 44.7246196, "tags": {"place": "isolated_dwelling"}}, {"type": "node", "id": 8283317255, "lat": 1.7823761, "lon": 44.7274144, "tags": {"place": "isolated_dwelling"}}, {"type": "node", "id": 8283609488, "lat": 1.7610132, "lon": 44.6552177, "tags": {"place": "isolated_dwelling"}}, {"type": "node", "id": 8283609645, "lat": 1.8120871, "lon": 44.650098, "tags": {"place": "isolated_dwelling"}}, {"type": "node", "id": 8283768385, "lat": 1.8612134, "lon": 44.722011, "tags": {"place": "isolated_dwelling"}}, {"type": "node", "id": 8284142542, "lat": 1.8935158, "lon": 44.7109762, "tags": {"place": "isolated_dwelling"}}, {"type": "node", "id": 8284142597, "lat": 1.9120205, "lon": 44.7063758, "tags": {"place": "hamlet"}}, {"type": "node", "id": 8284142659, "lat": 1.9222845, "lon": 44.7048391, "tags": {"place": "isolated_dwelling"}}, {"type": "node", "id": 8284142772, "lat": 1.9569036, "lon": 44.7033604, "tags": {"place": "isolated_dwelling"}}, {"type": "node", "id": 8284143004, "lat": 1.9121289, "lon": 44.7005556, "tags": {"place": "isolated_dwelling"}}, {"type": "node", "id": 8284508764, "lat": 1.7674964, "lon": 44.6985202, "tags": {"place": "isolated_dwelling"}}, {"type": "node", "id": 8285017320, "lat": 1.8840321, "lon": 44.6728175, "tags": {"place": "isolated_dwelling"}}, {"type": "node", "id": 8285017351, "lat": 1.8810046, "lon": 44.667995, "tags": {"place": "isolated_dwelling"}}, {"type": "node", "id": 8286933417, "lat": 1.9240177, "lon": 44.6969688, "tags": {"place": "farm"}}, {"type": "node", "id": 8286933455, "lat": 1.9060376, "lon": 44.6926156, "tags": {"place": "isolated_dwelling"}}, {"type": "node", "id": 8286933953, "lat": 1.8944758, "lon": 44.590428, "tags": {"place": "hamlet"}}, {"type": "node", "id": 8286933996, "lat": 1.907636, "lon": 44.6053632, "tags": {"place": "hamlet"}}, {"type": "node", "id": 8286933997, "lat": 1.9072365, "lon": 44.6076537, "tags": {"place": "hamlet"}}, {"type": "node", "id": 8286934772, "lat": 1.8164395, "lon": 44.6908156, "tags": {"place": "isolated_dwelling"}}, {"type": "node", "id": 8288836157, "lat": 1.7697717, "lon": 44.6800781, "tags": {"place": "isolated_dwelling"}}, {"type": "node", "id": 8288836348, "lat": 1.7749887, "lon": 44.6576096, "tags": {"place": "isolated_dwelling"}}, {"type": "node", "id": 8288982156, "lat": 1.8784145, "lon": 44.6265901, "tags": {"place": "isolated_dwelling"}}, {"type": "node", "id": 8289434448, "lat": 1.9071882, "lon": 44.7573992, "tags": {"place": "isolated_dwelling"}}, {"type": "node", "id": 8289446481, "lat": 1.9062312, "lon": 44.743898, "tags": {"place": "hamlet"}}, {"type": "node", "id": 8289452072, "lat": 1.9071697, "lon": 44.5888937, "tags": {"place": "isolated_dwelling"}}, {"type": "node", "id": 8289452319, "lat": 1.8995852, "lon": 44.6003182, "tags": {"place": "isolated_dwelling"}}, {"type": "node", "id": 8289583581, "lat": 1.9221878, "lon": 44.6146156, "tags": {"place": "isolated_dwelling"}}, {"type": "node", "id": 8291498024, "lat": 1.9127518, "lon": 44.7036826, "tags": {"place": "isolated_dwelling"}}, {"type": "node", "id": 8291498799, "lat": 1.9310375, "lon": 44.5867715, "tags": {"place": "isolated_dwelling"}}, {"type": "node", "id": 8291721064, "lat": 1.9141887, "lon": 44.6304754, "tags": {"place": "hamlet"}}, {"type": "node", "id": 8293082710, "lat": 1.8510466, "lon": 44.6878683, "tags": {"place": "isolated_dwelling"}}, {"type": "node", "id": 8293088939, "lat": 1.8620168, "lon": 44.6460534, "tags": {"place": "isolated_dwelling"}}, {"type": "node", "id": 8293088994, "lat": 1.8392079, "lon": 44.7002082, "tags": {"place": "isolated_dwelling"}}, {"type": "node", "id": 8293089118, "lat": 1.8477017, "lon": 44.6870319, "tags": {"place": "isolated_dwelling"}}, {"type": "node", "id": 8293089434, "lat": 1.8663001, "lon": 44.6639698, "tags": {"place": "isolated_dwelling"}}, {"type": "node", "id": 8293350844, "lat": 1.8847531, "lon": 44.6324212, "tags": {"place": "hamlet"}}, {"type": "node", "id": 8294227304, "lat": 1.7840819, "lon": 44.6777295, "tags": {"place": "isolated_dwelling"}}, {"type": "node", "id": 8294697651, "lat": 1.861202, "lon": 44.7220338, "tags": {"place": "isolated_dwelling"}}, {"type": "node", "id": 8294697707, "lat": 1.8446766, "lon": 44.7292201, "tags": {"place": "isolated_dwelling"}}, {"type": "node", "id": 8294697742, "lat": 1.8383543, "lon": 44.7253123, "tags": {"place": "isolated_dwelling"}}, {"type": "node", "id": 8300997431, "lat": 1.8580424, "lon": 44.6194463, "tags": {"place": "isolated_dwelling"}}, {"type": "node", "id": 8301303921, "lat": 1.8637761, "lon": 44.718414, "tags": {"place": "hamlet"}}, {"type": "node", "id": 8324392541, "lat": 1.9184267, "lon": 44.7281581, "tags": {"place": "hamlet"}}]}