{"version": 0.6, "generator": "Overpass API 0.7.62.1 084b4234", "osm3s": {"timestamp_osm_base": "2024-09-30T20:45:58Z", "copyright": "The data included in this document is from www.openstreetmap.org. The data is made available under ODbL."}, "elements": [{"type": "node", "id": 1404221584, "lat": 1.98666, "lon": 43.273571, "tags": {"name": "Turkarey", "pcode": "NA-3809-A29-001", "place": "village", "source": "UNDP - 1997"}}, {"type": "node", "id": 1404221702, "lat": 2.15696, "lon": 43.46791, "tags": {"name": "Mad-Emed", "pcode": "NA-3805-W33-003", "place": "village", "source": "UNDP - 2006"}}, {"type": "node", "id": 1404221709, "lat": 2.21003, "lon": 43.3272, "tags": {"name": "Markaa", "pcode": "NA-3805-U30-001", "place": "hamlet", "source": "UNDP - 2006"}}, {"type": "node", "id": 1404222108, "lat": 2.19486, "lon": 43.308, "tags": {"name": "Aw-Raame", "pcode": "NA-3805-V29-002", "place": "village", "source": "UNDP - 2006"}}, {"type": "node", "id": 1404222245, "lat": 2.17009, "lon": 43.27117, "tags": {"name": "Buur-Midow", "pcode": "NA-3805-V28-001", "place": "hamlet", "source": "UNDP - 2006"}}, {"type": "node", "id": 1404222327, "lat": 2.08711, "lon": 43.50049, "tags": {"name": "Buulo Galool", "pcode": "NA-3806-X01-001", "place": "village", "source": "UNDP - 2006"}}, {"type": "node", "id": 1404222378, "lat": 2.11201, "lon": 43.2156, "tags": {"name": "Kananax", "pcode": "NA-3805-X27-002", "place": "village", "source": "UNDP - 2006"}}, {"type": "node", "id": 1404222641, "lat": 2.1082, "lon": 43.24146, "tags": {"name": "Nibkasaar", "pcode": "NA-3805-X28-001", "place": "village", "source": "UNDP - 2006"}}, {"type": "node", "id": 1404222689, "lat": 2.11064, "lon": 43.52329, "tags": {"alt_name": "Buulo Fulaay;Buulo Falay;Buulo Fulay;Buulla-Fulaay;Bula Fuuley", "name": "Buulo-Fulay", "pcode": "NA-3806-X01-007", "place": "village", "source": "UNDP - 2006, UNDP - 1997"}}, {"type": "node", "id": 1404222897, "lat": 2.1877436, "lon": 43.3604364, "tags": {"alt_name": "Kananax", "name": "Gannana", "pcode": "NA-3805-V30-001", "place": "village", "source": "UNDP - 1997, FSAU"}}, {"type": "node", "id": 1404222909, "lat": 2.16926, "lon": 43.48488, "tags": {"name": "Gaab-Kuule", "pcode": "NA-3805-V33-002", "place": "village", "source": "UNDP - 2006"}}, {"type": "node", "id": 1404223219, "lat": 2.10238, "lon": 43.5084, "tags": {"name": "Fulayley", "pcode": "NA-3806-X01-004", "place": "village", "source": "UNDP - 2006"}}, {"type": "node", "id": 1404223226, "lat": 2.15823, "lon": 43.44714, "tags": {"name": "Weel Lowi", "pcode": "NA-3805-W32-005", "place": "village", "source": "UNDP - 2006"}}, {"type": "node", "id": 1404223265, "lat": 2.08937, "lon": 43.54267, "tags": {"name": "Lowi-Gaduud", "pcode": "NA-3806-X01-002", "place": "village", "source": "UNDP - 2006"}}, {"type": "node", "id": 1404223625, "lat": 2.16295, "lon": 43.46135, "tags": {"name": "Gol-Wiin", "pcode": "NA-3805-W33-007", "place": "village", "source": "UNDP - 2006"}}, {"type": "node", "id": 1404223958, "lat": 2.11609, "lon": 43.50908, "tags": {"name": "Laab-Iidow", "pcode": "NA-3806-X01-008", "place": "village", "source": "UNDP - 2006"}}, {"type": "node", "id": 1404223965, "lat": 2.22465, "lon": 43.32409, "tags": {"name": "Harar Gamow", "pcode": "NA-3805-U30-002", "place": "locality", "source": "UNDP - 2006"}}, {"type": "node", "id": 1404224306, "lat": 2.00723, "lon": 43.16499, "tags": {"name": "Hawal", "pcode": "NA-3805-Z26-001", "place": "village", "source": "FSAU"}}, {"type": "node", "id": 1404224356, "lat": 2.16778, "lon": 43.48376, "tags": {"name": "Hafow Ibrahim", "pcode": "NA-3805-V33-001", "place": "village", "source": "UNDP - 2006"}}, {"type": "node", "id": 1404224423, "lat": 2.14704, "lon": 43.46112, "tags": {"name": "Buulo Nuurow", "pcode": "NA-3805-W33-002", "place": "village", "source": "UNDP - 2006"}}, {"type": "node", "id": 1404224441, "lat": 2.109603, "lon": 43.522143, "tags": {"name": "Aadali-Wiin", "pcode": "NA-3806-X01-006", "place": "village", "source": "UNDP - 2006"}}, {"type": "node", "id": 1404224652, "lat": 2.17957, "lon": 43.27436, "tags": {"name": "Buulo-Cadey", "pcode": "NA-3805-V29-001", "place": "hamlet", "source": "UNDP - 2006"}}, {"type": "node", "id": 1404224655, "lat": 2.19541, "lon": 43.45058, "tags": {"name": "Malin-Cusman", "pcode": "NA-3805-V32-004", "place": "village", "source": "UNDP - 2006"}}, {"type": "node", "id": 1404225151, "lat": 2.1033, "lon": 43.21353, "tags": {"name": "Buulo Gudud", "pcode": "NA-3805-X27-001", "place": "village", "source": "UNDP - 2006"}}, {"type": "node", "id": 1404225340, "lat": 2.16501, "lon": 43.43972, "tags": {"name": "Dooy-Gololey", "pcode": "NA-3805-W32-006", "place": "village", "source": "UNDP - 2006"}}, {"type": "node", "id": 1404225398, "lat": 2.0912396, "lon": 43.5260658, "tags": {"name": "Buulo-Goloosha", "pcode": "NA-3806-X01-003", "place": "village", "source": "UNDP - 2006"}}, {"type": "node", "id": 1404225638, "lat": 2.11673, "lon": 43.49298, "tags": {"name": "Qalan-Qasha", "pcode": "NA-3805-X33-001", "place": "village", "source": "UNDP - 2006"}}, {"type": "node", "id": 1404225671, "lat": 1.95085, "lon": 43.19458, "tags": {"alt_name": "Yaaqbaraway;Yakbarawey", "name": "Yaaq Braawe", "pcode": "NA-3809-B27-001", "place": "village", "source": "UNDP - 1997, FSAU"}}, {"type": "node", "id": 1404225925, "lat": 2.22954, "lon": 43.49147, "tags": {"name": "Iidaw Adow", "pcode": "NA-3805-U33-001", "place": "village", "source": "UNDP - 2006"}}, {"type": "node", "id": 1404226483, "lat": 2.07362, "lon": 43.52516, "tags": {"name": "Buulo Galooley", "pcode": "NA-3806-Y01-001", "place": "village", "source": "UNDP - 2006"}}, {"type": "node", "id": 1404227181, "lat": 2.1639, "lon": 43.52594, "tags": {"alt_name": "Ramudle", "name": "Ramude", "pcode": "NA-3806-W01-003", "place": "village", "source": "UNDP - 2006, UNDP - 1997"}}, {"type": "node", "id": 1404227311, "lat": 2.06668, "lon": 43.20302, "tags": {"name": "Gaabey", "pcode": "NA-3805-Y27-001", "place": "village", "source": "UNDP - 2006"}}, {"type": "node", "id": 1404228725, "lat": 2.18585, "lon": 43.44514, "tags": {"name": "Deg-Garas", "pcode": "NA-3805-V32-002", "place": "village", "source": "UNDP - 2006"}}, {"type": "node", "id": 1404228819, "lat": 2.0159, "lon": 43.43568, "tags": {"name": "Dharqa Baidoa", "pcode": "NA-3805-Z32-001", "place": "village", "source": "FSAU"}}, {"type": "node", "id": 1404228999, "lat": 1.977, "lon": 43.3806, "tags": {"name": "Alol Lamma Gad", "pcode": "NA-3809-A31-002", "place": "village", "source": "UNDP - 1997"}}, {"type": "node", "id": 1404229207, "lat": 2.15983, "lon": 43.49525, "tags": {"name": "Arbow-Doole", "pcode": "NA-3805-W33-005", "place": "village", "source": "UNDP - 2006"}}, {"type": "node", "id": 1404229249, "lat": 2.12633, "lon": 43.48316, "tags": {"name": "Abtugay", "pcode": "NA-3805-W33-001", "place": "village", "source": "UNDP - 2006"}}, {"type": "node", "id": 1404229604, "lat": 2.15246, "lon": 43.5267, "tags": {"name": "Mari-Adow", "pcode": "NA-3806-W01-002", "place": "village", "source": "UNDP - 2006"}}, {"type": "node", "id": 1404229808, "lat": 2.13783, "lon": 43.45419, "tags": {"name": "Lowiiley", "pcode": "NA-3805-W32-002", "place": "village", "source": "UNDP - 2006"}}, {"type": "node", "id": 1404229905, "lat": 1.9297, "lon": 43.301399, "tags": {"name": "Adeile", "pcode": "NA-3809-B29-001", "place": "village", "source": "UNDP - 1997"}}, {"type": "node", "id": 1404230257, "lat": 2.16115, "lon": 43.46398, "tags": {"name": "Qanreedi", "pcode": "NA-3805-W33-006", "place": "village", "source": "UNDP - 2006"}}, {"type": "node", "id": 1404230454, "lat": 2.22444, "lon": 43.52485, "tags": {"name": "Dhega Bulle", "pcode": "NA-3806-U01-001", "place": "village", "source": "UNDP - 2006"}}, {"type": "node", "id": 1404231044, "lat": 2.13443, "lon": 43.45227, "tags": {"name": "Wanayki", "pcode": "NA-3805-W32-001", "place": "village", "source": "UNDP - 2006"}}, {"type": "node", "id": 1404231048, "lat": 2.12757, "lon": 43.23979, "tags": {"name": "Aanoy", "pcode": "NA-3805-W28-001", "place": "village", "source": "UNDP - 2006"}}, {"type": "node", "id": 1404231243, "lat": 2.15955, "lon": 43.2051, "tags": {"name": "Xirmo-Waamo", "pcode": "NA-3805-W27-001", "place": "village", "source": "UNDP - 2006"}}, {"type": "node", "id": 1404231401, "lat": 2.20558, "lon": 43.5231, "tags": {"name": "Gomorshe", "pcode": "NA-3806-V01-001", "place": "village", "source": "UNDP - 2006"}}, {"type": "node", "id": 1404231514, "lat": 2.16404, "lon": 43.48447, "tags": {"name": "Moroogow", "pcode": "NA-3805-W33-008", "place": "village", "source": "UNDP - 2006"}}, {"type": "node", "id": 1404231595, "lat": 2.03782, "lon": 43.20776, "tags": {"name": "Sarmaanley", "pcode": "NA-3805-Z27-001", "place": "village", "source": "UNDP - 2006"}}, {"type": "node", "id": 1404232039, "lat": 2.13787, "lon": 43.51654, "tags": {"name": "Garasley", "pcode": "NA-3806-W01-001", "place": "village", "source": "UNDP - 2006"}}, {"type": "node", "id": 1404232223, "lat": 2.179, "lon": 43.249901, "tags": {"name": "Wereg", "pcode": "NA-3805-V28-002", "place": "village", "source": "UNDP - 1997"}}, {"type": "node", "id": 1404232375, "lat": 2.08107, "lon": 43.49891, "tags": {"name": "Dha-Dhaab", "pcode": "NA-3805-Y33-001", "place": "village", "source": "UNDP - 2006"}}, {"type": "node", "id": 1404232442, "lat": 2.1092942, "lon": 43.537759, "tags": {"name": "Buulo-Jaiid", "pcode": "NA-3806-X01-005", "place": "village", "source": "UNDP - 2006"}}, {"type": "node", "id": 1404232610, "lat": 2.07336, "lon": 43.21534, "tags": {"name": "Qabaale", "pcode": "NA-3805-Y27-002", "place": "village", "source": "UNDP - 2006"}}, {"type": "node", "id": 1404232660, "lat": 2.16668, "lon": 43.42691, "tags": {"name": "Moori-Sagaari", "pcode": "NA-3805-V32-001", "place": "isolated_dwelling", "source": "UNDP - 2006"}}, {"type": "node", "id": 1404232811, "lat": 2.24842, "lon": 43.2221, "tags": {"alt_name": "Qodqod", "name": "Qod-Qod", "pcode": "NA-3805-U27-001", "place": "village", "source": "UNDP - 2006, FSAU"}}, {"type": "node", "id": 1404232863, "lat": 2.18888, "lon": 43.44781, "tags": {"name": "Midow Aari", "pcode": "NA-3805-V32-003", "place": "village", "source": "UNDP - 2006"}}, {"type": "node", "id": 1404233119, "lat": 1.9181, "lon": 43.397301, "tags": {"name": "Uar Lechin", "pcode": "NA-3809-B31-001", "place": "village", "source": "UNDP - 1997"}}, {"type": "node", "id": 1404233243, "lat": 2.15382, "lon": 43.44726, "tags": {"name": "Buulo-Galooley", "pcode": "NA-3805-W32-004", "place": "village", "source": "UNDP - 2006"}}, {"type": "node", "id": 1404233291, "lat": 2.07368, "lon": 43.1627, "tags": {"alt_name": "Warabow", "name": "Waraabow", "pcode": "NA-3805-Y26-001", "place": "village", "source": "FSAU"}}, {"type": "node", "id": 1404233412, "lat": 2.14975, "lon": 43.44593, "tags": {"name": "Geba-Gebaga", "pcode": "NA-3805-W32-003", "place": "village", "source": "UNDP - 2006"}}, {"type": "node", "id": 1404233499, "lat": 2.15889, "lon": 43.49604, "tags": {"name": "Gorgor", "pcode": "NA-3805-W33-004", "place": "village", "source": "UNDP - 1997"}}, {"type": "node", "id": 1404233723, "lat": 1.967, "lon": 43.367199, "tags": {"name": "Af Ed", "pcode": "NA-3809-A31-001", "place": "village", "source": "UNDP - 1997"}}, {"type": "node", "id": 10883730382, "lat": 2.2734739, "lon": 43.2113796, "tags": {"place": "hamlet"}}, {"type": "node", "id": 10883736651, "lat": 2.2658892, "lon": 43.2187021, "tags": {"place": "hamlet"}}, {"type": "node", "id": 10883736681, "lat": 2.2591353, "lon": 43.2055566, "tags": {"place": "isolated_dwelling"}}, {"type": "node", "id": 10883736702, "lat": 2.2613678, "lon": 43.2049102, "tags": {"place": "isolated_dwelling"}}, {"type": "node", "id": 10883993517, "lat": 2.258228, "lon": 43.1659444, "tags": {"place": "isolated_dwelling"}}, {"type": "node", "id": 10883993558, "lat": 2.2563332, "lon": 43.1677937, "tags": {"place": "isolated_dwelling"}}, {"type": "node", "id": 10973529089, "lat": 2.2622603, "lon": 43.234857, "tags": {"place": "isolated_dwelling"}}]}