{"version": 0.6, "generator": "Overpass API 0.7.62.1 084b4234", "osm3s": {"timestamp_osm_base": "2024-09-30T23:39:44Z", "copyright": "The data included in this document is from www.openstreetmap.org. The data is made available under ODbL."}, "elements": [{"type": "node", "id": 3129337862, "lat": 6.0860472, "lon": 45.3679245, "tags": {"alt_name": "Axmad Gureey,Axmed Gurey,Axmad Gurey, Axmed Guray, Axmad Guray", "name": "Ahmed Gurey", "place": "village", "waterway": "water_point"}}, {"type": "node", "id": 10034980535, "lat": 6.2740582, "lon": 45.138995, "tags": {"alt_name": "Caleen", "name": "Aleen", "place": "village"}}, {"type": "node", "id": 10224731545, "lat": 6.2166284, "lon": 45.349012, "tags": {"name": "Kunaso", "place": "village"}}, {"type": "node", "id": 10224731554, "lat": 6.2569499, "lon": 45.2445796, "tags": {"name": "Higlowayn", "place": "locality"}}, {"type": "node", "id": 10244202769, "lat": 6.1588955, "lon": 45.4808885, "tags": {"name": "Juge", "place": "village"}}, {"type": "node", "id": 10310207110, "lat": 6.1759053, "lon": 45.2987117, "tags": {"alt_name": "Fadhigaraadle", "name": "Fadhigaradle", "place": "town", "waterway": "water_point"}}, {"type": "node", "id": 10310207113, "lat": 6.3469953, "lon": 45.4780486, "tags": {"alt_name": "Ceel Baxay", "name": "El Bahay", "old_name": "Gurueragu", "place": "village", "waterway": "water_point"}}, {"type": "node", "id": 10310207122, "lat": 6.2555014, "lon": 45.3849761, "tags": {"alt_name": "Laasocaanood;Laasacaano;Laasocaano", "name": "Lasoano", "place": "town", "waterway": "water_point"}}]}