{"version": 0.6, "generator": "Overpass API 0.7.62.1 084b4234", "osm3s": {"timestamp_osm_base": "2024-09-30T22:35:15Z", "copyright": "The data included in this document is from www.openstreetmap.org. The data is made available under ODbL."}, "elements": [{"type": "node", "id": 1104301153, "lat": 5.7820547, "lon": 39.3064295, "tags": {"name": "Konkoma", "place": "neighbourhood", "source": "300TDI"}}, {"type": "node", "id": 1104331823, "lat": 5.9112911, "lon": 39.6387861, "tags": {"alt_name": "Welabu", "name": "Bidre", "place": "town", "source": "GeoDatabase"}}, {"type": "node", "id": 1150698272, "lat": 6.11667, "lon": 39.35, "tags": {"is_in:country": "Ethiopia", "is_in:country_code": "ET", "name": "Meda Welmo Bota", "place": "locality", "source": "GeoDatabase"}}, {"type": "node", "id": 1150882618, "lat": 5.88333, "lon": 39.65, "tags": {"is_in:country": "Ethiopia", "is_in:country_code": "ET", "name": "Addadi", "place": "locality", "source": "GeoDatabase"}}, {"type": "node", "id": 1150882647, "lat": 6.13333, "lon": 39.36667, "tags": {"is_in:country": "Ethiopia", "is_in:country_code": "ET", "name": "Lome", "place": "locality", "source": "GeoDatabase"}}, {"type": "node", "id": 1150886565, "lat": 5.75, "lon": 39.31666, "tags": {"is_in:country": "Ethiopia", "is_in:country_code": "ET", "name": "Uadara", "place": "locality", "source": "GeoDatabase"}}, {"type": "node", "id": 1150902037, "lat": 6.13333, "lon": 39.4, "tags": {"is_in:country": "Ethiopia", "is_in:country_code": "ET", "name": "Oborso", "place": "locality", "source": "GeoDatabase"}}, {"type": "node", "id": 1150907054, "lat": 5.88333, "lon": 39.46667, "tags": {"is_in:country": "Ethiopia", "is_in:country_code": "ET", "name": "Malca Cogobbe", "place": "locality", "source": "GeoDatabase"}}, {"type": "node", "id": 1150910719, "lat": 5.78333, "lon": 39.68333, "tags": {"is_in:country": "Ethiopia", "is_in:country_code": "ET", "name": "Meda Welabu", "place": "locality", "source": "GeoDatabase"}}, {"type": "node", "id": 1150910797, "lat": 5.75, "lon": 39.4, "tags": {"is_in:country": "Ethiopia", "is_in:country_code": "ET", "name": "Wadera Bota", "place": "locality", "source": "GeoDatabase"}}, {"type": "node", "id": 1150920447, "lat": 6.06667, "lon": 39.5, "tags": {"is_in:country": "Ethiopia", "is_in:country_code": "ET", "name": "Lomi Shelek'O", "place": "locality", "source": "GeoDatabase"}}, {"type": "node", "id": 1150929959, "lat": 6.01667, "lon": 39.63333, "tags": {"is_in:country": "Ethiopia", "is_in:country_code": "ET", "name": "Guie Dibbe", "place": "locality", "source": "GeoDatabase"}}, {"type": "node", "id": 1150935101, "lat": 5.98333, "lon": 39.38333, "tags": {"is_in:country": "Ethiopia", "is_in:country_code": "ET", "name": "Jia", "place": "locality", "source": "GeoDatabase"}}, {"type": "node", "id": 1150938703, "lat": 5.93333, "lon": 39.61667, "tags": {"is_in:country": "Ethiopia", "is_in:country_code": "ET", "name": "Oda", "place": "locality", "source": "GeoDatabase"}}, {"type": "node", "id": 1150946050, "lat": 5.93333, "lon": 39.46667, "tags": {"is_in:country": "Ethiopia", "is_in:country_code": "ET", "name": "Cormos", "place": "locality", "source": "GeoDatabase"}}, {"type": "node", "id": 1150973505, "lat": 5.88333, "lon": 39.71667, "tags": {"is_in:country": "Ethiopia", "is_in:country_code": "ET", "name": "Matago", "place": "locality", "source": "GeoDatabase"}}, {"type": "node", "id": 3166563381, "lat": 5.9734176, "lon": 39.5158796, "tags": {"place": "village"}}, {"type": "node", "id": 3166570769, "lat": 6.0418381, "lon": 39.5250888, "tags": {"place": "hamlet"}}, {"type": "node", "id": 3168617243, "lat": 5.7733444, "lon": 39.6383346, "tags": {"place": "hamlet"}}, {"type": "node", "id": 3168618299, "lat": 5.7425999, "lon": 39.5241125, "tags": {"place": "hamlet"}}, {"type": "node", "id": 3206337536, "lat": 5.8248781, "lon": 39.5353122, "tags": {"place": "village"}}, {"type": "node", "id": 3206337553, "lat": 5.8670188, "lon": 39.5193572, "tags": {"place": "village"}}, {"type": "node", "id": 3206343265, "lat": 5.9680572, "lon": 39.6844242, "tags": {"place": "hamlet"}}, {"type": "node", "id": 3856735496, "lat": 5.9248873, "lon": 39.5239198, "tags": {"place": "hamlet"}}, {"type": "node", "id": 9238774998, "lat": 5.7773139, "lon": 39.3105652, "tags": {"name": "Wadera", "place": "town"}}, {"type": "node", "id": 11124622053, "lat": 5.7417966, "lon": 39.5254729}, {"type": "node", "id": 11124622054, "lat": 5.7417869, "lon": 39.525478}, {"type": "node", "id": 11124622055, "lat": 5.7417769, "lon": 39.525488}, {"type": "node", "id": 11124622056, "lat": 5.7417669, "lon": 39.5254944}, {"type": "node", "id": 11124622057, "lat": 5.7417595, "lon": 39.5255101}, {"type": "node", "id": 11124622058, "lat": 5.7417539, "lon": 39.5255195}, {"type": "node", "id": 11124622059, "lat": 5.7417542, "lon": 39.5255313}, {"type": "node", "id": 11124622060, "lat": 5.7417679, "lon": 39.525546}, {"type": "node", "id": 11124622061, "lat": 5.7417829, "lon": 39.5255541}, {"type": "node", "id": 11124622062, "lat": 5.7417932, "lon": 39.5255517}, {"type": "node", "id": 11124622063, "lat": 5.7418149, "lon": 39.5255464}, {"type": "node", "id": 11124622064, "lat": 5.7418319, "lon": 39.5255252}, {"type": "node", "id": 11124622065, "lat": 5.7418416, "lon": 39.5255058}, {"type": "node", "id": 11124622066, "lat": 5.7418149, "lon": 39.5254729}, {"type": "way", "id": 1199394148, "nodes": [11124622066, 11124622065, 11124622064, 11124622063, 11124622062, 11124622061, 11124622060, 11124622059, 11124622058, 11124622057, 11124622056, 11124622055, 11124622054, 11124622053, 11124622066], "tags": {"place": "hamlet"}}]}