{"version": 0.6, "generator": "Overpass API 0.7.62.1 084b4234", "osm3s": {"timestamp_osm_base": "2024-09-30T20:05:00Z", "copyright": "The data included in this document is from www.openstreetmap.org. The data is made available under ODbL."}, "elements": [{"type": "node", "id": 1404222129, "lat": 8.814568, "lon": 47.420982, "tags": {"name": "Jidbaale", "pcode": "NC-3816-E21-001", "place": "hamlet", "source": "GTZ - 2002"}}, {"type": "node", "id": 1404222687, "lat": 8.7294, "lon": 47.40142, "tags": {"alt_name": "Saaca Gabagabo", "name": "Saha-Gebogebo", "pcode": "NC-3816-G20-001", "place": "village", "source": "UNDP - 2006, FSAU"}}, {"type": "node", "id": 1404222765, "lat": 8.542969, "lon": 47.483103, "tags": {"name": "Gambade", "pcode": "NC-3816-L22-001", "place": "hamlet", "source": "GTZ - 2002"}}, {"type": "node", "id": 1404224477, "lat": 8.474261, "lon": 47.355194, "tags": {"alt_name": "Las Anod;Laas Caanood;Laas Anood;Lasanod;Laas Aanood", "name": "Laascaanood \u0644\u0627\u0633 \u0639\u0627\u0646\u0648\u062f", "name:ar": "\u0644\u0627\u0633 \u0639\u0627\u0646\u0648\u062f", "name:de": "Las Anod", "name:en": "Las Anod", "name:es": "Las Anod", "name:fr": "Las Anod", "name:it": "Las Anod", "name:pt": "Las Anod", "name:ru": "\u041b\u0430\u0441-\u0410\u043d\u043e\u0434", "name:uk": "\u041b\u0430\u0441'\u0430\u043d\u043e\u0434", "pcode": "NC-3816-N19-001", "place": "town", "source": "GTZ - 2002, UNDP - 1997, FSAU", "wikidata": "Q1017223", "wikipedia": "ar:\u0644\u0627\u0633 \u0639\u0627\u0646\u0648\u062f"}}, {"type": "node", "id": 1404224773, "lat": 8.55577, "lon": 47.70696, "tags": {"name": "Higlo-Fiqi", "pcode": "NC-3816-L27-001", "place": "village", "source": "UNDP - 2006"}}, {"type": "node", "id": 1404225107, "lat": 8.567305, "lon": 47.643818, "tags": {"name": "Tuko Raq", "pcode": "NC-3816-L26-001", "place": "hamlet", "source": "GTZ - 2002"}}, {"type": "node", "id": 1404225890, "lat": 8.41156, "lon": 47.48808, "tags": {"name": "Gacandar", "pcode": "NC-3816-Q22-001", "place": "village", "source": "UNDP - 2006"}}, {"type": "node", "id": 1404226833, "lat": 8.4238614, "lon": 47.5600721, "tags": {"name": "Buq-Xaar", "pcode": "NC-3816-P24-001", "place": "locality", "source": "UNDP - 2006"}}, {"type": "node", "id": 1404227039, "lat": 8.488843, "lon": 47.510303, "tags": {"name": "Dal Yar", "pcode": "NC-3816-N23-001", "place": "locality", "source": "GTZ - 2002"}}, {"type": "node", "id": 1404228728, "lat": 8.48157, "lon": 47.35566, "tags": {"name": "Howl-Wadaag", "pcode": "NC-3816-N19-003", "place": "suburb", "source": "UNDP - 2006"}}, {"type": "node", "id": 1404230204, "lat": 8.47964, "lon": 47.37957, "tags": {"name": "Daraymadoobe", "pcode": "NC-3816-N20-001", "place": "village", "source": "FSAU"}}, {"type": "node", "id": 1404230894, "lat": 8.56421, "lon": 47.6002, "tags": {"alt_name": "Gambarre", "name": "Gambare", "pcode": "NC-3816-L25-001", "place": "village", "source": "UNDP - 2006, FSAU"}}, {"type": "node", "id": 1404230908, "lat": 8.582319, "lon": 47.498167, "tags": {"name": "Laas Magugle", "pcode": "NC-3816-L22-002", "place": "village", "source": "GTZ - 2002, UNDP - 1997"}}, {"type": "node", "id": 1404230931, "lat": 8.47511, "lon": 47.36239, "tags": {"name": "Wadajir \u0648\u062f\u0627\u062c\u064a\u0631", "name:ar": "\u0648\u062f\u0627\u062c\u064a\u0631", "name:en": "Wadajir", "pcode": "NC-3816-N19-005", "place": "suburb", "source": "UNDP - 2006"}}, {"type": "node", "id": 1404232994, "lat": 8.47057, "lon": 47.35125, "tags": {"name": "Far-Xaskule", "pcode": "NC-3816-N19-002", "place": "suburb", "source": "UNDP - 2006"}}, {"type": "node", "id": 1404233627, "lat": 8.47791, "lon": 47.35847, "tags": {"name": "Gol-Khatumo", "pcode": "NC-3816-N19-004", "place": "suburb", "source": "UNDP - 2006"}}, {"type": "node", "id": 4703813822, "lat": 8.5360926, "lon": 47.4797141, "tags": {"name": "Kala-Jeex", "pcode": "NC-3816-M22-001", "place": "village", "source": "UNDP - 2006"}}, {"type": "node", "id": 5176120047, "lat": 8.5115026, "lon": 47.6047282, "tags": {"name": "buurta gambadhe", "place": "locality"}}, {"type": "node", "id": 10001890900, "lat": 8.4480462, "lon": 47.4114269, "tags": {"fixme": "name missing", "place": "isolated_dwelling"}}, {"type": "node", "id": 10002387394, "lat": 8.447098, "lon": 47.424865, "tags": {"place": "locality"}}, {"type": "node", "id": 10002387858, "lat": 8.4413985, "lon": 47.4160946, "tags": {"fixme": "name missing", "place": "isolated_dwelling"}}, {"type": "node", "id": 10004322424, "lat": 8.4983811, "lon": 47.4393636, "tags": {"place": "locality"}}, {"type": "node", "id": 10007146627, "lat": 8.4768966, "lon": 47.6437397, "tags": {"fixme": "name missing", "place": "isolated_dwelling"}}, {"type": "node", "id": 10007146646, "lat": 8.4791237, "lon": 47.6460658, "tags": {"fixme": "name missing", "place": "isolated_dwelling"}}, {"type": "node", "id": 10019034993, "lat": 8.5623353, "lon": 47.6066379, "tags": {"fixme": "name missing", "place": "hamlet"}}, {"type": "node", "id": 10019035004, "lat": 8.5621302, "lon": 47.6055056, "tags": {"fixme": "name missing", "place": "hamlet"}}, {"type": "node", "id": 10019035034, "lat": 8.5657975, "lon": 47.604315, "tags": {"fixme": "name missing", "place": "hamlet"}}, {"type": "node", "id": 10019035081, "lat": 8.5655136, "lon": 47.6082632, "tags": {"fixme": "name missing", "place": "hamlet"}}, {"type": "node", "id": 10019035172, "lat": 8.5647968, "lon": 47.6150143, "tags": {"fixme": "name missing", "place": "isolated_dwelling"}}, {"type": "node", "id": 10019098526, "lat": 8.5259738, "lon": 47.5629285, "tags": {"alt_name": "Dal Yar", "name": "Dalyare", "name:so": "Dalyare", "place": "village"}}, {"type": "node", "id": 10029833334, "lat": 8.5390411, "lon": 47.5516993, "tags": {"fixme": "name missing", "place": "isolated_dwelling"}}, {"type": "node", "id": 10030261806, "lat": 8.5009766, "lon": 47.5607469, "tags": {"fixme": "name missing", "place": "isolated_dwelling"}}, {"type": "node", "id": 10030261815, "lat": 8.5024064, "lon": 47.5610483, "tags": {"fixme": "name missing", "place": "isolated_dwelling"}}, {"type": "node", "id": 10030261842, "lat": 8.5102602, "lon": 47.5684221, "tags": {"fixme": "name missing", "place": "isolated_dwelling"}}, {"type": "node", "id": 10031329819, "lat": 8.511215, "lon": 47.5486044, "tags": {"fixme": "name missing", "place": "isolated_dwelling"}}, {"type": "node", "id": 10031329850, "lat": 8.5079837, "lon": 47.5513737, "tags": {"fixme": "name missing", "place": "isolated_dwelling"}}, {"type": "node", "id": 10042331909, "lat": 8.4893109, "lon": 47.5604931, "tags": {"fixme": "name missing", "place": "isolated_dwelling"}}, {"type": "node", "id": 10042331999, "lat": 8.4792955, "lon": 47.5585044, "tags": {"fixme": "name missing", "place": "isolated_dwelling"}}, {"type": "node", "id": 10042332018, "lat": 8.4859577, "lon": 47.5598441, "tags": {"fixme": "name missing", "place": "isolated_dwelling"}}, {"type": "node", "id": 10042332036, "lat": 8.4978155, "lon": 47.5607048, "tags": {"fixme": "name missing", "place": "isolated_dwelling"}}, {"type": "node", "id": 10042332057, "lat": 8.4997057, "lon": 47.5602772, "tags": {"fixme": "name missing", "place": "isolated_dwelling"}}, {"type": "node", "id": 10042332278, "lat": 8.4934597, "lon": 47.5533845, "tags": {"fixme": "name missing", "place": "isolated_dwelling"}}, {"type": "node", "id": 10044028148, "lat": 8.5025589, "lon": 47.5645995, "tags": {"fixme": "name missing", "place": "isolated_dwelling"}}, {"type": "node", "id": 10058198062, "lat": 8.5165252, "lon": 47.4855843, "tags": {"fixme": "name missing", "place": "isolated_dwelling"}}, {"type": "node", "id": 10058198114, "lat": 8.5146325, "lon": 47.4791563, "tags": {"fixme": "name missing", "place": "isolated_dwelling"}}, {"type": "node", "id": 10186244597, "lat": 8.5156258, "lon": 47.3954053, "tags": {"fixme": "name missing", "place": "hamlet"}}]}