{"version": 0.6, "generator": "Overpass API 0.7.62.1 084b4234", "osm3s": {"timestamp_osm_base": "2024-09-30T20:05:00Z", "copyright": "The data included in this document is from www.openstreetmap.org. The data is made available under ODbL."}, "elements": [{"type": "node", "id": 1150899146, "lat": 8.01667, "lon": 46.9, "tags": {"name": "Dudubo", "place": "locality", "source": "GeoDatabase"}}, {"type": "node", "id": 1150949520, "lat": 8.1683439, "lon": 46.5043331, "tags": {"name": "Gararo'i", "place": "village", "source": "GeoDatabase"}}, {"type": "node", "id": 1150957396, "lat": 8.15639, "lon": 46.48944, "tags": {"name": "Bisak", "place": "locality", "source": "GeoDatabase"}}, {"type": "node", "id": 1150979681, "lat": 8.03139, "lon": 46.59555, "tags": {"is_in:country_code": "ET", "is_in:county": "Ethiopia", "name": "Aia Bentih", "place": "locality", "source": "GeoDatabase"}}, {"type": "node", "id": 1404221482, "lat": 8.173037, "lon": 46.502336, "tags": {"name": "Xamar Lagu Xidh", "pcode": "NC-3816-V01-002", "place": "village", "source": "GTZ - 2002"}}, {"type": "node", "id": 1404221504, "lat": 8.328302, "lon": 46.597995, "tags": {"alt_name": "Musa Ghudeir", "name": "Muusa Qudaar", "pcode": "NC-3816-S03-001", "place": "locality", "source": "GTZ - 2002, UNDP - 1997"}}, {"type": "node", "id": 1404221597, "lat": 8.11625, "lon": 46.8916, "tags": {"name": "Gabdho Haways", "pcode": "NC-3816-X09-001", "place": "locality", "source": "UNDP - 2006"}}, {"type": "node", "id": 1404221657, "lat": 8.1689874, "lon": 46.504038, "tags": {"name": "Qararo", "pcode": "NC-3816-V01-003", "place": "village", "source": "UNDP - 2006"}}, {"type": "node", "id": 1404221704, "lat": 8.351277, "lon": 46.508395, "tags": {"alt_name": "Sarmaantuqo", "name": "Sarmaan Tuugo", "pcode": "NC-3816-R01-001", "place": "village", "source": "GTZ - 2002, UNDP - 1997"}}, {"type": "node", "id": 1404221937, "lat": 8.2532262, "lon": 46.6338802, "tags": {"name": "Dhoobo Gadud", "pcode": "NC-3816-T03-001", "place": "hamlet", "source": "UNDP - 2006"}}, {"type": "node", "id": 1404222289, "lat": 8.250504, "lon": 46.669131, "tags": {"alt_name": "Dabo Kabud", "name": "Deebo Qabad", "pcode": "NC-3816-T04-001", "place": "locality", "source": "GTZ - 2002, UNDP - 1997"}}, {"type": "node", "id": 1404222764, "lat": 8.26792, "lon": 46.86915, "tags": {"name": "Gocondhaale", "pcode": "NC-3816-T09-001", "place": "village", "source": "UNDP - 2006"}}, {"type": "node", "id": 1404223040, "lat": 8.35185, "lon": 46.51033, "tags": {"name": "Goonle", "pcode": "NC-3816-R01-003", "place": "village", "source": "UNDP - 2006, GTZ - 2002, UNDP - 1997"}}, {"type": "node", "id": 1404224046, "lat": 8.247589, "lon": 46.750514, "tags": {"alt_name": "Higleh Gorder", "name": "Higlo Goodir", "pcode": "NC-3816-U06-001", "place": "locality", "source": "GTZ - 2002, UNDP - 1997"}}, {"type": "node", "id": 1404225378, "lat": 8.32779, "lon": 46.480991, "tags": {"name": "Cudanlay", "pcode": "NC-3815-S33-001", "place": "village", "source": "UNDP - 1997"}}, {"type": "node", "id": 1404225403, "lat": 8.201008, "lon": 46.530649, "tags": {"alt_name": "Baleh Dandan", "name": "Balli Dandan", "pcode": "NC-3816-V01-001", "place": "village", "source": "GTZ - 2002, UNDP - 1997"}}, {"type": "node", "id": 1404225863, "lat": 8.36836, "lon": 46.53861, "tags": {"name": "Banyaal", "pcode": "NC-3816-R01-002", "place": "village", "source": "UNDP - 2006"}}, {"type": "node", "id": 1404225908, "lat": 8.27128, "lon": 46.67369, "tags": {"name": "Godoble", "pcode": "NC-3816-T04-002", "place": "locality", "source": "UNDP - 2006"}}, {"type": "node", "id": 1404225983, "lat": 8.24143, "lon": 46.53534, "tags": {"name": "Ilma Dandan", "pcode": "NC-3816-U01-001", "place": "village", "source": "UNDP - 2006"}}, {"type": "node", "id": 1404226666, "lat": 8.32831, "lon": 46.48186, "tags": {"name": "Sarmanyo", "pcode": "NC-3815-S33-002", "place": "village", "source": "UNDP - 2006"}}, {"type": "node", "id": 1404229062, "lat": 8.25427, "lon": 46.8624, "tags": {"name": "Geed Dheer", "pcode": "NC-3816-T08-001", "place": "village", "source": "UNDP - 2006"}}, {"type": "node", "id": 1404230262, "lat": 8.31936, "lon": 46.57564, "tags": {"name": "Dab-Magawshe", "pcode": "NC-3816-S02-001", "place": "locality", "source": "UNDP - 2006"}}, {"type": "node", "id": 1404231225, "lat": 8.08616, "lon": 46.75012, "tags": {"alt_name": "Balli Cad", "name": "Bali Cad", "pcode": "NC-3816-X06-001", "place": "village", "source": "UNDP - 2006, GTZ - 2002"}}, {"type": "node", "id": 1404231553, "lat": 8.25982, "lon": 46.66368, "tags": {"name": "Xaare", "pcode": "NC-3816-T04-003", "place": "village", "source": "UNDP - 2006"}}, {"type": "node", "id": 1404233176, "lat": 8.375667, "lon": 46.621676, "tags": {"alt_name": "Dhallaamocune", "name": "Dhallaamo Cune", "pcode": "NC-3816-Q03-001", "place": "village", "source": "UNDP - 2006, GTZ - 2002, UNDP - 1997"}}, {"type": "node", "id": 1404233191, "lat": 8.366239, "lon": 46.579344, "tags": {"name": "Jaale", "pcode": "NC-3816-R02-002", "place": "locality", "source": "UNDP - 2006"}}, {"type": "node", "id": 1404233664, "lat": 8.32738, "lon": 46.48082, "tags": {"alt_name": "Sarmaantuqo", "name": "Sarmaan Tuke", "pcode": "NC-3815-S33-003", "place": "village", "source": "UNDP - 2006, GTZ - 2002, UNDP - 1997"}}, {"type": "node", "id": 1404234012, "lat": 8.21886, "lon": 46.646645, "tags": {"alt_name": "Dogo Kabud", "name": "Diriye Kubaal", "pcode": "NC-3816-U04-001", "place": "locality", "source": "GTZ - 2002, UNDP - 1997"}}, {"type": "node", "id": 9152910070, "lat": 8.381305, "lon": 46.6822347, "tags": {"place": "isolated_dwelling"}}, {"type": "node", "id": 9152978562, "lat": 8.369956, "lon": 46.7452081, "tags": {"place": "hamlet"}}, {"type": "node", "id": 9152980704, "lat": 8.3317906, "lon": 46.7359381, "tags": {"place": "isolated_dwelling"}}, {"type": "node", "id": 9152999014, "lat": 8.3006492, "lon": 46.6973232, "tags": {"place": "village"}}, {"type": "node", "id": 9153086866, "lat": 8.2933852, "lon": 46.6971829, "tags": {"place": "isolated_dwelling"}}, {"type": "node", "id": 9153121806, "lat": 8.2931463, "lon": 46.7035607, "tags": {"place": "isolated_dwelling"}}, {"type": "node", "id": 9153133965, "lat": 8.3095767, "lon": 46.7115591, "tags": {"place": "isolated_dwelling"}}, {"type": "node", "id": 9160815422, "lat": 8.2761418, "lon": 46.7113392, "tags": {"place": "isolated_dwelling"}}, {"type": "node", "id": 9160863872, "lat": 8.2500269, "lon": 46.6358791, "tags": {"place": "isolated_dwelling"}}, {"type": "node", "id": 9160863899, "lat": 8.2482847, "lon": 46.6404212, "tags": {"place": "isolated_dwelling"}}, {"type": "node", "id": 9163397567, "lat": 8.2181231, "lon": 46.5550993, "tags": {"place": "isolated_dwelling"}}, {"type": "node", "id": 9163403242, "lat": 8.2550938, "lon": 46.6363753, "tags": {"place": "isolated_dwelling"}}, {"type": "node", "id": 9163403630, "lat": 8.262925, "lon": 46.5995978, "tags": {"place": "isolated_dwelling"}}, {"type": "node", "id": 9163419636, "lat": 8.1535699, "lon": 46.6384013, "tags": {"place": "hamlet"}}, {"type": "node", "id": 9164254345, "lat": 8.1528822, "lon": 46.6014969, "tags": {"place": "isolated_dwelling"}}, {"type": "node", "id": 9164327650, "lat": 8.1505562, "lon": 46.633857, "tags": {"place": "isolated_dwelling"}}, {"type": "node", "id": 9167704575, "lat": 8.2091011, "lon": 46.5375264, "tags": {"place": "isolated_dwelling"}}, {"type": "node", "id": 9167780310, "lat": 8.1584146, "lon": 46.5410398, "tags": {"place": "isolated_dwelling"}}, {"type": "node", "id": 9167780362, "lat": 8.1615091, "lon": 46.5483098, "tags": {"place": "isolated_dwelling"}}, {"type": "node", "id": 9167793463, "lat": 8.1724765, "lon": 46.5238928, "tags": {"place": "isolated_dwelling"}}, {"type": "node", "id": 9167815483, "lat": 8.2156509, "lon": 46.480462, "tags": {"place": "isolated_dwelling"}}, {"type": "node", "id": 9168215530, "lat": 8.2431698, "lon": 46.4821515, "tags": {"place": "isolated_dwelling"}}, {"type": "node", "id": 9168215560, "lat": 8.2413923, "lon": 46.4874578, "tags": {"place": "isolated_dwelling"}}, {"type": "node", "id": 9442976994, "lat": 8.1545693, "lon": 46.7711967, "tags": {"place": "hamlet"}}, {"type": "node", "id": 9448464193, "lat": 8.1342892, "lon": 46.6044867, "tags": {"place": "village"}}, {"type": "node", "id": 9448464194, "lat": 8.1360315, "lon": 46.6042773, "tags": {"place": "village"}}]}