{"version": 0.6, "generator": "Overpass API 0.7.62.1 084b4234", "osm3s": {"timestamp_osm_base": "2024-09-30T22:18:58Z", "copyright": "The data included in this document is from www.openstreetmap.org. The data is made available under ODbL."}, "elements": [{"type": "node", "id": 1150882359, "lat": 8.61667, "lon": 40.26667, "tags": {"is_in:country": "Ethiopia", "is_in:country_code": "ET", "name": "Molticha Terara", "place": "locality", "source": "GeoDatabase"}}, {"type": "node", "id": 1150882638, "lat": 8.81667, "lon": 40.13333, "tags": {"is_in:country": "Ethiopia", "name": "Weldoyi Terara", "place": "locality", "source": "GeoDatabase"}}, {"type": "node", "id": 1150883625, "lat": 8.5, "lon": 40.15, "tags": {"is_in:country": "Ethiopia", "is_in:country_code": "ET", "name": "Danse", "place": "locality", "source": "GeoDatabase"}}, {"type": "node", "id": 1150883720, "lat": 8.7, "lon": 39.98333, "tags": {"is_in:country": "Ethiopia", "is_in:country_code": "ET", "name": "Kalata", "place": "locality", "source": "GeoDatabase"}}, {"type": "node", "id": 1150884315, "lat": 8.7849056, "lon": 40.2832684, "tags": {"is_in:country": "Ethiopia", "name": "Ch'Orora", "place": "locality", "source": "GeoDatabase"}}, {"type": "node", "id": 1150887300, "lat": 8.46667, "lon": 40.0, "tags": {"is_in:country": "Ethiopia", "is_in:country_code": "ET", "name": "Sengo Medhane `Alem Bete Kristiyan", "place": "locality", "source": "GeoDatabase"}}, {"type": "node", "id": 1150887465, "lat": 8.66667, "lon": 39.95, "tags": {"is_in:country": "Ethiopia", "is_in:country_code": "ET", "name": "Denhu", "place": "locality", "source": "GeoDatabase"}}, {"type": "node", "id": 1150898081, "lat": 8.83333, "lon": 40.3, "tags": {"is_in:country": "Ethiopia", "name": "Hardin", "place": "locality", "source": "GeoDatabase"}}, {"type": "node", "id": 1150898386, "lat": 8.45, "lon": 39.93333, "tags": {"is_in:country": "Ethiopia", "is_in:country_code": "ET", "name": "Sorbaye Shet'", "place": "locality", "source": "GeoDatabase"}}, {"type": "node", "id": 1150898466, "lat": 8.65, "lon": 40.08333, "tags": {"is_in:country": "Ethiopia", "is_in:country_code": "ET", "name": "Hench'Ar", "place": "locality", "source": "GeoDatabase"}}, {"type": "node", "id": 1150898527, "lat": 8.76667, "lon": 40.05, "tags": {"is_in:country": "Ethiopia", "name": "Korbe", "place": "locality", "source": "GeoDatabase"}}, {"type": "node", "id": 1150898709, "lat": 8.55, "lon": 40.06666, "tags": {"is_in:country": "Ethiopia", "is_in:country_code": "ET", "name": "Irecha Mika'El Bete Kristiyan", "place": "locality", "source": "GeoDatabase"}}, {"type": "node", "id": 1150899021, "lat": 8.6, "lon": 40.25, "tags": {"is_in:country": "Ethiopia", "is_in:country_code": "ET", "name": "Gambela", "place": "locality", "source": "GeoDatabase"}}, {"type": "node", "id": 1150902030, "lat": 8.83333, "lon": 39.95, "tags": {"is_in:country": "Ethiopia", "name": "Merti Yesikwar Ageda Tekil", "place": "locality", "source": "GeoDatabase"}}, {"type": "node", "id": 1150903263, "lat": 8.48333, "lon": 39.95, "tags": {"is_in:country": "Ethiopia", "is_in:country_code": "ET", "name": "Gora Shet'", "place": "locality", "source": "GeoDatabase"}}, {"type": "node", "id": 1150903505, "lat": 8.71667, "lon": 40.16667, "tags": {"is_in:country": "Ethiopia", "is_in:country_code": "ET", "name": "Taleta", "place": "locality", "source": "GeoDatabase"}}, {"type": "node", "id": 1150909606, "lat": 8.7, "lon": 40.3, "tags": {"is_in:country": "Ethiopia", "is_in:country_code": "ET", "name": "Wefi", "place": "locality", "source": "GeoDatabase"}}, {"type": "node", "id": 1150909923, "lat": 8.52472, "lon": 40.03333, "tags": {"is_in:country": "Ethiopia", "is_in:country_code": "ET", "name": "Teferi Birhan", "place": "locality", "source": "GeoDatabase"}}, {"type": "node", "id": 1150910347, "lat": 8.61667, "lon": 40.21667, "tags": {"is_in:country": "Ethiopia", "is_in:country_code": "ET", "name": "Segeriya Yeinch'Et Mesent'Ekiya", "place": "locality", "source": "GeoDatabase"}}, {"type": "node", "id": 1150912395, "lat": 8.63333, "lon": 39.96667, "tags": {"is_in:country": "Ethiopia", "is_in:country_code": "ET", "name": "Dale Shet'", "place": "locality", "source": "GeoDatabase"}}, {"type": "node", "id": 1150912771, "lat": 8.68333, "lon": 40.23333, "tags": {"is_in:country": "Ethiopia", "is_in:country_code": "ET", "name": "Ch'Elelek'A", "place": "locality", "source": "GeoDatabase"}}, {"type": "node", "id": 1150923615, "lat": 8.6, "lon": 40.18333, "tags": {"is_in:country": "Ethiopia", "is_in:country_code": "ET", "name": "Lik'I", "place": "locality", "source": "GeoDatabase"}}, {"type": "node", "id": 1150932093, "lat": 8.58333, "lon": 40.08333, "tags": {"is_in:country": "Ethiopia", "is_in:country_code": "ET", "name": "Deleta Gebri'El Bete Kristiyan", "place": "locality", "source": "GeoDatabase"}}, {"type": "node", "id": 1150932509, "lat": 8.66667, "lon": 40.25, "tags": {"is_in:country": "Ethiopia", "is_in:country_code": "ET", "name": "Gebel Gugu Magna", "place": "locality", "source": "GeoDatabase"}}, {"type": "node", "id": 1150932543, "lat": 8.78333, "lon": 40.08333, "tags": {"is_in:country": "Ethiopia", "name": "Ch'Orora", "place": "locality", "source": "GeoDatabase"}}, {"type": "node", "id": 1150933779, "lat": 8.6275, "lon": 40.03333, "tags": {"is_in:country": "Ethiopia", "is_in:country_code": "ET", "name": "Tinsae Berhan", "place": "locality", "source": "GeoDatabase"}}, {"type": "node", "id": 1150941798, "lat": 8.81667, "lon": 40.26667, "tags": {"is_in:country": "Ethiopia", "name": "Germama", "place": "locality", "source": "GeoDatabase"}}, {"type": "node", "id": 1150943306, "lat": 8.6, "lon": 39.91667, "tags": {"is_in:country": "Ethiopia", "is_in:country_code": "ET", "name": "K'Ere Bota", "place": "locality", "source": "GeoDatabase"}}, {"type": "node", "id": 1150944142, "lat": 8.75, "lon": 40.06666, "tags": {"is_in:country": "Ethiopia", "is_in:country_code": "ET", "name": "Huk'E Shet'", "place": "locality", "source": "GeoDatabase"}}, {"type": "node", "id": 1150949625, "lat": 8.78333, "lon": 40.25, "tags": {"is_in:country": "Ethiopia", "name": "Gobo K'Urk'Ura", "place": "locality", "source": "GeoDatabase"}}, {"type": "node", "id": 1150950059, "lat": 8.51667, "lon": 40.03333, "tags": {"is_in:country": "Ethiopia", "is_in:country_code": "ET", "name": "Assaco", "place": "locality", "source": "GeoDatabase"}}, {"type": "node", "id": 1150950786, "lat": 8.48333, "lon": 40.23333, "tags": {"is_in:country": "Ethiopia", "is_in:country_code": "ET", "name": "Derba", "place": "locality", "source": "GeoDatabase"}}, {"type": "node", "id": 1150955870, "lat": 8.61667, "lon": 39.96667, "tags": {"is_in:country": "Ethiopia", "is_in:country_code": "ET", "name": "K'Ersa Shet'", "place": "locality", "source": "GeoDatabase"}}, {"type": "node", "id": 1150956217, "lat": 8.63333, "lon": 40.13333, "tags": {"is_in:country": "Ethiopia", "is_in:country_code": "ET", "name": "Dana", "place": "locality", "source": "GeoDatabase"}}, {"type": "node", "id": 1150956461, "lat": 8.68333, "lon": 40.01667, "tags": {"is_in:country": "Ethiopia", "is_in:country_code": "ET", "name": "Ch'Ulul Shet'", "place": "locality", "source": "GeoDatabase"}}, {"type": "node", "id": 1150972372, "lat": 8.46667, "lon": 40.3, "tags": {"is_in:country": "Ethiopia", "is_in:country_code": "ET", "name": "Bir'Esa", "place": "locality", "source": "GeoDatabase"}}, {"type": "node", "id": 1150975001, "lat": 8.8, "lon": 39.93333, "tags": {"is_in:country": "Ethiopia", "name": "Wangaye Shet'", "place": "locality", "source": "GeoDatabase"}}, {"type": "node", "id": 1151003756, "lat": 8.85, "lon": 40.28333, "tags": {"is_in:country": "Ethiopia", "name": "Belo", "place": "locality", "source": "GeoDatabase"}}, {"type": "node", "id": 1151004312, "lat": 8.46667, "lon": 39.91667, "tags": {"is_in:country": "Ethiopia", "is_in:country_code": "ET", "name": "Hele", "place": "locality", "source": "GeoDatabase"}}, {"type": "node", "id": 1151004809, "lat": 8.56667, "lon": 40.1, "tags": {"is_in:country": "Ethiopia", "is_in:country_code": "ET", "name": "Soste", "place": "locality", "source": "GeoDatabase"}}, {"type": "node", "id": 1151005033, "lat": 8.76667, "lon": 40.23333, "tags": {"is_in:country": "Ethiopia", "is_in:country_code": "ET", "name": "Serdiya", "place": "locality", "source": "GeoDatabase"}}, {"type": "node", "id": 1923947081, "lat": 8.8335202, "lon": 40.280643, "tags": {"place": "hamlet"}}, {"type": "node", "id": 1923947518, "lat": 8.8580989, "lon": 40.2874075, "tags": {"place": "village"}}, {"type": "node", "id": 1923975983, "lat": 8.7763256, "lon": 40.3042349, "tags": {"place": "village"}}, {"type": "node", "id": 1923976063, "lat": 8.7650494, "lon": 40.2814251, "tags": {"place": "village"}}, {"type": "node", "id": 1923976097, "lat": 8.7635906, "lon": 40.2877983, "tags": {"place": "village"}}, {"type": "node", "id": 1923976585, "lat": 8.7809008, "lon": 40.307078, "tags": {"place": "village"}}, {"type": "node", "id": 1923976667, "lat": 8.7713685, "lon": 40.2897134, "tags": {"place": "village"}}, {"type": "node", "id": 1923977172, "lat": 8.736153, "lon": 40.2786548, "tags": {"place": "village"}}, {"type": "node", "id": 1923977493, "lat": 8.8052656, "lon": 40.2941499, "tags": {"place": "hamlet"}}, {"type": "node", "id": 1923977616, "lat": 8.8195097, "lon": 40.2713191, "tags": {"place": "village"}}, {"type": "node", "id": 1924029599, "lat": 8.6978317, "lon": 40.3089242, "tags": {"name": "Wefe", "place": "town"}}, {"type": "node", "id": 1924032065, "lat": 8.731678, "lon": 40.2834003, "tags": {"place": "village"}}, {"type": "node", "id": 1924032109, "lat": 8.7267363, "lon": 40.3006577, "tags": {"place": "village"}}, {"type": "node", "id": 1924032634, "lat": 8.682917, "lon": 40.2773823, "tags": {"name": "Medegede", "place": "village"}}, {"type": "node", "id": 1986072568, "lat": 8.5381759, "lon": 40.2828424, "tags": {"place": "village"}}, {"type": "node", "id": 2082054210, "lat": 8.6521389, "lon": 40.130997, "tags": {"place": "village"}}, {"type": "node", "id": 2082054942, "lat": 8.6514335, "lon": 40.0915789, "tags": {"place": "village"}}, {"type": "node", "id": 2203883653, "lat": 8.6935224, "lon": 40.2364297, "tags": {"place": "village"}}, {"type": "node", "id": 3286621883, "lat": 8.5569577, "lon": 40.2968951, "tags": {"place": "hamlet"}}]}