{"version": 0.6, "generator": "Overpass API 0.7.62.1 084b4234", "osm3s": {"timestamp_osm_base": "2024-09-30T23:59:05Z", "copyright": "The data included in this document is from www.openstreetmap.org. The data is made available under ODbL."}, "elements": [{"type": "node", "id": 1150892746, "lat": 6.48861, "lon": 44.43611, "tags": {"is_in:country_code": "ET", "is_in:county": "Ethiopia", "name": "Gurbo", "place": "locality", "source": "GeoDatabase"}}, {"type": "node", "id": 1150897001, "lat": 6.16667, "lon": 44.3, "tags": {"is_in:country_code": "ET", "is_in:county": "Ethiopia", "name": "Deberiag", "place": "locality", "source": "GeoDatabase"}}, {"type": "node", "id": 1150899054, "lat": 6.46667, "lon": 44.36667, "tags": {"is_in:country_code": "ET", "is_in:county": "Ethiopia", "name": "Girta Gulet Scini", "place": "locality", "source": "GeoDatabase"}}, {"type": "node", "id": 1150919316, "lat": 6.25, "lon": 44.33333, "tags": {"is_in:country_code": "ET", "is_in:county": "Ethiopia", "name": "Uelgarti", "place": "locality", "source": "GeoDatabase"}}, {"type": "node", "id": 1150923087, "lat": 6.48972, "lon": 44.43555, "tags": {"is_in:country_code": "ET", "is_in:county": "Ethiopia", "name": "Gurbo", "place": "locality", "source": "GeoDatabase"}}, {"type": "node", "id": 1150926001, "lat": 6.48972, "lon": 44.15472, "tags": {"is_in:country_code": "ET", "is_in:county": "Ethiopia", "name": "Bur Devengedis", "place": "locality", "source": "GeoDatabase", "wikidata": "Q24032471"}}, {"type": "node", "id": 1150961591, "lat": 6.43972, "lon": 44.34361, "tags": {"is_in:country_code": "ET", "is_in:county": "Ethiopia", "name": "Faf", "place": "locality", "source": "GeoDatabase"}}, {"type": "node", "id": 1150970476, "lat": 6.35278, "lon": 44.43583, "tags": {"is_in:country_code": "ET", "is_in:county": "Ethiopia", "name": "Gel' Kudel'", "place": "locality", "source": "GeoDatabase"}}, {"type": "node", "id": 1150977876, "lat": 6.34389, "lon": 44.43389, "tags": {"is_in:country_code": "ET", "is_in:county": "Ethiopia", "name": "Dudgubleh", "place": "locality", "source": "GeoDatabase"}}, {"type": "node", "id": 10597342538, "lat": 6.3133497, "lon": 44.4290757, "tags": {"name": "Har Ad", "place": "village"}}]}