{"version": 0.6, "generator": "Overpass API 0.7.62.1 084b4234", "osm3s": {"timestamp_osm_base": "2024-09-30T19:31:59Z", "copyright": "The data included in this document is from www.openstreetmap.org. The data is made available under ODbL."}, "elements": [{"type": "node", "id": 1150698318, "lat": 10.26667, "lon": 42.76667, "tags": {"is_in:country": "Ethiopia", "is_in:country_code": "ET", "name": "El Boldo", "place": "locality", "source": "GeoDatabase"}}, {"type": "node", "id": 1150883384, "lat": 10.06667, "lon": 42.98333, "tags": {"name": "Alaua", "place": "locality", "source": "GeoDatabase", "wikidata": "Q55604554"}}, {"type": "node", "id": 1150887158, "lat": 10.07444, "lon": 42.85778, "tags": {"is_in:country": "Ethiopia", "is_in:country_code": "ET", "name": "Gocti", "place": "locality", "source": "GeoDatabase"}}, {"type": "node", "id": 1150887466, "lat": 10.2, "lon": 42.78333, "tags": {"is_in:country": "Ethiopia", "is_in:country_code": "ET", "name": "Obol", "place": "locality", "source": "GeoDatabase"}}, {"type": "node", "id": 1150903125, "lat": 10.13333, "lon": 42.93333, "tags": {"name": "Darablei", "place": "locality", "source": "GeoDatabase"}}, {"type": "node", "id": 1150908198, "lat": 10.08333, "lon": 43.0, "tags": {"name": "Qoljeit", "place": "locality", "source": "GeoDatabase"}}, {"type": "node", "id": 1150935153, "lat": 10.12056, "lon": 42.72583, "tags": {"is_in:country": "Ethiopia", "is_in:country_code": "ET", "name": "Uadi Soca", "place": "locality", "source": "GeoDatabase"}}, {"type": "node", "id": 1150942542, "lat": 10.05, "lon": 43.01667, "tags": {"name": "Merak", "place": "locality", "source": "GeoDatabase"}}, {"type": "node", "id": 1150955326, "lat": 10.03333, "lon": 43.03333, "tags": {"name": "Sattaua", "place": "locality", "source": "GeoDatabase"}}, {"type": "node", "id": 1150978644, "lat": 10.1, "lon": 42.75778, "tags": {"is_in:country": "Ethiopia", "is_in:country_code": "ET", "name": "Odah Shet'", "place": "locality", "source": "GeoDatabase"}}, {"type": "node", "id": 1404222798, "lat": 10.29565, "lon": 43.050941, "tags": {"name": "Dacar Budhuq", "pcode": "NC-3805-S24-001", "place": "locality", "source": "GTZ - 2002"}}, {"type": "node", "id": 1404223760, "lat": 10.14037, "lon": 43.03069, "tags": {"name": "Cabaasa", "pcode": "NC-3805-W23-003", "place": "village", "source": "UNDP - 2006"}}, {"type": "node", "id": 1404224544, "lat": 10.14538, "lon": 43.01461, "tags": {"name": "Culaacule", "pcode": "NC-3805-W23-002", "place": "hamlet", "source": "UNDP - 2006"}}, {"type": "node", "id": 1404225039, "lat": 10.29694, "lon": 42.963837, "tags": {"alt_name": "Arsoos Seel", "name": "Ceel Baxay", "pcode": "NC-3805-S22-001", "place": "village", "source": "UNDP - 2006, GTZ - 2002, UNDP - 1997"}}, {"type": "node", "id": 1404225599, "lat": 10.3253477, "lon": 42.8367437, "tags": {"alt_name": "Hariirad", "name": "Xariirad", "pcode": "NC-3805-S19-001", "place": "village", "source": "UNDP - 2006, GTZ - 2002, UNDP - 1997"}}, {"type": "node", "id": 1404226025, "lat": 10.24006, "lon": 43.05132, "tags": {"name": "Gargoorey", "pcode": "NC-3805-U24-002", "place": "locality", "source": "UNDP - 2006"}}, {"type": "node", "id": 1404226350, "lat": 10.03256, "lon": 43.03858, "tags": {"name": "Maraalay, Maraaley", "pcode": "NC-3805-Z23-001", "place": "village", "source": "UNDP - 2006, UNDP - 1997"}}, {"type": "node", "id": 1404227834, "lat": 10.29747, "lon": 42.89111, "tags": {"alt_name": "Aroor Sayl", "name": "Aroor-Seel", "pcode": "NC-3805-S20-001", "place": "hamlet", "source": "UNDP - 2006, GTZ - 2002, UNDP - 1997"}}, {"type": "node", "id": 1404229976, "lat": 10.06292, "lon": 43.06172, "tags": {"alt_name": "Jir Jir", "name": "Jirjir", "pcode": "NC-3805-Y24-001", "place": "village", "source": "UNDP - 2006, GTZ - 2002"}}, {"type": "node", "id": 1404230181, "lat": 10.14561, "lon": 43.01433, "tags": {"name": "Dhidhiid", "pcode": "NC-3805-W23-001", "place": "hamlet", "source": "UNDP - 2006"}}, {"type": "node", "id": 1404230415, "lat": 10.09149, "lon": 43.00922, "tags": {"name": "Quljed", "pcode": "NC-3805-X23-001", "place": "village", "source": "UNDP - 2006"}}, {"type": "node", "id": 1404232935, "lat": 10.2395104, "lon": 43.052977, "tags": {"name": "Dix-Gudban", "pcode": "NC-3805-U24-001", "place": "village", "source": "GTZ - 2002"}}, {"type": "node", "id": 1404233233, "lat": 10.25045, "lon": 42.90251, "tags": {"alt_name": "Daray Dheere", "name": "Darya Dheere", "pcode": "NC-3805-T20-001", "place": "hamlet", "source": "UNDP - 2006, GTZ - 2002"}}, {"type": "node", "id": 1404233423, "lat": 10.0630169, "lon": 43.0617853, "tags": {"name": "Dibriyo Maleh (Maraaley)", "pcode": "NC-3805-Y24-003", "place": "village", "source": "UNDP - 2006"}}, {"type": "node", "id": 8930881950, "lat": 10.2356353, "lon": 43.0511257, "tags": {"place": "isolated_dwelling"}}, {"type": "node", "id": 9513601703, "lat": 10.1859403, "lon": 42.8042812, "tags": {"place": "hamlet"}}]}