{"version": 0.6, "generator": "Overpass API 0.7.62.1 084b4234", "osm3s": {"timestamp_osm_base": "2024-09-30T19:03:00Z", "copyright": "The data included in this document is from www.openstreetmap.org. The data is made available under ODbL."}, "elements": [{"type": "node", "id": 44926841, "lat": 1.9665633, "lon": 35.0833115, "tags": {"is_in": "West pokot,Kenya", "name": "Murua Korg", "place": "village", "wikidata": "Q6939774"}}, {"type": "node", "id": 44927041, "lat": 1.9666481, "lon": 35.0832696, "tags": {"is_in": "West pokot,Kenya", "name": "Morukorg", "place": "village"}}, {"type": "node", "id": 44930570, "lat": 1.9833, "lon": 35.05, "tags": {"is_in": "West pokot,Kenya", "name": "Lossom", "place": "village", "wikidata": "Q6683769"}}, {"type": "node", "id": 44930908, "lat": 1.9666, "lon": 35.1166, "tags": {"is_in": "West pokot,Kenya", "name": "Kukurna", "place": "village", "wikidata": "Q6442605"}}, {"type": "node", "id": 44930938, "lat": 1.7833, "lon": 35.05, "tags": {"created_by": "JOSM", "is_in": "West pokot,Kenya", "name": "Kunyao", "place": "village"}}, {"type": "node", "id": 44997273, "lat": 1.9666, "lon": 35.1333, "tags": {"is_in": "West pokot,Kenya", "name": "Kamnunguuawa", "place": "village", "wikidata": "Q6358899"}}, {"type": "node", "id": 44997517, "lat": 1.9666, "lon": 35.1333, "tags": {"created_by": "JOSM", "is_in": "West pokot,Kenya", "name": "Kamunguuawa", "place": "village"}}, {"type": "node", "id": 45006423, "lat": 1.9666132, "lon": 35.0833596, "tags": {"is_in": "West pokot,Kenya", "name": "Burgich", "place": "village", "wikidata": "Q4998650"}}, {"type": "node", "id": 2145024184, "lat": 1.8489493, "lon": 35.0403733, "tags": {"place": "village"}}, {"type": "node", "id": 2229117497, "lat": 1.766667, "lon": 34.85, "tags": {"GNS:dsg_code": "PPL", "GNS:dsg_string": "populated place", "GNS:id": "-1729366", "fixme": "no population estimate available, defaulted to village", "name": "Kotabok", "place": "village", "source": "GNS"}}, {"type": "node", "id": 2229117502, "lat": 1.95, "lon": 34.9, "tags": {"GNS:dsg_code": "PPL", "GNS:dsg_string": "populated place", "GNS:id": "-1730723", "fixme": "no population estimate available, defaulted to village", "name": "Kotulel", "place": "village", "source": "GNS"}}, {"type": "node", "id": 2229120127, "lat": 2.1, "lon": 34.9, "tags": {"GNS:dsg_code": "PPL", "GNS:dsg_string": "populated place", "GNS:id": "-1732602", "fixme": "no population estimate available, defaulted to village", "name": "Murut", "place": "village", "source": "GNS"}}, {"type": "node", "id": 4000176308, "lat": 1.953842, "lon": 34.9457755, "tags": {"name": "Amudat", "place": "town", "wikidata": "Q4748920", "wikipedia": "en:Amudat"}}, {"type": "node", "id": 10201985600, "lat": 1.951802, "lon": 34.9220471, "tags": {"name": "Tingas", "place": "village", "source": "Ubos 2014"}}, {"type": "node", "id": 10201985601, "lat": 2.0080819, "lon": 34.9426484, "tags": {"name": "Ngongosowon", "place": "village", "source": "Ubos 2014"}}, {"type": "node", "id": 10201985602, "lat": 1.9355593, "lon": 34.9688682, "tags": {"name": "Natera A", "place": "village", "source": "Ubos 2014"}}, {"type": "node", "id": 10201985603, "lat": 1.9562487, "lon": 34.969812, "tags": {"name": "Naremit", "place": "village", "source": "Ubos 2014"}}, {"type": "node", "id": 10201985604, "lat": 1.9947244, "lon": 34.9628566, "tags": {"name": "Mogongwo", "place": "village", "source": "Ubos 2014"}}, {"type": "node", "id": 10201985605, "lat": 1.9464644, "lon": 34.9649127, "tags": {"name": "Lochengenge", "place": "village", "source": "Ubos 2014"}}, {"type": "node", "id": 10201985606, "lat": 1.9591364, "lon": 34.9446257, "tags": {"name": "Loburin", "place": "village", "source": "Ubos 2014"}}, {"type": "node", "id": 10201985607, "lat": 1.948407, "lon": 34.9564817, "tags": {"name": "Kongoror", "place": "village", "source": "Ubos 2014"}}, {"type": "node", "id": 10201985608, "lat": 1.9547357, "lon": 34.9916537, "tags": {"name": "Kapanyirit", "place": "village", "source": "Ubos 2014"}}, {"type": "node", "id": 10201985609, "lat": 1.9948454, "lon": 34.976304, "tags": {"name": "Kanaroyon", "place": "village", "source": "Ubos 2014"}}, {"type": "node", "id": 10201985610, "lat": 1.9762068, "lon": 34.9180263, "tags": {"name": "Cheporoyo", "place": "village", "source": "Ubos 2014"}}, {"type": "node", "id": 10201985611, "lat": 1.9631295, "lon": 34.8687996, "tags": {"name": "Chemakang", "place": "village", "source": "Ubos 2014"}}, {"type": "node", "id": 10201985612, "lat": 1.9424157, "lon": 34.9709626, "tags": {"name": "Apamuto", "place": "village", "source": "Ubos 2014"}}, {"type": "node", "id": 10201985613, "lat": 2.0014487, "lon": 34.897131, "tags": {"name": "Angarap", "place": "village", "source": "Ubos 2014"}}, {"type": "node", "id": 10201985614, "lat": 1.9928672, "lon": 34.9330669, "tags": {"name": "Akukus", "place": "village", "source": "Ubos 2014"}}, {"type": "node", "id": 10201985615, "lat": 1.9718965, "lon": 34.9791501, "tags": {"name": "Agwalinga", "place": "village", "source": "Ubos 2014"}}, {"type": "node", "id": 10202037301, "lat": 1.9528834, "lon": 34.9387013, "tags": {"name": "Ward A", "place": "village", "source": "Ubos 2014"}}, {"type": "node", "id": 10202037302, "lat": 1.9560489, "lon": 34.9476433, "tags": {"name": "Kapetawoi", "place": "village", "source": "Ubos 2014"}}, {"type": "node", "id": 10202037303, "lat": 1.9396268, "lon": 34.9600598, "tags": {"name": "Lochengenge", "place": "village", "source": "Ubos 2014"}}, {"type": "node", "id": 10202037304, "lat": 1.9372579, "lon": 34.9510703, "tags": {"name": "Kukayim", "place": "village", "source": "Ubos 2014"}}, {"type": "node", "id": 10202037305, "lat": 1.930139, "lon": 34.959478, "tags": {"name": "Chepurchoch", "place": "village", "source": "Ubos 2014"}}, {"type": "node", "id": 10202037306, "lat": 1.944793, "lon": 34.9432773, "tags": {"name": "Senior Quarters Cell", "place": "village", "source": "Ubos 2014"}}, {"type": "node", "id": 10202037307, "lat": 1.9503007, "lon": 34.9479286, "tags": {"name": "Amudat Ward B", "place": "village", "source": "Ubos 2014"}}, {"type": "node", "id": 10202037308, "lat": 1.9639919, "lon": 34.9585641, "tags": {"name": "Kamkon", "place": "village", "source": "Ubos 2014"}}, {"type": "node", "id": 10202037309, "lat": 1.9634723, "lon": 34.9464089, "tags": {"name": "Kakres", "place": "village", "source": "Ubos 2014"}}, {"type": "node", "id": 10202037310, "lat": 1.9664648, "lon": 34.9395769, "tags": {"name": "Jumbe", "place": "village", "source": "Ubos 2014"}}, {"type": "node", "id": 10202037311, "lat": 1.9642659, "lon": 34.9322481, "tags": {"name": "Chemotongot", "place": "village", "source": "Ubos 2014"}}, {"type": "node", "id": 10202037312, "lat": 1.9701368, "lon": 34.9433711, "tags": {"name": "Akumoit", "place": "village", "source": "Ubos 2014"}}, {"type": "node", "id": 10202074016, "lat": 2.1139008, "lon": 34.8425546, "tags": {"name": "Lomeripus", "place": "village", "source": "Ubos 2014"}}, {"type": "node", "id": 10202079818, "lat": 2.1169458, "lon": 34.820759, "tags": {"name": "Iwakai", "place": "village", "source": "Ubos 2014"}}, {"type": "node", "id": 10202079819, "lat": 2.1408747, "lon": 34.8592231, "tags": {"name": "Grazing Area", "place": "village", "source": "Ubos 2014"}}, {"type": "node", "id": 10202079820, "lat": 2.111124, "lon": 34.8083032, "tags": {"name": "Babatian", "place": "village", "source": "Ubos 2014"}}, {"type": "node", "id": 10202079821, "lat": 2.1004794, "lon": 34.8481949, "tags": {"name": "Achorichor", "place": "village", "source": "Ubos 2014"}}, {"type": "node", "id": 10202079822, "lat": 2.1129178, "lon": 34.9496647, "tags": {"name": "Nakipon", "place": "village", "source": "Ubos 2014"}}, {"type": "node", "id": 10202079823, "lat": 2.0939641, "lon": 34.8718574, "tags": {"name": "Moruit", "place": "village", "source": "Ubos 2014"}}, {"type": "node", "id": 10202079824, "lat": 2.1498247, "lon": 34.9250366, "tags": {"name": "Lopedot", "place": "village", "source": "Ubos 2014"}}, {"type": "node", "id": 10202079825, "lat": 2.0347604, "lon": 34.9212893, "tags": {"name": "Grazing / Hunting Area", "place": "village", "source": "Ubos 2014"}}, {"type": "node", "id": 10202079826, "lat": 2.1395907, "lon": 34.9491067, "tags": {"name": "Ausukyon", "place": "village", "source": "Ubos 2014"}}, {"type": "node", "id": 10202079827, "lat": 2.0707624, "lon": 34.9383293, "tags": {"name": "Akorikeya", "place": "village", "source": "Ubos 2014"}}, {"type": "node", "id": 10202079828, "lat": 2.0809789, "lon": 34.8955846, "tags": {"name": "Abiliep", "place": "village", "source": "Ubos 2014"}}, {"type": "node", "id": 10202089417, "lat": 1.7451824, "lon": 34.905184, "tags": {"name": "Pillil", "place": "village", "source": "Ubos 2014"}}, {"type": "node", "id": 10202089418, "lat": 1.8111845, "lon": 34.8937519, "tags": {"name": "Nakwangamoru", "place": "village", "source": "Ubos 2014"}}, {"type": "node", "id": 10202089419, "lat": 1.7752071, "lon": 34.9609865, "tags": {"name": "Motany", "place": "village", "source": "Ubos 2014"}}, {"type": "node", "id": 10202089421, "lat": 1.7539889, "lon": 34.8457184, "tags": {"name": "Losuko", "place": "village", "source": "Ubos 2014"}}, {"type": "node", "id": 10202089422, "lat": 1.8268154, "lon": 34.8749305, "tags": {"name": "Lorwairwai", "place": "village", "source": "Ubos 2014"}}, {"type": "node", "id": 10202089423, "lat": 1.774243, "lon": 34.8793696, "tags": {"name": "Lomunyan", "place": "village", "source": "Ubos 2014"}}, {"type": "node", "id": 10202089424, "lat": 1.7472435, "lon": 34.9739745, "tags": {"name": "Lomasinik", "place": "village", "source": "Ubos 2014"}}, {"type": "node", "id": 10202089425, "lat": 1.7418098, "lon": 34.848248, "tags": {"name": "Kongodowa", "place": "village", "source": "Ubos 2014"}}, {"type": "node", "id": 10202089426, "lat": 1.7934783, "lon": 34.8820731, "tags": {"name": "Koketai", "place": "village", "source": "Ubos 2014"}}, {"type": "node", "id": 10202089428, "lat": 1.7471295, "lon": 34.8759866, "tags": {"name": "Kodiaka", "place": "village", "source": "Ubos 2014"}}, {"type": "node", "id": 10202089429, "lat": 1.764223, "lon": 34.8641892, "tags": {"name": "Katabok", "place": "village", "source": "Ubos 2014"}}, {"type": "node", "id": 10202089432, "lat": 1.7538356, "lon": 34.8236413, "tags": {"name": "Kadekele", "place": "village", "source": "Ubos 2014"}}, {"type": "node", "id": 10202089435, "lat": 1.8270239, "lon": 34.9150947, "tags": {"name": "Akore", "place": "village", "source": "Ubos 2014"}}, {"type": "node", "id": 10202089436, "lat": 1.9403269, "lon": 34.9869424, "tags": {"name": "Natera B", "place": "village", "source": "Ubos 2014"}}, {"type": "node", "id": 10202089437, "lat": 1.9102995, "lon": 34.941438, "tags": {"name": "Napao", "place": "village", "source": "Ubos 2014"}}, {"type": "node", "id": 10202089438, "lat": 1.8746359, "lon": 34.9823183, "tags": {"name": "Nakasepan", "place": "village", "source": "Ubos 2014"}}, {"type": "node", "id": 10202089439, "lat": 1.9099307, "lon": 34.9681952, "tags": {"name": "Nabokotom", "place": "village", "source": "Ubos 2014"}}, {"type": "node", "id": 10202089440, "lat": 1.8712772, "lon": 35.0097461, "tags": {"name": "Motui", "place": "village", "source": "Ubos 2014"}}, {"type": "node", "id": 10202089441, "lat": 1.9310381, "lon": 34.9949665, "tags": {"name": "Lokodi", "place": "village", "source": "Ubos 2014"}}, {"type": "node", "id": 10202089442, "lat": 1.9002375, "lon": 35.0121725, "tags": {"is_in:country_code": "UG", "name": "Katakar", "place": "village", "source": "Ubos 2014"}}, {"type": "node", "id": 10202089443, "lat": 1.8867074, "lon": 35.0220304, "tags": {"is_in:country_code": "UG", "name": "Kasikiroi", "place": "village", "source": "Ubos 2014"}}, {"type": "node", "id": 10202089444, "lat": 1.8632597, "lon": 34.9954447, "tags": {"name": "Kasiasa", "place": "village", "source": "Ubos 2014"}}, {"type": "node", "id": 10202089445, "lat": 1.9106689, "lon": 34.9852676, "tags": {"name": "Kariwo", "place": "village", "source": "Ubos 2014"}}, {"type": "node", "id": 10202089446, "lat": 1.8721957, "lon": 34.9491912, "tags": {"name": "Kakadama", "place": "village", "source": "Ubos 2014"}}, {"type": "node", "id": 10202089447, "lat": 1.8525876, "lon": 34.9066456, "tags": {"name": "Grazing Area", "place": "village", "source": "Ubos 2014"}}, {"type": "node", "id": 10202089448, "lat": 1.8858488, "lon": 34.9710844, "tags": {"name": "Chepoy", "place": "village", "source": "Ubos 2014"}}, {"type": "node", "id": 10202089449, "lat": 1.9115009, "lon": 35.0035801, "tags": {"name": "Chepongos", "place": "village", "source": "Ubos 2014"}}, {"type": "node", "id": 10202089450, "lat": 1.8444801, "lon": 34.9750966, "tags": {"name": "Chemotong", "place": "village", "source": "Ubos 2014"}}, {"type": "node", "id": 10202089451, "lat": 1.8552492, "lon": 34.9914485, "tags": {"name": "Alakas", "place": "village", "source": "Ubos 2014"}}, {"type": "node", "id": 10202089452, "lat": 1.8019199, "lon": 34.9956305, "tags": {"name": "Akoule", "place": "village", "source": "Ubos 2014"}}, {"type": "node", "id": 10904592942, "lat": 2.0139636, "lon": 34.7871588, "tags": {"name": "Grazing Area", "place": "village", "source": "UBOS_2021"}}, {"type": "node", "id": 10904592956, "lat": 1.8972126, "lon": 34.787372, "tags": {"name": "Nachukut", "place": "village", "source": "UBOS_2021"}}, {"type": "node", "id": 10904592970, "lat": 1.7590141, "lon": 34.7827039, "tags": {"name": "Akoror", "place": "village", "source": "UBOS_2021"}}]}