{"version": 0.6, "generator": "Overpass API 0.7.62.1 084b4234", "osm3s": {"timestamp_osm_base": "2024-09-30T23:23:26Z", "copyright": "The data included in this document is from www.openstreetmap.org. The data is made available under ODbL."}, "elements": [{"type": "node", "id": 1150894018, "lat": 7.23333, "lon": 46.4, "tags": {"is_in:country_code": "ET", "is_in:county": "Ethiopia", "name": "Lebidali", "place": "locality", "source": "GeoDatabase"}}, {"type": "node", "id": 1150894324, "lat": 7.45472, "lon": 46.36, "tags": {"is_in:country_code": "ET", "is_in:county": "Ethiopia", "name": "Adaleh", "name:ar": "\u0639\u0636\u0644\u0629", "place": "locality", "source": "GeoDatabase"}}, {"type": "node", "id": 1150912334, "lat": 7.19778, "lon": 46.66222, "tags": {"is_in:country_code": "ET", "is_in:county": "Ethiopia", "name": "Beri Siade", "place": "locality", "source": "GeoDatabase"}}, {"type": "node", "id": 1150949101, "lat": 7.54167, "lon": 46.45555, "tags": {"is_in:country_code": "ET", "is_in:county": "Ethiopia", "name": "Magarauen", "place": "locality", "source": "GeoDatabase"}}, {"type": "node", "id": 1150950099, "lat": 7.35583, "lon": 46.60694, "tags": {"is_in:country_code": "ET", "is_in:county": "Ethiopia", "name": "Boch", "place": "locality", "source": "GeoDatabase"}}, {"type": "node", "id": 1151004834, "lat": 7.35583, "lon": 46.60639, "tags": {"is_in:country_code": "ET", "is_in:county": "Ethiopia", "name": "Bok", "place": "locality", "source": "GeoDatabase"}}, {"type": "node", "id": 3294042630, "lat": 7.4369506, "lon": 46.6469475, "tags": {"name": "Bookh", "place": "town"}}, {"type": "node", "id": 7149707837, "lat": 7.3248466, "lon": 46.4049414, "tags": {"name": "Labile", "place": "village"}}, {"type": "node", "id": 7149724556, "lat": 7.1955384, "lon": 46.4140731}, {"type": "node", "id": 7149724557, "lat": 7.1950435, "lon": 46.4128349}, {"type": "node", "id": 7149724558, "lat": 7.1938327, "lon": 46.4123272}, {"type": "node", "id": 7149724559, "lat": 7.1918884, "lon": 46.4127904}, {"type": "node", "id": 7149724560, "lat": 7.1907749, "lon": 46.413699}, {"type": "node", "id": 7149724561, "lat": 7.1909781, "lon": 46.4150352}, {"type": "node", "id": 7149724562, "lat": 7.1930638, "lon": 46.4158458}, {"type": "node", "id": 7149724563, "lat": 7.1954058, "lon": 46.4155874}, {"type": "way", "id": 765527449, "nodes": [7149724556, 7149724557, 7149724558, 7149724559, 7149724560, 7149724561, 7149724562, 7149724563, 7149724556], "tags": {"name": "Naago odays", "place": "village"}}]}