{"version": 0.6, "generator": "Overpass API 0.7.62.1 084b4234", "osm3s": {"timestamp_osm_base": "2024-09-30T23:00:39Z", "copyright": "The data included in this document is from www.openstreetmap.org. The data is made available under ODbL."}, "elements": [{"type": "node", "id": 298290931, "lat": 9.3508526, "lon": 42.8003788, "tags": {"admin_level": "8", "capital": "4", "import:ALTNAMES": "Djidjiga, Giggiga, Jigijiga, Jigjiga", "import:FULL": "Jijiga", "import:LAT": "935", "import:LON": "4279", "import:PARENTADMIN1": "Somali", "import:PARENTCOUNTRY": "Ethiopia", "import:POPULATION": "107122", "import:TYPE": "locality", "import:UFI": "357682279", "name": "\u1302\u1302\u130b Jigjiga", "name:am": "\u1302\u1302\u130b", "name:ar": "\u062c\u064a\u062c\u064a\u062c\u0627", "name:be": "\u0414\u0436\u044b\u0434\u0436\u044b\u0433\u0430", "name:ca": "Jijiga", "name:cs": "D\u017eid\u017eiga", "name:de": "Jijiga", "name:el": "\u03a4\u03b6\u03b9\u03c4\u03b6\u03af\u03b3\u03ba\u03b1", "name:en": "Jijiga", "name:eo": "\u011ci\u011diga", "name:es": "Jijiga", "name:et": "Jijiga", "name:eu": "Jijiga", "name:fa": "\u062c\u06cc\u062c\u06cc\u06af\u0627", "name:fr": "Djidjiga", "name:he": "\u05d2'\u05d9\u05d2'\u05d9\u05d2\u05d4", "name:hr": "Jijiga", "name:hu": "Jijiga", "name:it": "Giggiga", "name:ja": "\u30b8\u30b8\u30ac", "name:ko": "\uc9c0\uc9c0\uac00", "name:lt": "D\u017eid\u017eiga", "name:ml": "\u0d1c\u0d3f\u0d1c\u0d3f\u0d17", "name:nb": "Jijiga", "name:nl": "Jijiga", "name:pl": "D\u017cid\u017ciga", "name:pt": "Jijiga", "name:ro": "Jijiga", "name:ru": "\u0414\u0436\u0438\u0434\u0436\u0438\u0433\u0430", "name:sn": "Jijiga", "name:so": "Jigjiga", "name:sv": "Jijiga", "name:uk": "\u0414\u0436\u0438\u0434\u0436\u0438\u0433\u0430", "name:zh": "\u5409\u5409\u52a0", "name:zu": "Jijiga", "place": "city", "population": "107122", "source": "world-gazetteer.com (C) Stefan Helders", "wikidata": "Q755763", "wikipedia": "en:Jijiga"}}, {"type": "node", "id": 1150881073, "lat": 9.32139, "lon": 42.96333, "tags": {"is_in:country": "Ethiopia", "is_in:country_code": "ET", "name": "Ahmed", "place": "locality", "source": "GeoDatabase"}}, {"type": "node", "id": 1150881770, "lat": 9.33333, "lon": 42.7, "tags": {"is_in:country": "Ethiopia", "is_in:country_code": "ET", "name": "Gama", "place": "locality", "source": "GeoDatabase", "wikidata": "Q24030152"}}, {"type": "node", "id": 1150882276, "lat": 9.05, "lon": 42.95, "tags": {"is_in:country": "Ethiopia", "is_in:country_code": "ET", "name": "Las Galoleh", "place": "locality", "source": "GeoDatabase"}}, {"type": "node", "id": 1150883424, "lat": 9.25944, "lon": 42.83944, "tags": {"is_in:country": "Ethiopia", "is_in:country_code": "ET", "name": "Gulfa", "place": "locality", "source": "GeoDatabase"}}, {"type": "node", "id": 1150886367, "lat": 9.17389, "lon": 42.72139, "tags": {"is_in:country": "Ethiopia", "is_in:country_code": "ET", "name": "Passo Dhandi", "place": "locality", "source": "GeoDatabase"}}, {"type": "node", "id": 1150887448, "lat": 9.10861, "lon": 42.92556, "tags": {"is_in:country": "Ethiopia", "is_in:country_code": "ET", "name": "Hare Shelek'O", "place": "locality", "source": "GeoDatabase", "wikidata": "Q24028150"}}, {"type": "node", "id": 1150887871, "lat": 9.3675, "lon": 42.95472, "tags": {"is_in:country": "Ethiopia", "is_in:country_code": "ET", "name": "Dugh", "place": "locality", "source": "GeoDatabase"}}, {"type": "node", "id": 1150888005, "lat": 9.21333, "lon": 42.94305, "tags": {"is_in:country": "Ethiopia", "is_in:country_code": "ET", "name": "Te'Adi Sefer", "place": "locality", "source": "GeoDatabase"}}, {"type": "node", "id": 1150889277, "lat": 9.20639, "lon": 42.62722, "tags": {"is_in:country": "Ethiopia", "is_in:country_code": "ET", "name": "Fafem Shelek'O", "place": "locality", "source": "GeoDatabase", "wikidata": "Q24030323"}}, {"type": "node", "id": 1150891077, "lat": 9.26667, "lon": 42.75, "tags": {"is_in:country": "Ethiopia", "is_in:country_code": "ET", "name": "Colle Dibba", "place": "locality", "source": "GeoDatabase"}}, {"type": "node", "id": 1150891899, "lat": 9.18528, "lon": 42.97583, "tags": {"is_in:country": "Ethiopia", "is_in:country_code": "ET", "name": "Te'Adi Shet'", "place": "locality", "source": "GeoDatabase", "wikidata": "Q23961145"}}, {"type": "node", "id": 1150892987, "lat": 9.03444, "lon": 42.92083, "tags": {"is_in:country": "Ethiopia", "is_in:country_code": "ET", "name": "K'Uran", "place": "locality", "source": "GeoDatabase"}}, {"type": "node", "id": 1150896794, "lat": 9.38806, "lon": 42.76, "tags": {"is_in:country": "Ethiopia", "is_in:country_code": "ET", "name": "Ordere", "place": "locality", "source": "GeoDatabase"}}, {"type": "node", "id": 1150899037, "lat": 9.36472, "lon": 42.95333, "tags": {"is_in:country": "Ethiopia", "is_in:country_code": "ET", "name": "Haroreis", "place": "locality", "source": "GeoDatabase"}}, {"type": "node", "id": 1150899174, "lat": 9.09694, "lon": 42.8225, "tags": {"is_in:country": "Ethiopia", "is_in:country_code": "ET", "name": "Kampsayt", "place": "locality", "source": "GeoDatabase"}}, {"type": "node", "id": 1150899815, "lat": 9.35194, "lon": 42.70056, "tags": {"is_in:country": "Ethiopia", "is_in:country_code": "ET", "name": "Marda", "place": "locality", "source": "GeoDatabase"}}, {"type": "node", "id": 1150900963, "lat": 9.07639, "lon": 42.93222, "tags": {"is_in:country": "Ethiopia", "is_in:country_code": "ET", "name": "Akoya", "place": "locality", "source": "GeoDatabase"}}, {"type": "node", "id": 1150903255, "lat": 9.18333, "lon": 42.93333, "tags": {"is_in:country": "Ethiopia", "is_in:country_code": "ET", "name": "Bair Said", "place": "locality", "source": "GeoDatabase"}}, {"type": "node", "id": 1150905626, "lat": 9.33333, "lon": 42.93333, "tags": {"is_in:country": "Ethiopia", "is_in:country_code": "ET", "name": "Farchodey", "place": "locality", "source": "GeoDatabase"}}, {"type": "node", "id": 1150908526, "lat": 9.33333, "lon": 42.63333, "tags": {"is_in:country": "Ethiopia", "is_in:country_code": "ET", "name": "Belecta", "place": "locality", "source": "GeoDatabase"}}, {"type": "node", "id": 1150910195, "lat": 9.135, "lon": 42.66167, "tags": {"is_in:country": "Ethiopia", "is_in:country_code": "ET", "name": "Shebelle-Shet", "place": "locality", "source": "GeoDatabase"}}, {"type": "node", "id": 1150913365, "lat": 9.37556, "lon": 42.98, "tags": {"is_in:country": "Ethiopia", "is_in:country_code": "ET", "name": "Losle", "place": "locality", "source": "GeoDatabase"}}, {"type": "node", "id": 1150914808, "lat": 9.26056, "lon": 42.93806, "tags": {"is_in:country": "Ethiopia", "is_in:country_code": "ET", "name": "Waji", "place": "locality", "source": "GeoDatabase"}}, {"type": "node", "id": 1150917602, "lat": 9.36361, "lon": 42.66944, "tags": {"is_in:country": "Ethiopia", "is_in:country_code": "ET", "name": "Hado", "place": "locality", "source": "GeoDatabase"}}, {"type": "node", "id": 1150919882, "lat": 9.1675, "lon": 42.75194, "tags": {"is_in:country": "Ethiopia", "is_in:country_code": "ET", "name": "Shipford", "place": "locality", "source": "GeoDatabase"}}, {"type": "node", "id": 1150920512, "lat": 9.27333, "lon": 42.79722, "tags": {"is_in:country": "Ethiopia", "is_in:country_code": "ET", "name": "Diba", "place": "locality", "source": "GeoDatabase"}}, {"type": "node", "id": 1150923590, "lat": 9.18917, "lon": 42.86917, "tags": {"is_in:country": "Ethiopia", "is_in:country_code": "ET", "name": "Tobi-Dzhere-Shet", "place": "locality", "source": "GeoDatabase"}}, {"type": "node", "id": 1150926497, "lat": 9.19722, "lon": 42.88694, "tags": {"is_in:country": "Ethiopia", "is_in:country_code": "ET", "name": "Waji (1)", "place": "locality", "source": "GeoDatabase"}}, {"type": "node", "id": 1150935123, "lat": 9.08333, "lon": 42.86667, "tags": {"is_in:country": "Ethiopia", "is_in:country_code": "ET", "name": "Dande", "place": "locality", "source": "GeoDatabase"}}, {"type": "node", "id": 1150936098, "lat": 9.37889, "lon": 42.6875, "tags": {"is_in:country": "Ethiopia", "is_in:country_code": "ET", "name": "Bale Terara", "place": "locality", "source": "GeoDatabase", "wikidata": "Q24031989"}}, {"type": "node", "id": 1150936180, "lat": 9.40667, "lon": 42.97861, "tags": {"is_in:country": "Ethiopia", "is_in:country_code": "ET", "name": "Tur`Ubdeysi", "place": "locality", "source": "GeoDatabase"}}, {"type": "node", "id": 1150945674, "lat": 9.30917, "lon": 42.96222, "tags": {"is_in:country": "Ethiopia", "is_in:country_code": "ET", "name": "K'Ebri Ahmed", "place": "locality", "source": "GeoDatabase"}}, {"type": "node", "id": 1150949875, "lat": 9.1225, "lon": 42.92778, "tags": {"is_in:country": "Ethiopia", "is_in:country_code": "ET", "name": "Auabib Shet'", "place": "locality", "source": "GeoDatabase"}}, {"type": "node", "id": 1150950393, "lat": 9.135, "lon": 42.66222, "tags": {"is_in:country": "Ethiopia", "is_in:country_code": "ET", "name": "Fafem Shet'", "place": "locality", "source": "GeoDatabase", "wikidata": "Q23963170"}}, {"type": "node", "id": 1150955621, "lat": 9.22056, "lon": 42.82389, "tags": {"is_in:country": "Ethiopia", "is_in:country_code": "ET", "name": "Khamude", "place": "locality", "source": "GeoDatabase"}}, {"type": "node", "id": 1150955801, "lat": 9.11667, "lon": 42.93333, "tags": {"is_in:country": "Ethiopia", "is_in:country_code": "ET", "name": "Ch'Erer Shet'", "place": "locality", "source": "GeoDatabase", "wikidata": "Q23962565"}}, {"type": "node", "id": 1150957556, "lat": 9.35, "lon": 42.8, "tags": {"is_in:country": "Ethiopia", "is_in:country_code": "ET", "name": "Giggigga", "place": "locality", "source": "GeoDatabase"}}, {"type": "node", "id": 1150959418, "lat": 9.26111, "lon": 42.66444, "tags": {"is_in:country": "Ethiopia", "is_in:country_code": "ET", "name": "Shebele", "place": "locality", "source": "GeoDatabase"}}, {"type": "node", "id": 1150959717, "lat": 9.41167, "lon": 42.8625, "tags": {"is_in:country": "Ethiopia", "is_in:country_code": "ET", "name": "El'-Bakhal'", "place": "locality", "source": "GeoDatabase"}}, {"type": "node", "id": 1150962802, "lat": 9.3610721, "lon": 42.8064074, "tags": {"is_in:country": "Ethiopia", "is_in:country_code": "ET", "name": "Burk'A Shet'", "place": "locality", "source": "GeoDatabase"}}, {"type": "node", "id": 1150967854, "lat": 9.13667, "lon": 42.89417, "tags": {"is_in:country": "Ethiopia", "is_in:country_code": "ET", "name": "Hare Gudi", "place": "locality", "source": "GeoDatabase"}}, {"type": "node", "id": 1150969197, "lat": 9.3049944, "lon": 42.9086855, "tags": {"is_in:country": "Ethiopia", "is_in:country_code": "ET", "name": "Jirhul", "place": "locality", "source": "GeoDatabase"}}, {"type": "node", "id": 1150970756, "lat": 9.31667, "lon": 42.85, "tags": {"is_in:country": "Ethiopia", "is_in:country_code": "ET", "name": "Dimti", "place": "locality", "source": "GeoDatabase"}}, {"type": "node", "id": 1150973504, "lat": 9.3625, "lon": 42.69166, "tags": {"is_in:country": "Ethiopia", "is_in:country_code": "ET", "name": "Col De Marda", "place": "locality", "source": "GeoDatabase"}}, {"type": "node", "id": 1150974122, "lat": 9.14861, "lon": 42.97972, "tags": {"is_in:country": "Ethiopia", "is_in:country_code": "ET", "name": "Ferda Sefer", "place": "locality", "source": "GeoDatabase"}}, {"type": "node", "id": 1150978597, "lat": 9.1, "lon": 42.86667, "tags": {"is_in:country": "Ethiopia", "is_in:country_code": "ET", "name": "Druaiale", "place": "locality", "source": "GeoDatabase"}}, {"type": "node", "id": 1150979748, "lat": 9.39056, "lon": 42.64805, "tags": {"is_in:country": "Ethiopia", "is_in:country_code": "ET", "name": "Legah Gelal", "place": "locality", "source": "GeoDatabase"}}, {"type": "node", "id": 1151004666, "lat": 9.395, "lon": 42.79417, "tags": {"is_in:country": "Ethiopia", "is_in:country_code": "ET", "name": "Burk'A", "place": "locality", "source": "GeoDatabase"}}, {"type": "node", "id": 3171101312, "lat": 9.3614733, "lon": 42.7271136, "tags": {"place": "hamlet"}}, {"type": "node", "id": 3198968352, "lat": 9.2778254, "lon": 42.9784873, "tags": {"place": "hamlet"}}, {"type": "node", "id": 6575426386, "lat": 9.3079659, "lon": 42.9101754, "tags": {"name": "Xoodhleey", "place": "village"}}]}