{"version": 0.6, "generator": "Overpass API 0.7.62.1 084b4234", "osm3s": {"timestamp_osm_base": "2024-09-30T19:56:45Z", "copyright": "The data included in this document is from www.openstreetmap.org. The data is made available under ODbL."}, "elements": [{"type": "node", "id": 1404221560, "lat": 10.9435931, "lon": 50.9211372, "tags": {"alt_name": "Taageer", "name": "Itaageer", "pcode": "NC-3906-B32-001", "place": "village", "source": "UNDP - 2006, UNDP - 1997"}}, {"type": "node", "id": 1404222830, "lat": 11.0837982, "lon": 50.7628122, "tags": {"name": "Qorraxaad", "pcode": "NC-3902-X28-001", "place": "village", "source": "UNDP - 2006"}}, {"type": "node", "id": 1404223337, "lat": 10.85612, "lon": 50.83894, "tags": {"fixme": "Please, check location!", "name": "Itager", "pcode": "NC-3906-D30-001", "place": "hamlet", "source": "FSAU"}}, {"type": "node", "id": 1404225452, "lat": 10.7981, "lon": 50.9799, "tags": {"fixme": "Please, check location!", "name": "Gumbah", "pcode": "NC-3906-E33-001", "place": "village", "source": "UNDP - 1997"}}, {"type": "node", "id": 1404226307, "lat": 11.0796, "lon": 50.627998, "tags": {"fixme": "Please, check location!", "name": "Seiemmogh", "pcode": "NC-3902-Y25-001", "place": "village", "source": "UNDP - 1997"}}, {"type": "node", "id": 1404226885, "lat": 10.99712, "lon": 50.87007, "tags": {"fixme": "Please, check location!", "name": "Tager", "pcode": "NC-3906-A31-002", "place": "hamlet", "source": "FSAU"}}, {"type": "node", "id": 1404228731, "lat": 10.919, "lon": 50.8778, "tags": {"fixme": "Please, check location!", "name": "Arar Gubetti", "pcode": "NC-3906-B31-001", "place": "village", "source": "UNDP - 1997"}}, {"type": "node", "id": 1404229493, "lat": 11.1277, "lon": 50.949501, "tags": {"fixme": "Please, check location!", "name": "Tolmo", "pcode": "NC-3902-W32-001", "place": "hamlet", "source": "UNDP - 1997"}}, {"type": "node", "id": 1404229774, "lat": 11.0179, "lon": 50.768799, "tags": {"fixme": "Please, check location!", "name": "Saladegh", "pcode": "NC-3902-Z28-002", "place": "hamlet", "source": "UNDP - 1997"}}, {"type": "node", "id": 1404230829, "lat": 11.0179, "lon": 50.752499, "tags": {"fixme": "Please, check location!", "name": "El Af-Ca Uarallai", "pcode": "NC-3902-Z28-001", "place": "hamlet", "source": "UNDP - 1997"}}, {"type": "node", "id": 1404231558, "lat": 10.9799, "lon": 50.876999, "tags": {"fixme": "Please, check location!", "name": "Avarfaro", "pcode": "NC-3906-A31-001", "place": "hamlet", "source": "UNDP - 1997"}}, {"type": "node", "id": 1404233363, "lat": 10.8307534, "lon": 50.8437293, "tags": {"name": "Hoosin Gaabo", "pcode": "NC-3906-E30-001", "place": "village", "source": "UNDP - 2006"}}]}