{"version": 0.6, "generator": "Overpass API 0.7.62.1 084b4234", "osm3s": {"timestamp_osm_base": "2024-09-30T20:45:58Z", "copyright": "The data included in this document is from www.openstreetmap.org. The data is made available under ODbL."}, "elements": [{"type": "node", "id": 1404222852, "lat": 1.5481, "lon": 43.551701, "tags": {"name": "Gubi Coude", "pcode": "NA-3810-L02-001", "place": "village", "source": "UNDP - 1997"}}, {"type": "node", "id": 1404231283, "lat": 1.4694, "lon": 43.751499, "tags": {"name": "Donca", "pcode": "NA-3810-N06-001", "place": "locality", "source": "UNDP - 1997"}}, {"type": "node", "id": 11876065476, "lat": 1.4680055, "lon": 43.7483606, "tags": {"place": "isolated_dwelling"}}, {"type": "node", "id": 11891296858, "lat": 1.6036684, "lon": 43.805725, "tags": {"place": "hamlet"}}, {"type": "node", "id": 11893502461, "lat": 1.5271816, "lon": 43.7868798, "tags": {"place": "hamlet"}}, {"type": "node", "id": 11919750994, "lat": 1.6845493, "lon": 43.8564348, "tags": {"place": "isolated_dwelling"}}]}