{"version": 0.6, "generator": "Overpass API 0.7.62.1 084b4234", "osm3s": {"timestamp_osm_base": "2024-09-30T23:14:58Z", "copyright": "The data included in this document is from www.openstreetmap.org. The data is made available under ODbL."}, "elements": [{"type": "node", "id": 1150882045, "lat": 6.66306, "lon": 42.70667, "tags": {"is_in:country": "Ethiopia", "is_in:country_code": "ET", "name": "Tug Geldi", "place": "locality", "source": "GeoDatabase"}}, {"type": "node", "id": 1150882569, "lat": 6.28111, "lon": 42.55305, "tags": {"is_in:country": "Ethiopia", "is_in:country_code": "ET", "name": "Cugno", "place": "locality", "source": "GeoDatabase"}}, {"type": "node", "id": 1150886485, "lat": 6.51667, "lon": 42.7, "tags": {"is_in:country": "Ethiopia", "is_in:country_code": "ET", "name": "El Fardi", "place": "locality", "source": "GeoDatabase"}}, {"type": "node", "id": 1150887258, "lat": 6.64778, "lon": 42.59, "tags": {"is_in:country": "Ethiopia", "is_in:country_code": "ET", "name": "Damerta", "place": "locality", "source": "GeoDatabase"}}, {"type": "node", "id": 1150887342, "lat": 6.29361, "lon": 42.60833, "tags": {"is_in:country": "Ethiopia", "is_in:country_code": "ET", "name": "Adeyo", "place": "locality", "source": "GeoDatabase"}}, {"type": "node", "id": 1150889281, "lat": 6.57833, "lon": 42.82667, "tags": {"is_in:country": "Ethiopia", "is_in:country_code": "ET", "name": "Guasasali", "place": "locality", "source": "GeoDatabase"}}, {"type": "node", "id": 1150898474, "lat": 6.29639, "lon": 42.54306, "tags": {"is_in:country": "Ethiopia", "is_in:country_code": "ET", "name": "Dauadid", "place": "locality", "source": "GeoDatabase", "wikidata": "Q23962469"}}, {"type": "node", "id": 1150898598, "lat": 6.34194, "lon": 42.67472, "tags": {"is_in:country": "Ethiopia", "is_in:country_code": "ET", "name": "Gherber Offer", "place": "locality", "source": "GeoDatabase"}}, {"type": "node", "id": 1150899517, "lat": 6.66667, "lon": 42.68333, "tags": {"is_in:country": "Ethiopia", "is_in:country_code": "ET", "name": "Guraleh", "place": "locality", "source": "GeoDatabase"}}, {"type": "node", "id": 1150900044, "lat": 6.65472, "lon": 42.51944, "tags": {"is_in:country": "Ethiopia", "is_in:country_code": "ET", "name": "Viyelekh", "place": "locality", "source": "GeoDatabase"}}, {"type": "node", "id": 1150932113, "lat": 6.33333, "lon": 42.58333, "tags": {"is_in:country": "Ethiopia", "is_in:country_code": "ET", "name": "Ellan", "place": "locality", "source": "GeoDatabase"}}, {"type": "node", "id": 1150934574, "lat": 6.29917, "lon": 42.70528, "tags": {"is_in:country": "Ethiopia", "is_in:country_code": "ET", "name": "Garo", "place": "locality", "source": "GeoDatabase"}}, {"type": "node", "id": 1150963890, "lat": 6.27917, "lon": 42.73611, "tags": {"is_in:country": "Ethiopia", "is_in:country_code": "ET", "name": "Obdamer", "place": "locality", "source": "GeoDatabase"}}, {"type": "node", "id": 10599183969, "lat": 6.311225, "lon": 42.6507389, "tags": {"name": "Abakoro", "place": "village"}}]}