{"version": 0.6, "generator": "Overpass API 0.7.62.1 084b4234", "osm3s": {"timestamp_osm_base": "2024-10-01T00:05:11Z", "copyright": "The data included in this document is from www.openstreetmap.org. The data is made available under ODbL."}, "elements": [{"type": "node", "id": 298290931, "lat": 9.3508526, "lon": 42.8003788, "tags": {"admin_level": "8", "capital": "4", "import:ALTNAMES": "Djidjiga, Giggiga, Jigijiga, Jigjiga", "import:FULL": "Jijiga", "import:LAT": "935", "import:LON": "4279", "import:PARENTADMIN1": "Somali", "import:PARENTCOUNTRY": "Ethiopia", "import:POPULATION": "107122", "import:TYPE": "locality", "import:UFI": "357682279", "name": "\u1302\u1302\u130b Jigjiga", "name:am": "\u1302\u1302\u130b", "name:ar": "\u062c\u064a\u062c\u064a\u062c\u0627", "name:be": "\u0414\u0436\u044b\u0434\u0436\u044b\u0433\u0430", "name:ca": "Jijiga", "name:cs": "D\u017eid\u017eiga", "name:de": "Jijiga", "name:el": "\u03a4\u03b6\u03b9\u03c4\u03b6\u03af\u03b3\u03ba\u03b1", "name:en": "Jijiga", "name:eo": "\u011ci\u011diga", "name:es": "Jijiga", "name:et": "Jijiga", "name:eu": "Jijiga", "name:fa": "\u062c\u06cc\u062c\u06cc\u06af\u0627", "name:fr": "Djidjiga", "name:he": "\u05d2'\u05d9\u05d2'\u05d9\u05d2\u05d4", "name:hr": "Jijiga", "name:hu": "Jijiga", "name:it": "Giggiga", "name:ja": "\u30b8\u30b8\u30ac", "name:ko": "\uc9c0\uc9c0\uac00", "name:lt": "D\u017eid\u017eiga", "name:ml": "\u0d1c\u0d3f\u0d1c\u0d3f\u0d17", "name:nb": "Jijiga", "name:nl": "Jijiga", "name:pl": "D\u017cid\u017ciga", "name:pt": "Jijiga", "name:ro": "Jijiga", "name:ru": "\u0414\u0436\u0438\u0434\u0436\u0438\u0433\u0430", "name:sn": "Jijiga", "name:so": "Jigjiga", "name:sv": "Jijiga", "name:uk": "\u0414\u0436\u0438\u0434\u0436\u0438\u0433\u0430", "name:zh": "\u5409\u5409\u52a0", "name:zu": "Jijiga", "place": "city", "population": "107122", "source": "world-gazetteer.com (C) Stefan Helders", "wikidata": "Q755763", "wikipedia": "en:Jijiga"}}, {"type": "node", "id": 316871083, "lat": 9.5060137, "lon": 42.6088587, "tags": {"name": "Chinaksen", "place": "town", "source": "landsat", "wikidata": "Q1074365"}}, {"type": "node", "id": 1150881667, "lat": 9.71056, "lon": 42.88278, "tags": {"is_in:country": "Ethiopia", "is_in:country_code": "ET", "name": "Khando-Dirshe", "place": "locality", "source": "GeoDatabase"}}, {"type": "node", "id": 1150881770, "lat": 9.33333, "lon": 42.7, "tags": {"is_in:country": "Ethiopia", "is_in:country_code": "ET", "name": "Gama", "place": "locality", "source": "GeoDatabase", "wikidata": "Q24030152"}}, {"type": "node", "id": 1150881785, "lat": 9.55667, "lon": 42.88333, "tags": {"is_in:country": "Ethiopia", "is_in:country_code": "ET", "name": "K'Ere'Anz", "place": "locality", "source": "GeoDatabase"}}, {"type": "node", "id": 1150882323, "lat": 9.42278, "lon": 42.565, "tags": {"is_in:country": "Ethiopia", "is_in:country_code": "ET", "name": "Dengego", "place": "locality", "source": "GeoDatabase"}}, {"type": "node", "id": 1150882767, "lat": 9.51944, "lon": 42.67833, "tags": {"is_in:country": "Ethiopia", "is_in:country_code": "ET", "name": "Merar", "place": "locality", "source": "GeoDatabase"}}, {"type": "node", "id": 1150883609, "lat": 9.73028, "lon": 42.50583, "tags": {"is_in:country": "Ethiopia", "is_in:country_code": "ET", "name": "Lasarud", "place": "locality", "source": "GeoDatabase"}}, {"type": "node", "id": 1150884027, "lat": 9.42472, "lon": 42.82222, "tags": {"is_in:country": "Ethiopia", "is_in:country_code": "ET", "name": "Bela Hare", "place": "locality", "source": "GeoDatabase"}}, {"type": "node", "id": 1150884324, "lat": 9.69528, "lon": 42.76417, "tags": {"is_in:country": "Ethiopia", "is_in:country_code": "ET", "name": "Serir Gerad", "place": "locality", "source": "GeoDatabase"}}, {"type": "node", "id": 1150884790, "lat": 9.5775, "lon": 42.55056, "tags": {"is_in:country": "Ethiopia", "is_in:country_code": "ET", "name": "Dibriuein", "place": "locality", "source": "GeoDatabase", "wikidata": "Q24030901"}}, {"type": "node", "id": 1150885296, "lat": 9.41333, "lon": 42.53083, "tags": {"is_in:country": "Ethiopia", "is_in:country_code": "ET", "name": "Geri", "place": "locality", "source": "GeoDatabase"}}, {"type": "node", "id": 1150885572, "lat": 9.33333, "lon": 42.6, "tags": {"is_in:country": "Ethiopia", "is_in:country_code": "ET", "name": "Hadew", "place": "locality", "source": "GeoDatabase"}}, {"type": "node", "id": 1150885625, "lat": 9.47, "lon": 42.91556, "tags": {"is_in:country": "Ethiopia", "is_in:country_code": "ET", "name": "Orafadi", "place": "locality", "source": "GeoDatabase"}}, {"type": "node", "id": 1150886139, "lat": 9.51056, "lon": 42.77, "tags": {"is_in:country": "Ethiopia", "is_in:country_code": "ET", "name": "Fede'At", "place": "locality", "source": "GeoDatabase"}}, {"type": "node", "id": 1150886501, "lat": 9.3775, "lon": 42.57444, "tags": {"is_in:country": "Ethiopia", "is_in:country_code": "ET", "name": "K'Obo Shet'", "place": "locality", "source": "GeoDatabase", "wikidata": "Q23961433"}}, {"type": "node", "id": 1150886594, "lat": 9.43944, "lon": 42.63472, "tags": {"is_in:country": "Ethiopia", "is_in:country_code": "ET", "name": "Orda", "place": "locality", "source": "GeoDatabase"}}, {"type": "node", "id": 1150886638, "lat": 9.35722, "lon": 42.55805, "tags": {"is_in:country": "Ethiopia", "is_in:country_code": "ET", "name": "Funyan Dera", "place": "locality", "source": "GeoDatabase"}}, {"type": "node", "id": 1150886918, "lat": 9.6975, "lon": 42.69278, "tags": {"is_in:country": "Ethiopia", "is_in:country_code": "ET", "name": "Uadzhi", "place": "locality", "source": "GeoDatabase"}}, {"type": "node", "id": 1150887042, "lat": 9.35389, "lon": 42.53083, "tags": {"is_in:country": "Ethiopia", "is_in:country_code": "ET", "name": "Debole", "place": "locality", "source": "GeoDatabase"}}, {"type": "node", "id": 1150887958, "lat": 9.57722, "lon": 42.8075, "tags": {"is_in:country": "Ethiopia", "is_in:country_code": "ET", "name": "Benenisa", "place": "locality", "source": "GeoDatabase"}}, {"type": "node", "id": 1150890435, "lat": 9.49944, "lon": 42.68083, "tags": {"is_in:country": "Ethiopia", "is_in:country_code": "ET", "name": "Jinasenel", "place": "locality", "source": "GeoDatabase"}}, {"type": "node", "id": 1150890629, "lat": 9.63111, "lon": 42.90139, "tags": {"is_in:country": "Ethiopia", "is_in:country_code": "ET", "name": "Bulloynko", "place": "locality", "source": "GeoDatabase", "wikidata": "Q24032487"}}, {"type": "node", "id": 1150890885, "lat": 9.31972, "lon": 42.56, "tags": {"is_in:country": "Ethiopia", "is_in:country_code": "ET", "name": "Gebegebo Shet'", "place": "locality", "source": "GeoDatabase", "wikidata": "Q23962158"}}, {"type": "node", "id": 1150892044, "lat": 9.65972, "lon": 42.65417, "tags": {"is_in:country": "Ethiopia", "is_in:country_code": "ET", "name": "Goble Shet'", "place": "locality", "source": "GeoDatabase", "wikidata": "Q23961983"}}, {"type": "node", "id": 1150893662, "lat": 9.41667, "lon": 42.68333, "tags": {"is_in:country": "Ethiopia", "is_in:country_code": "ET", "name": "Khablela", "place": "locality", "source": "GeoDatabase"}}, {"type": "node", "id": 1150893791, "lat": 9.63639, "lon": 42.73389, "tags": {"is_in:country": "Ethiopia", "is_in:country_code": "ET", "name": "Dadale", "place": "locality", "source": "GeoDatabase"}}, {"type": "node", "id": 1150894352, "lat": 9.6150868, "lon": 42.7530108, "tags": {"is_in:country": "Ethiopia", "is_in:country_code": "ET", "name": "Tuli-Guled", "place": "village", "source": "GeoDatabase"}}, {"type": "node", "id": 1150894672, "lat": 9.56028, "lon": 42.5825, "tags": {"is_in:country": "Ethiopia", "is_in:country_code": "ET", "name": "Derbiga El Agemsa", "place": "locality", "source": "GeoDatabase"}}, {"type": "node", "id": 1150896794, "lat": 9.38806, "lon": 42.76, "tags": {"is_in:country": "Ethiopia", "is_in:country_code": "ET", "name": "Ordere", "place": "locality", "source": "GeoDatabase"}}, {"type": "node", "id": 1150897379, "lat": 9.50528, "lon": 42.61111, "tags": {"is_in:country": "Ethiopia", "is_in:country_code": "ET", "name": "Genesenei", "place": "locality", "source": "GeoDatabase"}}, {"type": "node", "id": 1150897734, "lat": 9.6360036, "lon": 42.8557908, "tags": {"is_in:country": "Ethiopia", "is_in:country_code": "ET", "name": "Dananley", "place": "locality", "source": "GeoDatabase"}}, {"type": "node", "id": 1150898413, "lat": 9.46472, "lon": 42.78278, "tags": {"is_in:country": "Ethiopia", "is_in:country_code": "ET", "name": "K'Ensekeror", "place": "locality", "source": "GeoDatabase"}}, {"type": "node", "id": 1150898555, "lat": 9.61583, "lon": 42.60861, "tags": {"is_in:country": "Ethiopia", "is_in:country_code": "ET", "name": "Golocha", "place": "locality", "source": "GeoDatabase"}}, {"type": "node", "id": 1150899628, "lat": 9.6725, "lon": 42.92333, "tags": {"is_in:country": "Ethiopia", "is_in:country_code": "ET", "name": "Dzhare", "place": "locality", "source": "GeoDatabase"}}, {"type": "node", "id": 1150899815, "lat": 9.35194, "lon": 42.70056, "tags": {"is_in:country": "Ethiopia", "is_in:country_code": "ET", "name": "Marda", "place": "locality", "source": "GeoDatabase"}}, {"type": "node", "id": 1150899866, "lat": 9.57, "lon": 42.89639, "tags": {"is_in:country": "Ethiopia", "is_in:country_code": "ET", "name": "Machannis", "place": "locality", "source": "GeoDatabase"}}, {"type": "node", "id": 1150901016, "lat": 9.52472, "lon": 42.49639, "tags": {"is_in:country": "Ethiopia", "is_in:country_code": "ET", "name": "Godene", "place": "locality", "source": "GeoDatabase"}}, {"type": "node", "id": 1150902111, "lat": 9.52778, "lon": 42.69972, "tags": {"is_in:country": "Ethiopia", "is_in:country_code": "ET", "name": "Rehoble", "place": "locality", "source": "GeoDatabase"}}, {"type": "node", "id": 1150903340, "lat": 9.68278, "lon": 42.55028, "tags": {"is_in:country": "Ethiopia", "is_in:country_code": "ET", "name": "Garimu", "place": "locality", "source": "GeoDatabase"}}, {"type": "node", "id": 1150905326, "lat": 9.69111, "lon": 42.80305, "tags": {"is_in:country": "Ethiopia", "is_in:country_code": "ET", "name": "Golorot", "place": "locality", "source": "GeoDatabase"}}, {"type": "node", "id": 1150905626, "lat": 9.33333, "lon": 42.93333, "tags": {"is_in:country": "Ethiopia", "is_in:country_code": "ET", "name": "Farchodey", "place": "locality", "source": "GeoDatabase"}}, {"type": "node", "id": 1150905836, "lat": 9.63861, "lon": 42.735, "tags": {"is_in:country": "Ethiopia", "is_in:country_code": "ET", "name": "Kulula", "place": "locality", "source": "GeoDatabase"}}, {"type": "node", "id": 1150906807, "lat": 9.64417, "lon": 42.51139, "tags": {"is_in:country": "Ethiopia", "is_in:country_code": "ET", "name": "Derbile", "place": "locality", "source": "GeoDatabase"}}, {"type": "node", "id": 1150907603, "lat": 9.455, "lon": 42.49861, "tags": {"is_in:country": "Ethiopia", "is_in:country_code": "ET", "name": "Hariro Shet'", "place": "locality", "source": "GeoDatabase"}}, {"type": "node", "id": 1150908170, "lat": 9.72139, "lon": 42.82028, "tags": {"is_in:country": "Ethiopia", "is_in:country_code": "ET", "name": "Godeyti", "place": "locality", "source": "GeoDatabase"}}, {"type": "node", "id": 1150908526, "lat": 9.33333, "lon": 42.63333, "tags": {"is_in:country": "Ethiopia", "is_in:country_code": "ET", "name": "Belecta", "place": "locality", "source": "GeoDatabase"}}, {"type": "node", "id": 1150908627, "lat": 9.51667, "lon": 42.85778, "tags": {"is_in:country": "Ethiopia", "is_in:country_code": "ET", "name": "Elahmar", "place": "locality", "source": "GeoDatabase"}}, {"type": "node", "id": 1150909812, "lat": 9.50639, "lon": 42.79666, "tags": {"is_in:country": "Ethiopia", "is_in:country_code": "ET", "name": "Rer Kabilli", "place": "locality", "source": "GeoDatabase"}}, {"type": "node", "id": 1150911040, "lat": 9.36861, "lon": 42.55805, "tags": {"is_in:country": "Ethiopia", "is_in:country_code": "ET", "name": "Dube Dile", "place": "locality", "source": "GeoDatabase"}}, {"type": "node", "id": 1150912472, "lat": 9.36611, "lon": 42.50639, "tags": {"is_in:country": "Ethiopia", "is_in:country_code": "ET", "name": "Hado", "place": "locality", "source": "GeoDatabase"}}, {"type": "node", "id": 1150914169, "lat": 9.31083, "lon": 42.50472, "tags": {"is_in:country": "Ethiopia", "is_in:country_code": "ET", "name": "Abiley", "place": "locality", "source": "GeoDatabase"}}, {"type": "node", "id": 1150914414, "lat": 9.62722, "lon": 42.81139, "tags": {"is_in:country": "Ethiopia", "is_in:country_code": "ET", "name": "Haji", "place": "locality", "source": "GeoDatabase"}}, {"type": "node", "id": 1150917602, "lat": 9.36361, "lon": 42.66944, "tags": {"is_in:country": "Ethiopia", "is_in:country_code": "ET", "name": "Hado", "place": "locality", "source": "GeoDatabase"}}, {"type": "node", "id": 1150919079, "lat": 9.49944, "lon": 42.73833, "tags": {"is_in:country": "Ethiopia", "is_in:country_code": "ET", "name": "Khosale", "place": "locality", "source": "GeoDatabase"}}, {"type": "node", "id": 1150920186, "lat": 9.71417, "lon": 42.84056, "tags": {"is_in:country": "Ethiopia", "is_in:country_code": "ET", "name": "Gara Garri", "place": "locality", "source": "GeoDatabase", "wikidata": "Q24030185"}}, {"type": "node", "id": 1150920438, "lat": 9.33333, "lon": 42.56666, "tags": {"is_in:country": "Ethiopia", "is_in:country_code": "ET", "name": "Demuga", "place": "locality", "source": "GeoDatabase"}}, {"type": "node", "id": 1150921724, "lat": 9.68778, "lon": 42.60889, "tags": {"is_in:country": "Ethiopia", "is_in:country_code": "ET", "name": "Louenadzhi", "place": "locality", "source": "GeoDatabase"}}, {"type": "node", "id": 1150922325, "lat": 9.36667, "lon": 42.5, "tags": {"is_in:country": "Ethiopia", "is_in:country_code": "ET", "name": "Hado", "place": "locality", "source": "GeoDatabase"}}, {"type": "node", "id": 1150924624, "lat": 9.65333, "lon": 42.74833, "tags": {"is_in:country": "Ethiopia", "is_in:country_code": "ET", "name": "Dzhebsa", "place": "locality", "source": "GeoDatabase"}}, {"type": "node", "id": 1150928205, "lat": 9.56194, "lon": 42.93194, "tags": {"is_in:country": "Ethiopia", "is_in:country_code": "ET", "name": "Beley", "place": "locality", "source": "GeoDatabase"}}, {"type": "node", "id": 1150928290, "lat": 9.54028, "lon": 42.60611, "tags": {"is_in:country": "Ethiopia", "is_in:country_code": "ET", "name": "Aba Yonis", "place": "locality", "source": "GeoDatabase"}}, {"type": "node", "id": 1150928766, "lat": 9.61111, "lon": 42.89556, "tags": {"is_in:country": "Ethiopia", "is_in:country_code": "ET", "name": "Bulo", "place": "locality", "source": "GeoDatabase"}}, {"type": "node", "id": 1150932708, "lat": 9.6625, "lon": 42.61, "tags": {"is_in:country": "Ethiopia", "is_in:country_code": "ET", "name": "Golel'Cha-Shet", "place": "locality", "source": "GeoDatabase"}}, {"type": "node", "id": 1150934851, "lat": 9.53583, "lon": 42.76611, "tags": {"is_in:country": "Ethiopia", "is_in:country_code": "ET", "name": "Piana Di Helendera", "place": "locality", "source": "GeoDatabase"}}, {"type": "node", "id": 1150936023, "lat": 9.46556, "lon": 42.63167, "tags": {"is_in:country": "Ethiopia", "is_in:country_code": "ET", "name": "Gara Goreis", "place": "locality", "source": "GeoDatabase", "wikidata": "Q24028815"}}, {"type": "node", "id": 1150936098, "lat": 9.37889, "lon": 42.6875, "tags": {"is_in:country": "Ethiopia", "is_in:country_code": "ET", "name": "Bale Terara", "place": "locality", "source": "GeoDatabase", "wikidata": "Q24031989"}}, {"type": "node", "id": 1150936799, "lat": 9.58861, "lon": 42.72528, "tags": {"is_in:country": "Ethiopia", "is_in:country_code": "ET", "name": "Agagin", "place": "locality", "source": "GeoDatabase"}}, {"type": "node", "id": 1150937460, "lat": 9.55056, "lon": 42.50222, "tags": {"is_in:country": "Ethiopia", "is_in:country_code": "ET", "name": "Gara Amola", "place": "locality", "source": "GeoDatabase", "wikidata": "Q24032488"}}, {"type": "node", "id": 1150939269, "lat": 9.47, "lon": 42.7025, "tags": {"is_in:country": "Ethiopia", "is_in:country_code": "ET", "name": "Biyo", "place": "locality", "source": "GeoDatabase"}}, {"type": "node", "id": 1150943605, "lat": 9.73194, "lon": 42.53916, "tags": {"is_in:country": "Ethiopia", "is_in:country_code": "ET", "name": "Hoga", "place": "locality", "source": "GeoDatabase"}}, {"type": "node", "id": 1150944177, "lat": 9.71889, "lon": 42.76528, "tags": {"is_in:country": "Ethiopia", "is_in:country_code": "ET", "name": "Valle Gogheita", "place": "locality", "source": "GeoDatabase"}}, {"type": "node", "id": 1150947685, "lat": 9.66972, "lon": 42.89833, "tags": {"is_in:country": "Ethiopia", "is_in:country_code": "ET", "name": "Samaua", "place": "locality", "source": "GeoDatabase"}}, {"type": "node", "id": 1150948136, "lat": 9.36306, "lon": 42.59222, "tags": {"is_in:country": "Ethiopia", "is_in:country_code": "ET", "name": "Golosauo", "place": "locality", "source": "GeoDatabase"}}, {"type": "node", "id": 1150948465, "lat": 9.55222, "lon": 42.83666, "tags": {"is_in:country": "Ethiopia", "is_in:country_code": "ET", "name": "Turchile", "place": "locality", "source": "GeoDatabase"}}, {"type": "node", "id": 1150952790, "lat": 9.33833, "lon": 42.58306, "tags": {"is_in:country": "Ethiopia", "is_in:country_code": "ET", "name": "Biye'Ade Yeterara Ch'Af", "place": "locality", "source": "GeoDatabase", "wikidata": "Q24031619"}}, {"type": "node", "id": 1150956143, "lat": 9.35139, "lon": 42.54472, "tags": {"is_in:country": "Ethiopia", "is_in:country_code": "ET", "name": "K'Obo Shet'", "place": "locality", "source": "GeoDatabase"}}, {"type": "node", "id": 1150957556, "lat": 9.35, "lon": 42.8, "tags": {"is_in:country": "Ethiopia", "is_in:country_code": "ET", "name": "Giggigga", "place": "locality", "source": "GeoDatabase"}}, {"type": "node", "id": 1150958589, "lat": 9.4, "lon": 42.5, "tags": {"is_in:country": "Ethiopia", "is_in:country_code": "ET", "name": "Funyan Ch'Ali Terara", "place": "locality", "source": "GeoDatabase"}}, {"type": "node", "id": 1150959717, "lat": 9.41167, "lon": 42.8625, "tags": {"is_in:country": "Ethiopia", "is_in:country_code": "ET", "name": "El'-Bakhal'", "place": "locality", "source": "GeoDatabase"}}, {"type": "node", "id": 1150961476, "lat": 9.49917, "lon": 42.76583, "tags": {"is_in:country": "Ethiopia", "is_in:country_code": "ET", "name": "Mus Der", "place": "locality", "source": "GeoDatabase"}}, {"type": "node", "id": 1150962629, "lat": 9.35111, "lon": 42.54583, "tags": {"is_in:country": "Ethiopia", "is_in:country_code": "ET", "name": "Hilmo Shet'", "place": "locality", "source": "GeoDatabase"}}, {"type": "node", "id": 1150962802, "lat": 9.3610721, "lon": 42.8064074, "tags": {"is_in:country": "Ethiopia", "is_in:country_code": "ET", "name": "Burk'A Shet'", "place": "locality", "source": "GeoDatabase"}}, {"type": "node", "id": 1150963621, "lat": 9.725, "lon": 42.63111, "tags": {"is_in:country": "Ethiopia", "is_in:country_code": "ET", "name": "Godire", "place": "locality", "source": "GeoDatabase"}}, {"type": "node", "id": 1150966332, "lat": 9.35, "lon": 42.51667, "tags": {"is_in:country": "Ethiopia", "is_in:country_code": "ET", "name": "Benina Mere Buna Meda", "place": "locality", "source": "GeoDatabase"}}, {"type": "node", "id": 1150968938, "lat": 9.59444, "lon": 42.77528, "tags": {"is_in:country": "Ethiopia", "is_in:country_code": "ET", "name": "Khoreley", "place": "locality", "source": "GeoDatabase"}}, {"type": "node", "id": 1150969197, "lat": 9.3049944, "lon": 42.9086855, "tags": {"is_in:country": "Ethiopia", "is_in:country_code": "ET", "name": "Jirhul", "place": "locality", "source": "GeoDatabase"}}, {"type": "node", "id": 1150970756, "lat": 9.31667, "lon": 42.85, "tags": {"is_in:country": "Ethiopia", "is_in:country_code": "ET", "name": "Dimti", "place": "locality", "source": "GeoDatabase"}}, {"type": "node", "id": 1150972728, "lat": 9.57167, "lon": 42.63833, "tags": {"is_in:country": "Ethiopia", "is_in:country_code": "ET", "name": "Ualobu", "place": "locality", "source": "GeoDatabase"}}, {"type": "node", "id": 1150973096, "lat": 9.65222, "lon": 42.87805, "tags": {"is_in:country": "Ethiopia", "is_in:country_code": "ET", "name": "Kheregel'", "place": "locality", "source": "GeoDatabase"}}, {"type": "node", "id": 1150973328, "lat": 9.31667, "lon": 42.55, "tags": {"is_in:country": "Ethiopia", "is_in:country_code": "ET", "name": "Goro Obole Shet'", "place": "locality", "source": "GeoDatabase"}}, {"type": "node", "id": 1150973504, "lat": 9.3625, "lon": 42.69166, "tags": {"is_in:country": "Ethiopia", "is_in:country_code": "ET", "name": "Col De Marda", "place": "locality", "source": "GeoDatabase"}}, {"type": "node", "id": 1150973981, "lat": 9.4, "lon": 42.56666, "tags": {"is_in:country": "Ethiopia", "is_in:country_code": "ET", "name": "Gobbi Hamer", "place": "locality", "source": "GeoDatabase", "wikidata": "Q24029503"}}, {"type": "node", "id": 1150975185, "lat": 9.65222, "lon": 42.63389, "tags": {"is_in:country": "Ethiopia", "is_in:country_code": "ET", "name": "Kaligi", "place": "locality", "source": "GeoDatabase"}}, {"type": "node", "id": 1150978090, "lat": 9.55944, "lon": 42.78694, "tags": {"is_in:country": "Ethiopia", "is_in:country_code": "ET", "name": "Duhuleley", "place": "locality", "source": "GeoDatabase"}}, {"type": "node", "id": 1150979748, "lat": 9.39056, "lon": 42.64805, "tags": {"is_in:country": "Ethiopia", "is_in:country_code": "ET", "name": "Legah Gelal", "place": "locality", "source": "GeoDatabase"}}, {"type": "node", "id": 1150979954, "lat": 9.65278, "lon": 42.72361, "tags": {"is_in:country": "Ethiopia", "is_in:country_code": "ET", "name": "Serir Gerad (2)", "place": "locality", "source": "GeoDatabase"}}, {"type": "node", "id": 1150980701, "lat": 9.61306, "lon": 42.70722, "tags": {"is_in:country": "Ethiopia", "is_in:country_code": "ET", "name": "Gela", "place": "locality", "source": "GeoDatabase"}}, {"type": "node", "id": 1150981421, "lat": 9.53611, "lon": 42.54194, "tags": {"is_in:country": "Ethiopia", "is_in:country_code": "ET", "name": "Goggiar", "place": "locality", "source": "GeoDatabase"}}, {"type": "node", "id": 1151002090, "lat": 9.43417, "lon": 42.75833, "tags": {"is_in:country": "Ethiopia", "is_in:country_code": "ET", "name": "Belewule", "place": "locality", "source": "GeoDatabase"}}, {"type": "node", "id": 1151002612, "lat": 9.65222, "lon": 42.71, "tags": {"is_in:country": "Ethiopia", "is_in:country_code": "ET", "name": "Arif-Gerau", "place": "locality", "source": "GeoDatabase"}}, {"type": "node", "id": 1151003163, "lat": 9.47, "lon": 42.65222, "tags": {"is_in:country": "Ethiopia", "is_in:country_code": "ET", "name": "Gures", "place": "locality", "source": "GeoDatabase"}}, {"type": "node", "id": 1151004666, "lat": 9.395, "lon": 42.79417, "tags": {"is_in:country": "Ethiopia", "is_in:country_code": "ET", "name": "Burk'A", "place": "locality", "source": "GeoDatabase"}}, {"type": "node", "id": 1151004711, "lat": 9.73583, "lon": 42.56583, "tags": {"is_in:country": "Ethiopia", "is_in:country_code": "ET", "name": "Gara Hadem Yeterara Ch'Af", "place": "locality", "source": "GeoDatabase"}}, {"type": "node", "id": 3171100481, "lat": 9.4052224, "lon": 42.543371, "tags": {"place": "hamlet"}}, {"type": "node", "id": 3171100503, "lat": 9.3130734, "lon": 42.5708239, "tags": {"place": "hamlet"}}, {"type": "node", "id": 3171101312, "lat": 9.3614733, "lon": 42.7271136, "tags": {"place": "hamlet"}}, {"type": "node", "id": 3198973103, "lat": 9.4291312, "lon": 42.718376, "tags": {"place": "hamlet"}}, {"type": "node", "id": 3198973104, "lat": 9.4546585, "lon": 42.7098144, "tags": {"place": "hamlet"}}, {"type": "node", "id": 3198973105, "lat": 9.4754008, "lon": 42.6706756, "tags": {"place": "hamlet"}}, {"type": "node", "id": 3198973106, "lat": 9.4961418, "lon": 42.6300563, "tags": {"place": "hamlet"}}, {"type": "node", "id": 3199016065, "lat": 9.4610956, "lon": 42.5684137, "tags": {"place": "hamlet"}}, {"type": "node", "id": 3199016234, "lat": 9.442214, "lon": 42.5744518, "tags": {"place": "village"}}, {"type": "node", "id": 6575426386, "lat": 9.3079659, "lon": 42.9101754, "tags": {"name": "Xoodhleey", "place": "village"}}]}