{"version": 0.6, "generator": "Overpass API 0.7.62.1 084b4234", "osm3s": {"timestamp_osm_base": "2024-09-30T21:28:45Z", "copyright": "The data included in this document is from www.openstreetmap.org. The data is made available under ODbL."}, "elements": [{"type": "node", "id": 1150882940, "lat": 12.64528, "lon": 41.48972, "tags": {"is_in:country_code": "ET", "is_in:county": "Ethiopia", "name": "Hawara Shet'", "place": "locality", "source": "GeoDatabase"}}, {"type": "node", "id": 1150885425, "lat": 12.65583, "lon": 41.4975, "tags": {"is_in:country_code": "ET", "is_in:county": "Ethiopia", "name": "Hamoktu Shet'", "place": "locality", "source": "GeoDatabase"}}, {"type": "node", "id": 1150887036, "lat": 12.41, "lon": 41.40805, "tags": {"is_in:country_code": "ET", "is_in:county": "Ethiopia", "name": "Me`Irata Shet'", "place": "locality", "source": "GeoDatabase"}}, {"type": "node", "id": 1150890617, "lat": 12.55056, "lon": 41.50194, "tags": {"is_in:country_code": "ET", "is_in:county": "Ethiopia", "name": "Ghebel", "place": "locality", "source": "GeoDatabase"}}, {"type": "node", "id": 1150902917, "lat": 12.645, "lon": 41.48944, "tags": {"is_in:country_code": "ET", "is_in:county": "Ethiopia", "name": "Adanewi Shet'", "place": "locality", "source": "GeoDatabase"}}, {"type": "node", "id": 1150903286, "lat": 12.36139, "lon": 41.40306, "tags": {"is_in:country_code": "ET", "is_in:county": "Ethiopia", "name": "Muda Shet'", "place": "locality", "source": "GeoDatabase"}}, {"type": "node", "id": 1150925123, "lat": 12.65, "lon": 41.2, "tags": {"is_in:country_code": "ET", "is_in:county": "Ethiopia", "name": "Eccidio Bianchi", "place": "locality", "source": "GeoDatabase"}}, {"type": "node", "id": 1150927975, "lat": 12.51806, "lon": 41.33555, "tags": {"is_in:country_code": "ET", "is_in:county": "Ethiopia", "name": "Rasusi Lava Area", "place": "locality", "source": "GeoDatabase"}}, {"type": "node", "id": 1150930868, "lat": 12.43333, "lon": 41.25, "tags": {"is_in:country_code": "ET", "is_in:county": "Ethiopia", "name": "Odangalla", "place": "locality", "source": "GeoDatabase"}}, {"type": "node", "id": 1150957865, "lat": 12.34722, "lon": 41.51444, "tags": {"is_in:country_code": "ET", "is_in:county": "Ethiopia", "name": "Dera Shet'", "place": "locality", "source": "GeoDatabase"}}, {"type": "node", "id": 1150958482, "lat": 12.33194, "lon": 41.50611, "tags": {"is_in:country_code": "ET", "is_in:county": "Ethiopia", "name": "Hadi Shet'", "place": "locality", "source": "GeoDatabase"}}, {"type": "node", "id": 1150967250, "lat": 12.41389, "lon": 41.435, "tags": {"is_in:country_code": "ET", "is_in:county": "Ethiopia", "name": "Geleblu Derek' Hayk'", "place": "locality", "source": "GeoDatabase"}}, {"type": "node", "id": 1150973554, "lat": 12.6, "lon": 41.5, "tags": {"is_in:country_code": "ET", "is_in:county": "Ethiopia", "name": "Masca", "place": "locality", "source": "GeoDatabase"}}, {"type": "node", "id": 1150973594, "lat": 12.4, "lon": 41.26667, "tags": {"is_in:country_code": "ET", "is_in:county": "Ethiopia", "name": "Daka", "place": "locality", "source": "GeoDatabase"}}, {"type": "node", "id": 9269491058, "lat": 12.4030137, "lon": 41.1828169, "tags": {"place": "hamlet"}}]}