{"version": 0.6, "generator": "Overpass API 0.7.62.1 084b4234", "osm3s": {"timestamp_osm_base": "2024-09-30T23:14:58Z", "copyright": "The data included in this document is from www.openstreetmap.org. The data is made available under ODbL."}, "elements": [{"type": "node", "id": 1150883053, "lat": 6.1, "lon": 41.85, "tags": {"is_in:country": "Ethiopia", "is_in:country_code": "ET", "name": "Hogdu", "place": "locality", "source": "GeoDatabase"}}, {"type": "node", "id": 1150883864, "lat": 5.93333, "lon": 41.8, "tags": {"is_in:country": "Ethiopia", "is_in:country_code": "ET", "name": "Farisa", "place": "locality", "source": "GeoDatabase"}}, {"type": "node", "id": 1150884698, "lat": 6.16667, "lon": 41.73333, "tags": {"is_in:country": "Ethiopia", "is_in:country_code": "ET", "name": "Basra", "place": "locality", "source": "GeoDatabase"}}, {"type": "node", "id": 1150902416, "lat": 6.0, "lon": 41.85, "tags": {"is_in:country": "Ethiopia", "is_in:country_code": "ET", "name": "Oror", "place": "locality", "source": "GeoDatabase"}}, {"type": "node", "id": 1150904036, "lat": 6.01667, "lon": 41.78333, "tags": {"is_in:country": "Ethiopia", "is_in:country_code": "ET", "name": "Biscei", "place": "locality", "source": "GeoDatabase"}}, {"type": "node", "id": 1150925009, "lat": 6.16667, "lon": 41.75, "tags": {"is_in:country": "Ethiopia", "is_in:country_code": "ET", "name": "Audo Range", "place": "locality", "source": "GeoDatabase"}}, {"type": "node", "id": 1150925854, "lat": 5.85, "lon": 41.78333, "tags": {"is_in:country": "Ethiopia", "is_in:country_code": "ET", "name": "Uaresa", "place": "locality", "source": "GeoDatabase"}}, {"type": "node", "id": 1150953850, "lat": 6.03333, "lon": 41.88333, "tags": {"is_in:country": "Ethiopia", "is_in:country_code": "ET", "name": "Sciacchisa", "place": "locality", "source": "GeoDatabase"}}, {"type": "node", "id": 1150956758, "lat": 5.95, "lon": 41.7, "tags": {"is_in:country": "Ethiopia", "is_in:country_code": "ET", "name": "Beret", "place": "locality", "source": "GeoDatabase"}}, {"type": "node", "id": 1151004287, "lat": 6.09833, "lon": 42.0725, "tags": {"is_in:country": "Ethiopia", "is_in:country_code": "ET", "name": "El Roka", "place": "locality", "source": "GeoDatabase"}}]}