{"version": 0.6, "generator": "Overpass API 0.7.62.1 084b4234", "osm3s": {"timestamp_osm_base": "2024-10-01T00:18:45Z", "copyright": "The data included in this document is from www.openstreetmap.org. The data is made available under ODbL."}, "elements": [{"type": "node", "id": 1150882407, "lat": 7.43333, "lon": 37.33333, "tags": {"is_in:country": "Ethiopia", "is_in:country_code": "ET", "name": "Cafifarsa", "place": "locality", "source": "GeoDatabase"}}, {"type": "node", "id": 1150883174, "lat": 7.23333, "lon": 37.58333, "tags": {"is_in:country": "Ethiopia", "is_in:country_code": "ET", "name": "Maissai", "place": "locality", "source": "GeoDatabase"}}, {"type": "node", "id": 1150887956, "lat": 7.06667, "lon": 37.33333, "tags": {"is_in:country": "Ethiopia", "is_in:country_code": "ET", "name": "Mareca", "place": "locality", "source": "GeoDatabase"}}, {"type": "node", "id": 1150892085, "lat": 7.33333, "lon": 37.51667, "tags": {"is_in:country": "Ethiopia", "is_in:country_code": "ET", "name": "Vusciule", "place": "locality", "source": "GeoDatabase"}}, {"type": "node", "id": 1150896414, "lat": 7.23333, "lon": 37.7, "tags": {"is_in:country": "Ethiopia", "is_in:country_code": "ET", "name": "Hololamo Bota", "place": "locality", "source": "GeoDatabase"}}, {"type": "node", "id": 1150897770, "lat": 7.1964404, "lon": 37.6639481, "tags": {"name": "Hadero", "place": "town", "source": "GeoDatabase"}}, {"type": "node", "id": 1150899477, "lat": 7.06667, "lon": 37.68333, "tags": {"is_in:country": "Ethiopia", "is_in:country_code": "ET", "name": "Doubo", "place": "locality", "source": "GeoDatabase"}}, {"type": "node", "id": 1150899546, "lat": 7.33333, "lon": 37.35, "tags": {"is_in:country": "Ethiopia", "is_in:country_code": "ET", "name": "Fiume Gogeb", "place": "locality", "source": "GeoDatabase"}}, {"type": "node", "id": 1150902029, "lat": 7.36667, "lon": 37.68333, "tags": {"is_in:country": "Ethiopia", "is_in:country_code": "ET", "name": "Let'Ebo Bota", "place": "locality", "source": "GeoDatabase"}}, {"type": "node", "id": 1150902171, "lat": 7.2, "lon": 37.53333, "tags": {"is_in:country": "Ethiopia", "is_in:country_code": "ET", "name": "Tambaro", "place": "locality", "source": "GeoDatabase"}}, {"type": "node", "id": 1150902433, "lat": 7.33333, "lon": 37.58333, "tags": {"is_in:country": "Ethiopia", "is_in:country_code": "ET", "name": "Sengiya Terara", "place": "locality", "source": "GeoDatabase"}}, {"type": "node", "id": 1150907468, "lat": 7.26667, "lon": 37.66667, "tags": {"is_in:country": "Ethiopia", "is_in:country_code": "ET", "name": "Turduna Terara", "place": "locality", "source": "GeoDatabase"}}, {"type": "node", "id": 1150913824, "lat": 7.4507047, "lon": 37.6243012, "tags": {"is_in:country": "Ethiopia", "is_in:country_code": "ET", "name": "Gimbichu", "place": "village", "source": "GeoDatabase"}}, {"type": "node", "id": 1150919770, "lat": 7.41667, "lon": 37.51667, "tags": {"is_in:country": "Ethiopia", "is_in:country_code": "ET", "name": "Sciola", "place": "locality", "source": "GeoDatabase"}}, {"type": "node", "id": 1150925266, "lat": 7.31667, "lon": 37.35, "tags": {"is_in:country": "Ethiopia", "is_in:country_code": "ET", "name": "Odonita", "place": "locality", "source": "GeoDatabase"}}, {"type": "node", "id": 1150926521, "lat": 7.36667, "lon": 37.51667, "tags": {"is_in:country": "Ethiopia", "is_in:country_code": "ET", "name": "Jacho", "place": "locality", "source": "GeoDatabase"}}, {"type": "node", "id": 1150933077, "lat": 7.16667, "lon": 37.41667, "tags": {"is_in:country": "Ethiopia", "is_in:country_code": "ET", "name": "Gena", "place": "locality", "source": "GeoDatabase"}}, {"type": "node", "id": 1150936720, "lat": 7.15, "lon": 37.63333, "tags": {"is_in:country": "Ethiopia", "is_in:country_code": "ET", "name": "Afama Bota", "place": "locality", "source": "GeoDatabase"}}, {"type": "node", "id": 1150939595, "lat": 7.18333, "lon": 37.58333, "tags": {"is_in:country": "Ethiopia", "is_in:country_code": "ET", "name": "Godiccio", "place": "locality", "source": "GeoDatabase"}}, {"type": "node", "id": 1150939728, "lat": 7.08333, "lon": 37.41667, "tags": {"is_in:country": "Ethiopia", "is_in:country_code": "ET", "name": "Tulema", "place": "locality", "source": "GeoDatabase"}}, {"type": "node", "id": 1150941248, "lat": 7.3, "lon": 37.6, "tags": {"is_in:country": "Ethiopia", "is_in:country_code": "ET", "name": "Het'Ema", "place": "locality", "source": "GeoDatabase"}}, {"type": "node", "id": 1150961812, "lat": 7.48333, "lon": 37.7, "tags": {"is_in:country": "Ethiopia", "is_in:country_code": "ET", "name": "Dereba Bota", "place": "locality", "source": "GeoDatabase"}}, {"type": "node", "id": 1150961839, "lat": 7.45, "lon": 37.58333, "tags": {"is_in:country": "Ethiopia", "is_in:country_code": "ET", "name": "Gidachemo Bota", "place": "locality", "source": "GeoDatabase"}}, {"type": "node", "id": 1150968726, "lat": 7.38333, "lon": 37.6, "tags": {"is_in:country": "Ethiopia", "is_in:country_code": "ET", "name": "T'Embero Bota", "place": "locality", "source": "GeoDatabase"}}, {"type": "node", "id": 1150972509, "lat": 7.15, "lon": 37.7, "tags": {"is_in:country": "Ethiopia", "is_in:country_code": "ET", "name": "Villagio Bottego", "place": "locality", "source": "GeoDatabase"}}, {"type": "node", "id": 1150980638, "lat": 7.15, "lon": 37.66667, "tags": {"is_in:country": "Ethiopia", "is_in:country_code": "ET", "name": "Gaggie", "place": "locality", "source": "GeoDatabase"}}, {"type": "node", "id": 1151002339, "lat": 7.25, "lon": 37.53333, "tags": {"is_in:country": "Ethiopia", "is_in:country_code": "ET", "name": "Osciot", "place": "locality", "source": "GeoDatabase"}}, {"type": "node", "id": 1151003437, "lat": 7.21667, "lon": 37.63333, "tags": {"is_in:country": "Ethiopia", "is_in:country_code": "ET", "name": "Mugunja", "place": "locality", "source": "GeoDatabase"}}, {"type": "node", "id": 1234353568, "lat": 7.1867949, "lon": 37.7149903, "tags": {"name": "Masora", "place": "village"}}, {"type": "node", "id": 2169095783, "lat": 7.1502156, "lon": 37.6610786, "tags": {"name": "Hembecho", "name:wal": "Hembeecho", "place": "town"}}, {"type": "node", "id": 2169095977, "lat": 7.1371328, "lon": 37.5816209, "tags": {"name": "Bombe", "place": "town"}}, {"type": "node", "id": 8358341275, "lat": 7.4458948, "lon": 37.396864}, {"type": "node", "id": 8358341276, "lat": 7.4458794, "lon": 37.3965531}, {"type": "node", "id": 8358341277, "lat": 7.446162, "lon": 37.396522}, {"type": "node", "id": 8358341278, "lat": 7.4462648, "lon": 37.3962992}, {"type": "node", "id": 8358341279, "lat": 7.4462031, "lon": 37.396123}, {"type": "node", "id": 8358341280, "lat": 7.4461723, "lon": 37.3959053}, {"type": "node", "id": 8358341281, "lat": 7.4460644, "lon": 37.3957395}, {"type": "node", "id": 8358341282, "lat": 7.4459051, "lon": 37.395781}, {"type": "node", "id": 8358341283, "lat": 7.4457561, "lon": 37.396066}, {"type": "node", "id": 8358341284, "lat": 7.4457304, "lon": 37.3962836}, {"type": "node", "id": 8358341285, "lat": 7.445751, "lon": 37.3965375}, {"type": "node", "id": 8358341286, "lat": 7.4457304, "lon": 37.3967189}, {"type": "node", "id": 8358341287, "lat": 7.4458075, "lon": 37.3969003}, {"type": "node", "id": 8358341325, "lat": 7.3445767, "lon": 37.3589455}, {"type": "node", "id": 8358341326, "lat": 7.3436811, "lon": 37.3588689}, {"type": "node", "id": 8358341327, "lat": 7.3434361, "lon": 37.3592522}, {"type": "node", "id": 8358341328, "lat": 7.3435037, "lon": 37.3596696}, {"type": "node", "id": 8358341329, "lat": 7.3440951, "lon": 37.3599081}, {"type": "node", "id": 8358341330, "lat": 7.3444162, "lon": 37.3597889}, {"type": "node", "id": 8358341331, "lat": 7.3445429, "lon": 37.3595759}, {"type": "node", "id": 8358341332, "lat": 7.3488073, "lon": 37.3563291}, {"type": "node", "id": 8358341333, "lat": 7.3476421, "lon": 37.3573329}, {"type": "node", "id": 8358341334, "lat": 7.347148, "lon": 37.3578246}, {"type": "node", "id": 8358341335, "lat": 7.3470921, "lon": 37.3582688}, {"type": "node", "id": 8358341336, "lat": 7.3470817, "lon": 37.3584522}, {"type": "node", "id": 8358341337, "lat": 7.3470816, "lon": 37.358673}, {"type": "node", "id": 8358341338, "lat": 7.347027, "lon": 37.3588034}, {"type": "node", "id": 8358341339, "lat": 7.3468958, "lon": 37.3592096}, {"type": "node", "id": 8358341340, "lat": 7.3474008, "lon": 37.3595153}, {"type": "node", "id": 8358341341, "lat": 7.3475891, "lon": 37.3595028}, {"type": "node", "id": 8358341342, "lat": 7.3476575, "lon": 37.3590125}, {"type": "node", "id": 8358341343, "lat": 7.3479219, "lon": 37.3587946}, {"type": "node", "id": 8358341344, "lat": 7.3481724, "lon": 37.3586071}, {"type": "node", "id": 8358341345, "lat": 7.3484286, "lon": 37.3583112}, {"type": "node", "id": 8358341346, "lat": 7.3485638, "lon": 37.357969}, {"type": "node", "id": 8358341347, "lat": 7.3490204, "lon": 37.3580242}, {"type": "node", "id": 9239272288, "lat": 7.4597519, "lon": 37.6918601, "tags": {"name": "Jajura", "place": "village"}}, {"type": "node", "id": 11570510527, "lat": 7.1786697, "lon": 37.5391298}, {"type": "node", "id": 11570510528, "lat": 7.1784888, "lon": 37.539044}, {"type": "node", "id": 11570510529, "lat": 7.1780044, "lon": 37.5390172}, {"type": "node", "id": 11570510530, "lat": 7.1776691, "lon": 37.5392854}, {"type": "node", "id": 11570510531, "lat": 7.177717, "lon": 37.5397468}, {"type": "node", "id": 11570510532, "lat": 7.1781162, "lon": 37.5398701}, {"type": "node", "id": 11570510533, "lat": 7.1785047, "lon": 37.5396931}, {"type": "node", "id": 11570510534, "lat": 7.1787549, "lon": 37.5394142}, {"type": "node", "id": 11570510552, "lat": 7.3484134, "lon": 37.3563534}, {"type": "node", "id": 11570510553, "lat": 7.3494695, "lon": 37.3564553}, {"type": "node", "id": 11570510554, "lat": 7.349794, "lon": 37.3578876}, {"type": "node", "id": 11570510555, "lat": 7.3498898, "lon": 37.3568308}, {"type": "node", "id": 11570510556, "lat": 7.3480995, "lon": 37.3565116}, {"type": "node", "id": 11699215658, "lat": 7.0732372, "lon": 37.707838, "tags": {"name": "Areka", "name:wal": "Arakka", "place": "city", "wikidata": "Q4788771", "wikipedia": "en:Areka"}}, {"type": "node", "id": 11716457187, "lat": 7.1564074, "lon": 37.7003923, "tags": {"name": "Achura", "name:wal": "Achuura", "place": "town"}}, {"type": "way", "id": 899581678, "nodes": [8358341275, 8358341276, 8358341277, 8358341278, 8358341279, 8358341280, 8358341281, 8358341282, 8358341283, 8358341284, 8358341285, 8358341286, 8358341287, 8358341275], "tags": {"place": "islet"}}, {"type": "way", "id": 899581681, "nodes": [8358341325, 8358341326, 8358341327, 8358341328, 8358341329, 8358341330, 8358341331, 8358341325], "tags": {"place": "islet"}}, {"type": "way", "id": 899581682, "nodes": [8358341332, 11570510552, 11570510556, 8358341333, 8358341334, 8358341335, 8358341336, 8358341337, 8358341338, 8358341339, 8358341340, 8358341341, 8358341342, 8358341343, 8358341344, 8358341345, 8358341346, 8358341347, 11570510554, 11570510555, 11570510553, 8358341332], "tags": {"place": "islet"}}, {"type": "way", "id": 1244692138, "nodes": [11570510534, 11570510533, 11570510532, 11570510531, 11570510530, 11570510529, 11570510528, 11570510527, 11570510534], "tags": {"place": "islet"}}]}