{"version": 0.6, "generator": "Overpass API 0.7.62.1 084b4234", "osm3s": {"timestamp_osm_base": "2024-09-30T23:14:58Z", "copyright": "The data included in this document is from www.openstreetmap.org. The data is made available under ODbL."}, "elements": [{"type": "node", "id": 1150880927, "lat": 4.26667, "lon": 42.26667, "tags": {"name": "El Bangol", "place": "locality", "source": "GeoDatabase"}}, {"type": "node", "id": 1150882691, "lat": 4.30139, "lon": 42.37333, "tags": {"name": "Au-Serrou", "place": "locality", "source": "GeoDatabase"}}, {"type": "node", "id": 1150892222, "lat": 4.25778, "lon": 42.25611, "tags": {"name": "El Bangol", "place": "locality", "source": "GeoDatabase"}}, {"type": "node", "id": 1150899555, "lat": 4.2, "lon": 42.43333, "tags": {"name": "Ghersei", "place": "locality", "source": "GeoDatabase"}}, {"type": "node", "id": 1150901043, "lat": 4.26583, "lon": 42.18972, "tags": {"name": "Bur Bangol", "place": "locality", "source": "GeoDatabase"}}, {"type": "node", "id": 1150902047, "lat": 4.40194, "lon": 42.155, "tags": {"is_in:country": "Ethiopia", "is_in:country_code": "ET", "name": "Fidegan", "place": "locality", "source": "GeoDatabase"}}, {"type": "node", "id": 1150904725, "lat": 4.48111, "lon": 42.30889, "tags": {"is_in:country": "Ethiopia", "is_in:country_code": "ET", "name": "Far'Usbo", "place": "locality", "source": "GeoDatabase", "wikidata": "Q23963538"}}, {"type": "node", "id": 1150910865, "lat": 4.21083, "lon": 42.37528, "tags": {"name": "Curro", "place": "locality", "source": "GeoDatabase"}}, {"type": "node", "id": 1150912868, "lat": 4.41556, "lon": 42.41583, "tags": {"is_in:country": "Ethiopia", "is_in:country_code": "ET", "name": "Botin-Liba", "place": "locality", "source": "GeoDatabase"}}, {"type": "node", "id": 1150924347, "lat": 4.20528, "lon": 42.42778, "tags": {"name": "Ghersei", "place": "locality", "source": "GeoDatabase"}}, {"type": "node", "id": 1150925375, "lat": 4.42556, "lon": 42.1925, "tags": {"is_in:country": "Ethiopia", "is_in:country_code": "ET", "name": "El Gandor", "place": "locality", "source": "GeoDatabase"}}, {"type": "node", "id": 1150926009, "lat": 4.20083, "lon": 42.38722, "tags": {"name": "Curro", "place": "locality", "source": "GeoDatabase"}}, {"type": "node", "id": 1150929909, "lat": 4.50806, "lon": 42.16917, "tags": {"is_in:country": "Ethiopia", "is_in:country_code": "ET", "name": "El Debb", "place": "locality", "source": "GeoDatabase", "wikidata": "Q24031074"}}, {"type": "node", "id": 1150942134, "lat": 4.14611, "lon": 42.29444, "tags": {"name": "Correi", "place": "locality", "source": "GeoDatabase"}}, {"type": "node", "id": 1150944659, "lat": 4.43556, "lon": 42.18861, "tags": {"is_in:country": "Ethiopia", "is_in:country_code": "ET", "name": "El Gundor", "place": "locality", "source": "GeoDatabase"}}, {"type": "node", "id": 1150947690, "lat": 4.39389, "lon": 42.39111, "tags": {"is_in:country": "Ethiopia", "is_in:country_code": "ET", "name": "Digiran-God", "place": "locality", "source": "GeoDatabase"}}, {"type": "node", "id": 1150952172, "lat": 4.25722, "lon": 42.38361, "tags": {"name": "Kabo-Kutab", "place": "locality", "source": "GeoDatabase"}}, {"type": "node", "id": 1404222037, "lat": 4.177, "lon": 42.4729, "tags": {"name": "Eeygadhalay", "pcode": "NB-3813-V11-001", "place": "hamlet", "source": "UNDP - 1997"}}, {"type": "node", "id": 1404222268, "lat": 4.13258, "lon": 42.1768, "tags": {"name": "Barabaraay", "pcode": "NB-3813-W04-001", "place": "village", "source": "UNDP - 2006"}}, {"type": "node", "id": 1404223133, "lat": 4.13284, "lon": 42.16582, "tags": {"name": "Waareeyle", "pcode": "NB-3813-W04-002", "place": "village", "source": "UNDP - 2006"}}, {"type": "node", "id": 1404225171, "lat": 4.17027, "lon": 42.12147, "tags": {"name": "Bantaal", "pcode": "NB-3813-V03-001", "place": "hamlet", "source": "FSAU"}}, {"type": "node", "id": 1404229472, "lat": 4.12397, "lon": 42.13046, "tags": {"name": "Bundogadud", "pcode": "NB-3813-X03-001", "place": "hamlet", "source": "FSAU"}}, {"type": "node", "id": 1404230343, "lat": 4.1715, "lon": 42.448101, "tags": {"name": "Bar Ballei", "pcode": "NB-3813-V10-001", "place": "village", "source": "UNDP - 1997"}}, {"type": "node", "id": 1404230657, "lat": 4.1345, "lon": 42.21043, "tags": {"alt_name": "Gubataa", "name": "Gubataay", "pcode": "NB-3813-W05-001", "place": "hamlet", "source": "UNDP - 2006"}}, {"type": "node", "id": 1404232929, "lat": 4.14908, "lon": 42.12894, "tags": {"name": "Buulo Qalooc", "pcode": "NB-3813-W03-001", "place": "hamlet", "source": "UNDP - 2006"}}, {"type": "node", "id": 1404233359, "lat": 4.1276, "lon": 42.25621, "tags": {"name": "Saadhuumaay", "pcode": "NB-3813-W06-001", "place": "village", "source": "UNDP - 2006"}}]}