{"version": 0.6, "generator": "Overpass API 0.7.62.1 084b4234", "osm3s": {"timestamp_osm_base": "2024-09-30T23:29:22Z", "copyright": "The data included in this document is from www.openstreetmap.org. The data is made available under ODbL."}, "elements": [{"type": "node", "id": 1150880806, "lat": 10.04444, "lon": 42.58889, "tags": {"is_in:country": "Ethiopia", "is_in:country_code": "ET", "name": "Korohor Meda", "place": "locality", "source": "GeoDatabase"}}, {"type": "node", "id": 1150886678, "lat": 9.93611, "lon": 42.87278, "tags": {"is_in:country": "Ethiopia", "is_in:country_code": "ET", "name": "Jelo Shet'", "place": "locality", "source": "GeoDatabase", "wikidata": "Q23961492"}}, {"type": "node", "id": 1150886909, "lat": 9.91444, "lon": 42.77917, "tags": {"is_in:country": "Ethiopia", "is_in:country_code": "ET", "name": "Dogle Shet'", "place": "locality", "source": "GeoDatabase", "wikidata": "Q23962369"}}, {"type": "node", "id": 1150887158, "lat": 10.07444, "lon": 42.85778, "tags": {"is_in:country": "Ethiopia", "is_in:country_code": "ET", "name": "Gocti", "place": "locality", "source": "GeoDatabase"}}, {"type": "node", "id": 1150892035, "lat": 9.93361, "lon": 42.7175, "tags": {"is_in:country": "Ethiopia", "is_in:country_code": "ET", "name": "Arabi", "place": "village", "source": "GeoDatabase", "wikidata": "Q55604119"}}, {"type": "node", "id": 1150899891, "lat": 9.81833, "lon": 42.58222, "tags": {"is_in:country": "Ethiopia", "is_in:country_code": "ET", "name": "K'Awdera", "place": "locality", "source": "GeoDatabase"}}, {"type": "node", "id": 1150900561, "lat": 10.01667, "lon": 42.61667, "tags": {"is_in:country": "Ethiopia", "is_in:country_code": "ET", "name": "Dembel Shet'", "place": "locality", "source": "GeoDatabase", "wikidata": "Q23962433"}}, {"type": "node", "id": 1150921689, "lat": 9.91833, "lon": 42.73278, "tags": {"is_in:country": "Ethiopia", "is_in:country_code": "ET", "name": "Shebele Shet'", "place": "locality", "source": "GeoDatabase", "wikidata": "Q23961172"}}, {"type": "node", "id": 1150923620, "lat": 10.16667, "lon": 42.66667, "tags": {"is_in:country": "Ethiopia", "is_in:country_code": "ET", "name": "Banka Ellis", "place": "locality", "source": "GeoDatabase"}}, {"type": "node", "id": 1150932615, "lat": 9.83556, "lon": 42.74889, "tags": {"is_in:country": "Ethiopia", "is_in:country_code": "ET", "name": "Giogi", "place": "locality", "source": "GeoDatabase"}}, {"type": "node", "id": 1150935153, "lat": 10.12056, "lon": 42.72583, "tags": {"is_in:country": "Ethiopia", "is_in:country_code": "ET", "name": "Uadi Soca", "place": "locality", "source": "GeoDatabase"}}, {"type": "node", "id": 1150936955, "lat": 10.01056, "lon": 42.62722, "tags": {"is_in:country": "Ethiopia", "is_in:country_code": "ET", "name": "Gereba'At Shet'", "place": "locality", "source": "GeoDatabase", "wikidata": "Q23962035"}}, {"type": "node", "id": 1150948936, "lat": 9.92083, "lon": 42.57917, "tags": {"is_in:country": "Ethiopia", "is_in:country_code": "ET", "name": "Harraua", "place": "locality", "source": "GeoDatabase", "wikidata": "Q24028168"}}, {"type": "node", "id": 1150963144, "lat": 9.92972, "lon": 42.84028, "tags": {"is_in:country": "Ethiopia", "is_in:country_code": "ET", "name": "Gogeyti Shet'", "place": "locality", "source": "GeoDatabase", "wikidata": "Q23961962"}}, {"type": "node", "id": 1150963591, "lat": 9.91361, "lon": 42.765, "tags": {"is_in:country": "Ethiopia", "is_in:country_code": "ET", "name": "Kharoue-Shet", "place": "locality", "source": "GeoDatabase"}}, {"type": "node", "id": 1150978644, "lat": 10.1, "lon": 42.75778, "tags": {"is_in:country": "Ethiopia", "is_in:country_code": "ET", "name": "Odah Shet'", "place": "locality", "source": "GeoDatabase"}}, {"type": "node", "id": 1151005067, "lat": 9.95111, "lon": 42.69417, "tags": {"is_in:country": "Ethiopia", "is_in:country_code": "ET", "name": "Arabi Shet'", "place": "locality", "source": "GeoDatabase", "wikidata": "Q23962828"}}, {"type": "node", "id": 9513601703, "lat": 10.1859403, "lon": 42.8042812, "tags": {"place": "hamlet"}}, {"type": "node", "id": 10602151730, "lat": 9.8108724, "lon": 42.6029152, "tags": {"name": "Dambel", "place": "village"}}]}