{"version": 0.6, "generator": "Overpass API 0.7.62.1 084b4234", "osm3s": {"timestamp_osm_base": "2024-09-30T21:22:41Z", "copyright": "The data included in this document is from www.openstreetmap.org. The data is made available under ODbL."}, "elements": [{"type": "node", "id": 1404221328, "lat": 1.89668, "lon": 42.500591, "tags": {"name": "Juwaarey", "pcode": "NA-3809-C12-001", "place": "village", "source": "UNDP - 2006, UNDP - 1997"}}, {"type": "node", "id": 1404221607, "lat": 1.9430841, "lon": 42.2701154, "tags": {"name": "Gaaguure", "pcode": "NA-3809-B06-002", "place": "village", "source": "UNDP - 2006, UNDP - 1997"}}, {"type": "node", "id": 1404221747, "lat": 1.902, "lon": 42.580898, "tags": {"name": "Uacalla Iero", "pcode": "NA-3809-C13-002", "place": "village", "source": "UNDP - 1997"}}, {"type": "node", "id": 1404221996, "lat": 1.7422006, "lon": 42.3439211, "tags": {"name": "Dhaweynta", "pcode": "NA-3809-G08-001", "place": "village", "source": "UNDP - 1997"}}, {"type": "node", "id": 1404222146, "lat": 1.9205446, "lon": 42.3060023, "tags": {"name": "Buulo Kuunyo", "pcode": "NA-3809-B07-001", "place": "hamlet", "source": "UNDP - 2006"}}, {"type": "node", "id": 1404222334, "lat": 1.91479, "lon": 42.28561, "tags": {"name": "Shamba", "pcode": "NA-3809-C07-005", "place": "village", "source": "UNDP - 2006"}}, {"type": "node", "id": 1404222372, "lat": 1.86494, "lon": 42.659069, "tags": {"name": "Caliyo Erbow", "pcode": "NA-3809-D15-002", "place": "village", "source": "UNDP - 1997"}}, {"type": "node", "id": 1404223015, "lat": 1.90243, "lon": 42.30344, "tags": {"name": "Laama Looshi", "pcode": "NA-3809-C07-002", "place": "village", "source": "UNDP - 2006"}}, {"type": "node", "id": 1404223272, "lat": 1.82279, "lon": 42.57114, "tags": {"name": "Galooley", "pcode": "NA-3809-E13-003", "place": "village", "source": "UNDP - 2006, UNDP - 1997"}}, {"type": "node", "id": 1404223515, "lat": 1.6818, "lon": 42.399799, "tags": {"name": "Doffe", "pcode": "NA-3809-H09-003", "place": "locality", "source": "UNDP - 1997"}}, {"type": "node", "id": 1404223523, "lat": 1.90253, "lon": 42.451981, "tags": {"name": "Caleyow Kerrow", "pcode": "NA-3809-C10-004", "place": "village", "source": "UNDP - 1997"}}, {"type": "node", "id": 1404223534, "lat": 1.90269, "lon": 42.30552, "tags": {"name": "Qotey", "pcode": "NA-3809-C07-004", "place": "village", "source": "UNDP - 2006"}}, {"type": "node", "id": 1404223696, "lat": 1.5525, "lon": 42.451401, "tags": {"alt_name": "Hakaka", "name": "Xa Kaka", "pcode": "NA-3809-L10-002", "place": "locality", "source": "UNDP - 1997, FSAU"}}, {"type": "node", "id": 1404224407, "lat": 1.83831, "lon": 42.583519, "tags": {"alt_name": "Gadudey", "name": "Gaduuday", "pcode": "NA-3809-D13-001", "place": "village", "source": "UNDP - 1997, FSAU"}}, {"type": "node", "id": 1404224433, "lat": 1.87496, "lon": 42.639721, "tags": {"name": "Goomuur", "pcode": "NA-3809-D15-003", "place": "village", "source": "UNDP - 2006, UNDP - 1997"}}, {"type": "node", "id": 1404224676, "lat": 1.84451, "lon": 42.601501, "tags": {"name": "Yaniis", "pcode": "NA-3809-D14-001", "place": "village", "source": "UNDP - 1997"}}, {"type": "node", "id": 1404224793, "lat": 1.79155, "lon": 42.592949, "tags": {"name": "Qurdhuuba", "pcode": "NA-3809-F14-001", "place": "village", "source": "UNDP - 1997"}}, {"type": "node", "id": 1404224799, "lat": 1.8757, "lon": 42.318069, "tags": {"alt_name": "Waabo Yarey", "name": "Waabo", "pcode": "NA-3809-C07-001", "place": "locality", "source": "UNDP - 2006, UNDP - 1997"}}, {"type": "node", "id": 1404225148, "lat": 1.80687, "lon": 42.610729, "tags": {"name": "Foorsa", "pcode": "NA-3809-E14-001", "place": "village", "source": "UNDP - 1997"}}, {"type": "node", "id": 1404225213, "lat": 1.87442, "lon": 42.355751, "tags": {"name": "Buurka", "pcode": "NA-3809-D08-002", "place": "village", "source": "UNDP - 2006, UNDP - 1997"}}, {"type": "node", "id": 1404225228, "lat": 1.79253, "lon": 42.535271, "tags": {"name": "Fiika Weera", "pcode": "NA-3809-E12-001", "place": "village", "source": "UNDP - 1997"}}, {"type": "node", "id": 1404225352, "lat": 1.91444, "lon": 42.34175, "tags": {"alt_name": "Cadey", "name": "Bulo Adey", "pcode": "NA-3809-C08-002", "place": "village", "source": "UNDP - 2006, UNDP - 1997"}}, {"type": "node", "id": 1404225537, "lat": 1.68813, "lon": 42.341049, "tags": {"name": "Barsa", "pcode": "NA-3809-H08-001", "place": "locality", "source": "UNDP - 1997"}}, {"type": "node", "id": 1404225706, "lat": 1.752043, "lon": 42.5077137, "tags": {"alt_name": "Nebsoy", "name": "Nebsooy", "pcode": "NA-3809-G12-001", "place": "village", "source": "UNDP - 1997, FSAU"}}, {"type": "node", "id": 1404225731, "lat": 1.78715, "lon": 42.308201, "tags": {"name": "Laweya", "pcode": "NA-3809-F07-001", "place": "locality", "source": "UNDP - 1997"}}, {"type": "node", "id": 1404225733, "lat": 1.91978, "lon": 42.26479, "tags": {"name": "Daanyeere", "pcode": "NA-3809-B06-001", "place": "locality", "source": "UNDP - 1997"}}, {"type": "node", "id": 1404226095, "lat": 1.8267862, "lon": 42.3800616, "tags": {"alt_name": "Dagaras", "name": "Daggaras", "pcode": "NA-3809-E09-002", "place": "village", "source": "UNDP - 2006, UNDP - 1997, FSAU"}}, {"type": "node", "id": 1404226289, "lat": 1.79901, "lon": 42.57605, "tags": {"name": "Soomow", "pcode": "NA-3809-E13-001", "place": "village", "source": "UNDP - 2006, UNDP - 1997"}}, {"type": "node", "id": 1404226308, "lat": 1.8093779, "lon": 42.2911722, "tags": {"name": "Salagle", "pcode": "NA-3809-E07-003", "place": "village", "source": "UNDP - 1997, FSAU"}}, {"type": "node", "id": 1404226612, "lat": 1.67716, "lon": 42.48355, "tags": {"name": "Marmarka", "pcode": "NA-3809-H11-001", "place": "locality", "source": "FSAU"}}, {"type": "node", "id": 1404226729, "lat": 1.81277, "lon": 42.553349, "tags": {"name": "Wakaala Weyn", "pcode": "NA-3809-E13-002", "place": "village", "source": "UNDP - 1997"}}, {"type": "node", "id": 1404226757, "lat": 1.67924, "lon": 42.5224, "tags": {"name": "Qeed Cajuuso", "pcode": "NA-3809-H12-001", "place": "village", "source": "UNDP - 1997"}}, {"type": "node", "id": 1404226841, "lat": 1.91617, "lon": 42.283329, "tags": {"name": "Buur Gaduud", "pcode": "NA-3809-C07-006", "place": "village", "source": "UNDP - 1997"}}, {"type": "node", "id": 1404227534, "lat": 1.6682091, "lon": 42.4265357, "tags": {"name": "Birbiris", "pcode": "NA-3809-H10-001", "place": "village", "source": "UNDP - 1997"}}, {"type": "node", "id": 1404227880, "lat": 1.9409617, "lon": 42.341888, "tags": {"name": "Baar Dufle", "pcode": "NA-3809-B08-001", "place": "village", "source": "UNDP - 2006"}}, {"type": "node", "id": 1404228924, "lat": 1.6904443, "lon": 42.4056609, "tags": {"name": "Gurmeyso", "pcode": "NA-3809-H09-004", "place": "village", "source": "UNDP - 2006, UNDP - 1997, FSAU"}}, {"type": "node", "id": 1404229055, "lat": 1.8617, "lon": 42.62606, "tags": {"name": "Goloolay", "pcode": "NA-3809-D14-005", "place": "village", "source": "UNDP - 1997"}}, {"type": "node", "id": 1404229601, "lat": 1.8963199, "lon": 42.4960327, "tags": {"alt_name": "Aliow Keyrow", "name": "Aliowkerow", "pcode": "NA-3809-C11-002", "place": "village", "source": "FSAU"}}, {"type": "node", "id": 1404229855, "lat": 1.83997, "lon": 42.4104, "tags": {"name": "Towsi", "pcode": "NA-3809-D10-001", "place": "village", "source": "UNDP - 2006, FSAU"}}, {"type": "node", "id": 1404230241, "lat": 1.6397636, "lon": 42.4550696, "tags": {"alt_name": "Sako", "name": "Saakow \u0633\u0627\u0627\u0643\u0648\u0648", "name:ar": "\u0633\u0627\u0627\u0643\u0648\u0648", "name:en": "Saakow", "name:fr": "Saakow", "name:ur": "\u0633\u0627\u06a9\u0648\u0648", "pcode": "NA-3809-J10-002", "place": "town", "source": "UNDP - 1997, FSAU", "wikidata": "Q7395630", "wikipedia": "so:Saakow"}}, {"type": "node", "id": 1404230341, "lat": 1.6226962, "lon": 42.4286298, "tags": {"name": "Mus Duniya", "pcode": "NA-3809-K10-002", "place": "village", "source": "UNDP - 2006, UNDP - 1997"}}, {"type": "node", "id": 1404230633, "lat": 1.8841366, "lon": 42.3461739, "tags": {"name": "Baar Saare", "pcode": "NA-3809-C08-001", "place": "hamlet", "source": "UNDP - 2006"}}, {"type": "node", "id": 1404230649, "lat": 1.71933, "lon": 42.549221, "tags": {"name": "Ooro", "pcode": "NA-3809-G13-003", "place": "village", "source": "UNDP - 1997"}}, {"type": "node", "id": 1404230764, "lat": 1.58077, "lon": 42.469799, "tags": {"name": "Siyada", "pcode": "NA-3809-L11-002", "place": "locality", "source": "UNDP - 1997"}}, {"type": "node", "id": 1404230887, "lat": 1.8168, "lon": 42.649841, "tags": {"name": "Bagaadey", "pcode": "NA-3809-E15-001", "place": "village", "source": "UNDP - 1997"}}, {"type": "node", "id": 1404230918, "lat": 1.7433103, "lon": 42.3183808, "tags": {"alt_name": "Arogleey", "name": "Caragleey", "pcode": "NA-3809-G07-002", "place": "village", "source": "FSAU"}}, {"type": "node", "id": 1404231473, "lat": 1.60863, "lon": 42.490631, "tags": {"name": "Buur Fuul", "pcode": "NA-3809-K11-001", "place": "locality", "source": "UNDP - 1997"}}, {"type": "node", "id": 1404231532, "lat": 1.5451114, "lon": 42.4447487, "tags": {"name": "Qaboobe", "pcode": "NA-3809-L10-001", "place": "village", "source": "UNDP - 1997"}}, {"type": "node", "id": 1404231804, "lat": 1.6708, "lon": 42.391918, "tags": {"name": "Dhokay", "pcode": "NA-3809-H09-002", "place": "locality", "source": "UNDP - 1997"}}, {"type": "node", "id": 1404231862, "lat": 1.85023, "lon": 42.378201, "tags": {"alt_name": "Baarkamumin", "name": "Bar Muumin Dhoorow", "pcode": "NA-3809-D09-001", "place": "village", "source": "UNDP - 2006, UNDP - 1997, FSAU"}}, {"type": "node", "id": 1404231907, "lat": 1.6468968, "lon": 42.3570816, "tags": {"name": "Bulaqarurah", "pcode": "NA-3809-J08-001", "place": "village", "source": "FSAU"}}, {"type": "node", "id": 1404232825, "lat": 1.6695352, "lon": 42.3649297, "tags": {"name": "Sako Basra", "pcode": "NA-3809-H09-001", "place": "locality", "source": "FSAU"}}, {"type": "node", "id": 1404232854, "lat": 1.57863, "lon": 42.45525, "tags": {"name": "Qunjaale", "pcode": "NA-3809-L11-001", "place": "locality", "source": "UNDP - 1997"}}, {"type": "node", "id": 1404233304, "lat": 1.64741, "lon": 42.43275, "tags": {"name": "Hilo Amin", "pcode": "NA-3809-J10-003", "place": "locality", "source": "FSAU"}}, {"type": "node", "id": 1404233524, "lat": 1.82505, "lon": 42.677738, "tags": {"name": "Cashaaro", "pcode": "NA-3809-E15-002", "place": "village", "source": "UNDP - 1997"}}, {"type": "node", "id": 1404233595, "lat": 1.93628, "lon": 42.610241, "tags": {"name": "Cananoola", "pcode": "NA-3809-B14-001", "place": "hamlet", "source": "UNDP - 1997"}}, {"type": "node", "id": 1404233642, "lat": 1.8955124, "lon": 42.4424064, "tags": {"name": "Libi Buul", "pcode": "NA-3809-C10-003", "place": "village", "source": "UNDP - 1997"}}, {"type": "node", "id": 1404233808, "lat": 1.90198, "lon": 42.564548, "tags": {"name": "Banaada", "pcode": "NA-3809-C13-001", "place": "village", "source": "UNDP - 1997"}}, {"type": "node", "id": 1404233880, "lat": 1.7280142, "lon": 42.4073865, "tags": {"name": "Batuuto", "pcode": "NA-3809-G09-001", "place": "hamlet", "source": "UNDP - 2006, UNDP - 1997"}}, {"type": "node", "id": 11173497182, "lat": 1.7845445, "lon": 42.3786288, "tags": {"place": "village"}}, {"type": "node", "id": 11173497209, "lat": 1.7909465, "lon": 42.3755282, "tags": {"place": "village"}}, {"type": "node", "id": 11173563710, "lat": 1.7639952, "lon": 42.3861149, "tags": {"place": "village"}}, {"type": "node", "id": 11173564037, "lat": 1.7798475, "lon": 42.3822874, "tags": {"place": "village"}}, {"type": "node", "id": 11173576477, "lat": 1.8262911, "lon": 42.3441142, "tags": {"place": "village"}}, {"type": "node", "id": 11173576500, "lat": 1.8273366, "lon": 42.3305637, "tags": {"place": "hamlet"}}, {"type": "node", "id": 11173577997, "lat": 1.8058147, "lon": 42.3330259, "tags": {"place": "village"}}, {"type": "node", "id": 11173737033, "lat": 1.8143613, "lon": 42.3003432, "tags": {"place": "hamlet"}}, {"type": "node", "id": 11173738670, "lat": 1.819337, "lon": 42.3281336, "tags": {"place": "hamlet"}}, {"type": "node", "id": 11173738683, "lat": 1.8433787, "lon": 42.3370063, "tags": {"place": "hamlet"}}, {"type": "node", "id": 11173837606, "lat": 1.8352505, "lon": 42.2810554, "tags": {"place": "village"}}, {"type": "node", "id": 11173837633, "lat": 1.8462419, "lon": 42.2939193, "tags": {"place": "hamlet"}}, {"type": "node", "id": 11173901487, "lat": 1.7944745, "lon": 42.2601932, "tags": {"place": "hamlet"}}, {"type": "node", "id": 11173901531, "lat": 1.8068066, "lon": 42.2720915, "tags": {"place": "hamlet"}}, {"type": "node", "id": 11173904554, "lat": 1.8355668, "lon": 42.2942305, "tags": {"place": "village"}}, {"type": "node", "id": 11173904609, "lat": 1.8405022, "lon": 42.2611159, "tags": {"place": "hamlet"}}, {"type": "node", "id": 11174239457, "lat": 1.7946568, "lon": 42.2758037, "tags": {"place": "hamlet"}}, {"type": "node", "id": 11174441154, "lat": 1.7642016, "lon": 42.3457557, "tags": {"place": "hamlet"}}, {"type": "node", "id": 11174459152, "lat": 1.7643089, "lon": 42.2674862, "tags": {"place": "hamlet"}}, {"type": "node", "id": 11174493867, "lat": 1.878666, "lon": 42.2810635, "tags": {"place": "hamlet"}}, {"type": "node", "id": 11174555521, "lat": 1.9365777, "lon": 42.3049486, "tags": {"place": "hamlet"}}, {"type": "node", "id": 11174688448, "lat": 1.9302352, "lon": 42.347644, "tags": {"place": "hamlet"}}, {"type": "node", "id": 11176169113, "lat": 1.9450406, "lon": 42.3614949, "tags": {"place": "hamlet"}}, {"type": "node", "id": 11182555516, "lat": 1.8792317, "lon": 42.4157399, "tags": {"place": "village"}}, {"type": "node", "id": 11182600602, "lat": 1.8677472, "lon": 42.4068403, "tags": {"place": "hamlet"}}, {"type": "node", "id": 11182680760, "lat": 1.8127313, "lon": 42.3858225, "tags": {"place": "village"}}, {"type": "node", "id": 11183186223, "lat": 1.9378483, "lon": 42.4887818, "tags": {"place": "isolated_dwelling"}}, {"type": "node", "id": 11183294312, "lat": 1.9015355, "lon": 42.4294728, "tags": {"place": "hamlet"}}, {"type": "node", "id": 11183440812, "lat": 1.8702511, "lon": 42.4824035, "tags": {"place": "hamlet"}}, {"type": "node", "id": 11185269522, "lat": 1.8434645, "lon": 42.4520945, "tags": {"place": "village"}}, {"type": "node", "id": 11185276657, "lat": 1.8481613, "lon": 42.4680912, "tags": {"place": "hamlet"}}, {"type": "node", "id": 11187330292, "lat": 1.845695, "lon": 42.4203828, "tags": {"place": "hamlet"}}, {"type": "node", "id": 11187336860, "lat": 1.8305376, "lon": 42.420254, "tags": {"place": "hamlet"}}, {"type": "node", "id": 11188177051, "lat": 1.8983294, "lon": 42.3081565, "tags": {"place": "hamlet"}}, {"type": "node", "id": 11199921413, "lat": 1.8541127, "lon": 42.4824035, "tags": {"place": "hamlet"}}, {"type": "node", "id": 11199934588, "lat": 1.8604501, "lon": 42.4991083, "tags": {"place": "hamlet"}}, {"type": "node", "id": 11204933849, "lat": 1.9253242, "lon": 42.3574072, "tags": {"place": "hamlet"}}, {"type": "node", "id": 11574024127, "lat": 1.6136458, "lon": 42.4477981, "tags": {"place": "village"}}, {"type": "node", "id": 11574024128, "lat": 1.603531, "lon": 42.4037175, "tags": {"place": "village"}}, {"type": "node", "id": 11576190806, "lat": 1.6047765, "lon": 42.4505627, "tags": {"place": "village"}}, {"type": "node", "id": 11576197352, "lat": 1.5958898, "lon": 42.4096154, "tags": {"place": "hamlet"}}, {"type": "node", "id": 11576197399, "lat": 1.5568629, "lon": 42.4333459, "tags": {"place": "hamlet"}}, {"type": "node", "id": 11576197433, "lat": 1.6058065, "lon": 42.4324761, "tags": {"place": "hamlet"}}, {"type": "node", "id": 11576197514, "lat": 1.7171412, "lon": 42.4224942, "tags": {"place": "hamlet"}}, {"type": "node", "id": 11576197536, "lat": 1.6705786, "lon": 42.4363949, "tags": {"place": "isolated_dwelling"}}, {"type": "node", "id": 11576197570, "lat": 1.599419, "lon": 42.4987218, "tags": {"place": "hamlet"}}, {"type": "node", "id": 11577423394, "lat": 1.656347, "lon": 42.4961683, "tags": {"place": "village"}}, {"type": "node", "id": 11577423455, "lat": 1.6690767, "lon": 42.4839968, "tags": {"place": "village"}}, {"type": "node", "id": 11577423502, "lat": 1.7259216, "lon": 42.4799916, "tags": {"place": "hamlet"}}, {"type": "node", "id": 11577423525, "lat": 1.7320869, "lon": 42.4902863, "tags": {"place": "village"}}, {"type": "node", "id": 11578868892, "lat": 1.7270273, "lon": 42.2921813, "tags": {"place": "hamlet"}}, {"type": "node", "id": 11578868893, "lat": 1.7187243, "lon": 42.2891096, "tags": {"place": "hamlet"}}, {"type": "node", "id": 11578868952, "lat": 1.6527954, "lon": 42.418141, "tags": {"place": "hamlet"}}, {"type": "node", "id": 11578868963, "lat": 1.7346731, "lon": 42.344241, "tags": {"place": "hamlet"}}, {"type": "node", "id": 11578868991, "lat": 1.6936449, "lon": 42.3261018, "tags": {"place": "hamlet"}}, {"type": "node", "id": 11584126401, "lat": 1.7005298, "lon": 42.4434272, "tags": {"place": "isolated_dwelling"}}, {"type": "node", "id": 11584126624, "lat": 1.7245896, "lon": 42.3471901, "tags": {"place": "hamlet"}}, {"type": "node", "id": 11584126684, "lat": 1.7211702, "lon": 42.3887715, "tags": {"place": "hamlet"}}, {"type": "node", "id": 11584126886, "lat": 1.7146381, "lon": 42.3057912, "tags": {"place": "hamlet"}}, {"type": "node", "id": 11584126939, "lat": 1.6712428, "lon": 42.3897635, "tags": {"place": "hamlet"}}, {"type": "node", "id": 11584909137, "lat": 1.7148174, "lon": 42.3298482, "tags": {"place": "hamlet"}}, {"type": "node", "id": 11584916274, "lat": 1.7453921, "lon": 42.2927338, "tags": {"place": "isolated_dwelling"}}, {"type": "node", "id": 11584916275, "lat": 1.746132, "lon": 42.2926587, "tags": {"place": "isolated_dwelling"}}, {"type": "node", "id": 11586619475, "lat": 1.7104708, "lon": 42.3452911, "tags": {"place": "hamlet"}}, {"type": "node", "id": 11588851609, "lat": 1.6469688, "lon": 42.3922513, "tags": {"place": "isolated_dwelling"}}, {"type": "node", "id": 11591501734, "lat": 1.5561235, "lon": 42.2780543, "tags": {"place": "hamlet"}}, {"type": "node", "id": 11591502804, "lat": 1.5896535, "lon": 42.3699872, "tags": {"place": "hamlet"}}, {"type": "node", "id": 11592529397, "lat": 1.5655457, "lon": 42.4144759, "tags": {"place": "isolated_dwelling"}}, {"type": "node", "id": 11599169460, "lat": 1.5719293, "lon": 42.4731168, "tags": {"place": "isolated_dwelling"}}, {"type": "node", "id": 11611366902, "lat": 1.7218574, "lon": 42.3789574, "tags": {"place": "isolated_dwelling"}}, {"type": "node", "id": 11611366903, "lat": 1.7214439, "lon": 42.37806, "tags": {"place": "isolated_dwelling"}}]}