{"version": 0.6, "generator": "Overpass API 0.7.62.1 084b4234", "osm3s": {"timestamp_osm_base": "2024-09-30T22:43:14Z", "copyright": "The data included in this document is from www.openstreetmap.org. The data is made available under ODbL."}, "elements": [{"type": "node", "id": 1150881568, "lat": 9.16667, "lon": 37.13333, "tags": {"is_in:country": "Ethiopia", "is_in:country_code": "ET", "name": "Simre", "place": "locality", "source": "GeoDatabase"}}, {"type": "node", "id": 1150882265, "lat": 9.25, "lon": 37.15, "tags": {"is_in:country": "Ethiopia", "is_in:country_code": "ET", "name": "Nite", "place": "locality", "source": "GeoDatabase"}}, {"type": "node", "id": 1150882347, "lat": 9.18333, "lon": 37.28333, "tags": {"is_in:country": "Ethiopia", "is_in:country_code": "ET", "name": "Tulu Amara Terara", "place": "locality", "source": "GeoDatabase"}}, {"type": "node", "id": 1150883009, "lat": 9.16667, "lon": 37.08333, "tags": {"is_in:country": "Ethiopia", "is_in:country_code": "ET", "name": "Were-Shew", "place": "locality", "source": "GeoDatabase"}}, {"type": "node", "id": 1150883091, "lat": 9.28333, "lon": 37.08333, "tags": {"is_in:country": "Ethiopia", "is_in:country_code": "ET", "name": "Wayu", "place": "locality", "source": "GeoDatabase"}}, {"type": "node", "id": 1150883167, "lat": 9.33333, "lon": 37.1, "tags": {"is_in:country": "Ethiopia", "is_in:country_code": "ET", "name": "Beshe", "place": "locality", "source": "GeoDatabase"}}, {"type": "node", "id": 1150884397, "lat": 9.21667, "lon": 37.16667, "tags": {"is_in:country": "Ethiopia", "is_in:country_code": "ET", "name": "Adulan Terara", "place": "locality", "source": "GeoDatabase"}}, {"type": "node", "id": 1150886401, "lat": 9.16667, "lon": 37.25, "tags": {"is_in:country": "Ethiopia", "is_in:country_code": "ET", "name": "Gudaya Abo Bete Kristiyan", "place": "locality", "source": "GeoDatabase"}}, {"type": "node", "id": 1150886915, "lat": 9.25, "lon": 37.28333, "tags": {"is_in:country": "Ethiopia", "is_in:country_code": "ET", "name": "Bebela", "place": "locality", "source": "GeoDatabase"}}, {"type": "node", "id": 1150887378, "lat": 9.2, "lon": 37.28333, "tags": {"is_in:country": "Ethiopia", "is_in:country_code": "ET", "name": "Buneya", "place": "locality", "source": "GeoDatabase"}}, {"type": "node", "id": 1150888297, "lat": 9.21667, "lon": 37.15, "tags": {"is_in:country": "Ethiopia", "is_in:country_code": "ET", "name": "Adulan", "place": "locality", "source": "GeoDatabase"}}, {"type": "node", "id": 1150889280, "lat": 9.23333, "lon": 37.21667, "tags": {"is_in:country": "Ethiopia", "is_in:country_code": "ET", "name": "Weru", "place": "locality", "source": "GeoDatabase"}}, {"type": "node", "id": 1150894137, "lat": 9.3, "lon": 37.2, "tags": {"is_in:country": "Ethiopia", "is_in:country_code": "ET", "name": "K'Idane Gebeya", "place": "locality", "source": "GeoDatabase"}}, {"type": "node", "id": 1150894274, "lat": 9.35, "lon": 37.11667, "tags": {"is_in:country": "Ethiopia", "is_in:country_code": "ET", "name": "Ch'Aro Yeterara Ch'Af", "place": "locality", "source": "GeoDatabase"}}, {"type": "node", "id": 1150895031, "lat": 9.21667, "lon": 37.08333, "tags": {"is_in:country": "Ethiopia", "is_in:country_code": "ET", "name": "Jima Shet'", "place": "locality", "source": "GeoDatabase"}}, {"type": "node", "id": 1150896742, "lat": 9.31667, "lon": 37.16667, "tags": {"is_in:country": "Ethiopia", "is_in:country_code": "ET", "name": "Gembo", "place": "locality", "source": "GeoDatabase"}}, {"type": "node", "id": 1150899527, "lat": 9.2, "lon": 37.13333, "tags": {"is_in:country": "Ethiopia", "is_in:country_code": "ET", "name": "Kekeki Shet'", "place": "locality", "source": "GeoDatabase"}}, {"type": "node", "id": 1150900165, "lat": 9.35, "lon": 37.08333, "tags": {"is_in:country": "Ethiopia", "is_in:country_code": "ET", "name": "Sefele Yeterara Ch'Af", "place": "locality", "source": "GeoDatabase"}}, {"type": "node", "id": 1150900933, "lat": 9.26667, "lon": 37.16667, "tags": {"is_in:country": "Ethiopia", "is_in:country_code": "ET", "name": "Goda Abamura", "place": "locality", "source": "GeoDatabase"}}, {"type": "node", "id": 1150905496, "lat": 9.23333, "lon": 37.16667, "tags": {"is_in:country": "Ethiopia", "is_in:country_code": "ET", "name": "Arbanuse", "place": "locality", "source": "GeoDatabase"}}, {"type": "node", "id": 1150910152, "lat": 9.18333, "lon": 37.2, "tags": {"is_in:country": "Ethiopia", "is_in:country_code": "ET", "name": "Beke Rere", "place": "locality", "source": "GeoDatabase"}}, {"type": "node", "id": 1150911626, "lat": 9.23333, "lon": 37.1, "tags": {"is_in:country": "Ethiopia", "is_in:country_code": "ET", "name": "Inemay", "place": "locality", "source": "GeoDatabase"}}, {"type": "node", "id": 1150911873, "lat": 9.28333, "lon": 37.1, "tags": {"is_in:country": "Ethiopia", "is_in:country_code": "ET", "name": "Jima", "place": "locality", "source": "GeoDatabase"}}, {"type": "node", "id": 1150917630, "lat": 9.26667, "lon": 37.23333, "tags": {"is_in:country": "Ethiopia", "is_in:country_code": "ET", "name": "Hageya", "place": "locality", "source": "GeoDatabase"}}, {"type": "node", "id": 1150920287, "lat": 9.33333, "lon": 37.08333, "tags": {"is_in:country": "Ethiopia", "is_in:country_code": "ET", "name": "Harewe", "place": "locality", "source": "GeoDatabase"}}, {"type": "node", "id": 1150924774, "lat": 9.25, "lon": 37.08333, "tags": {"is_in:country": "Ethiopia", "is_in:country_code": "ET", "name": "Kelala Giyorgis Bete Kristiyan", "place": "locality", "source": "GeoDatabase"}}, {"type": "node", "id": 1150924918, "lat": 9.28333, "lon": 37.23333, "tags": {"is_in:country": "Ethiopia", "is_in:country_code": "ET", "name": "Ch'Itu Deset", "place": "locality", "source": "GeoDatabase"}}, {"type": "node", "id": 1150925240, "lat": 9.28333, "lon": 37.15, "tags": {"is_in:country": "Ethiopia", "is_in:country_code": "ET", "name": "Bilo", "place": "locality", "source": "GeoDatabase"}}, {"type": "node", "id": 1150925286, "lat": 9.3, "lon": 37.08333, "tags": {"is_in:country": "Ethiopia", "is_in:country_code": "ET", "name": "Sole", "place": "locality", "source": "GeoDatabase"}}, {"type": "node", "id": 1150927493, "lat": 9.3, "lon": 37.18333, "tags": {"is_in:country": "Ethiopia", "is_in:country_code": "ET", "name": "Jewaje", "place": "locality", "source": "GeoDatabase"}}, {"type": "node", "id": 1150937847, "lat": 9.2, "lon": 37.26667, "tags": {"is_in:country": "Ethiopia", "is_in:country_code": "ET", "name": "Bereso", "place": "locality", "source": "GeoDatabase"}}, {"type": "node", "id": 1150938975, "lat": 9.28333, "lon": 37.18333, "tags": {"is_in:country": "Ethiopia", "is_in:country_code": "ET", "name": "Arengwade Hayk' Yesebatenyaw K'En Adventist Misyon Jabese Ijeta Klinik", "place": "locality", "source": "GeoDatabase"}}, {"type": "node", "id": 1150940236, "lat": 9.16667, "lon": 37.1, "tags": {"is_in:country": "Ethiopia", "is_in:country_code": "ET", "name": "Welbata", "place": "locality", "source": "GeoDatabase"}}, {"type": "node", "id": 1150949803, "lat": 9.18333, "lon": 37.16667, "tags": {"is_in:country": "Ethiopia", "is_in:country_code": "ET", "name": "Mut'E", "place": "locality", "source": "GeoDatabase"}}, {"type": "node", "id": 1150953973, "lat": 9.25, "lon": 37.1, "tags": {"is_in:country": "Ethiopia", "is_in:country_code": "ET", "name": "Koticha", "place": "locality", "source": "GeoDatabase"}}, {"type": "node", "id": 1150954165, "lat": 9.31667, "lon": 37.11667, "tags": {"is_in:country": "Ethiopia", "is_in:country_code": "ET", "name": "Shono", "place": "locality", "source": "GeoDatabase"}}, {"type": "node", "id": 1150959187, "lat": 9.25, "lon": 37.18333, "tags": {"is_in:country": "Ethiopia", "is_in:country_code": "ET", "name": "Sayul Terara", "place": "locality", "source": "GeoDatabase"}}, {"type": "node", "id": 1150963608, "lat": 9.25, "lon": 37.25, "tags": {"is_in:country": "Ethiopia", "is_in:country_code": "ET", "name": "Dile Kolba", "place": "locality", "source": "GeoDatabase"}}, {"type": "node", "id": 1150966474, "lat": 9.23333, "lon": 37.25, "tags": {"is_in:country": "Ethiopia", "is_in:country_code": "ET", "name": "K'Ersa Shet'", "place": "locality", "source": "GeoDatabase"}}, {"type": "node", "id": 1150969286, "lat": 9.33333, "lon": 37.25, "tags": {"is_in:country": "Ethiopia", "is_in:country_code": "ET", "name": "Bedesa Yejelba Astene", "place": "locality", "source": "GeoDatabase"}}, {"type": "node", "id": 1150969611, "lat": 9.31667, "lon": 37.15, "tags": {"is_in:country": "Ethiopia", "is_in:country_code": "ET", "name": "Gembo Silase Bete Kristiyan", "place": "locality", "source": "GeoDatabase"}}, {"type": "node", "id": 1150969657, "lat": 9.23333, "lon": 37.13333, "tags": {"is_in:country": "Ethiopia", "is_in:country_code": "ET", "name": "Ch'Onkor", "place": "locality", "source": "GeoDatabase"}}, {"type": "node", "id": 1150972334, "lat": 9.33333, "lon": 37.15, "tags": {"is_in:country": "Ethiopia", "is_in:country_code": "ET", "name": "Yaya", "place": "locality", "source": "GeoDatabase"}}, {"type": "node", "id": 1150973497, "lat": 9.31667, "lon": 37.08333, "tags": {"is_in:country": "Ethiopia", "is_in:country_code": "ET", "name": "Ch'Ali Yeterara Ch'Af", "place": "locality", "source": "GeoDatabase"}}, {"type": "node", "id": 1150980471, "lat": 9.35, "lon": 37.1, "tags": {"is_in:country": "Ethiopia", "is_in:country_code": "ET", "name": "Finch'A'A", "place": "locality", "source": "GeoDatabase"}}, {"type": "node", "id": 1150983072, "lat": 9.3, "lon": 37.16667, "tags": {"is_in:country": "Ethiopia", "is_in:country_code": "ET", "name": "Alito Gebri'El Bete Kristiyan", "place": "locality", "source": "GeoDatabase"}}, {"type": "node", "id": 1151003067, "lat": 9.16667, "lon": 37.11667, "tags": {"is_in:country": "Ethiopia", "is_in:country_code": "ET", "name": "Dolu", "place": "locality", "source": "GeoDatabase"}}, {"type": "node", "id": 1970634892, "lat": 9.2924156, "lon": 37.2003837, "tags": {"place": "village"}}, {"type": "node", "id": 1970736754, "lat": 9.2155199, "lon": 37.2126929, "tags": {"place": "village"}}, {"type": "node", "id": 1981948027, "lat": 9.3009831, "lon": 37.119031, "tags": {"place": "village"}}]}