{"version": 0.6, "generator": "Overpass API 0.7.62.1 084b4234", "osm3s": {"timestamp_osm_base": "2024-09-30T18:01:00Z", "copyright": "The data included in this document is from www.openstreetmap.org. The data is made available under ODbL."}, "elements": [{"type": "node", "id": 44910875, "lat": -2.5333, "lon": 38.0, "tags": {"name": "Uthithi", "place": "village"}}, {"type": "node", "id": 44914738, "lat": -2.4669215, "lon": 38.0539965, "tags": {"name": "Thangi", "place": "village"}}, {"type": "node", "id": 44914757, "lat": -2.5038145, "lon": 38.0140895, "tags": {"name": "Thange", "place": "village"}}, {"type": "node", "id": 44924579, "lat": -2.3666, "lon": 38.0166, "tags": {"name": "Ngandani", "place": "village", "wikidata": "Q15045715"}}, {"type": "node", "id": 44929208, "lat": -2.3666, "lon": 37.9, "tags": {"alt_name": "Mbwinzau", "name": "Mbuinzau", "place": "village", "wikidata": "Q6799796"}}, {"type": "node", "id": 44929596, "lat": -2.3792704, "lon": 38.0820451, "tags": {"alt_name": "Munani", "name": "Manooni", "place": "village"}}, {"type": "node", "id": 44929945, "lat": -2.4833, "lon": 38.05, "tags": {"alt_name": "Masongoleni", "name": "Masongaleni", "place": "village", "wikidata": "Q6783656"}}, {"type": "node", "id": 44929952, "lat": -2.373592, "lon": 38.140669, "tags": {"name": "Masimbani", "place": "village", "wikidata": "Q15045703"}}, {"type": "node", "id": 44930091, "lat": -2.3166, "lon": 38.1166, "tags": {"name": "Masalani", "place": "village", "wikidata": "Q6782502"}}, {"type": "node", "id": 44930881, "lat": -2.483087, "lon": 37.993634, "tags": {"name": "Maikuu", "place": "village", "wikidata": "Q6735657"}}, {"type": "node", "id": 44931208, "lat": -2.6, "lon": 37.9833, "tags": {"name": "Komboyoo", "place": "village"}}, {"type": "node", "id": 44931454, "lat": -2.35, "lon": 38.1166, "tags": {"name": "Kyanginywa", "place": "village"}}, {"type": "node", "id": 44931634, "lat": -2.2666, "lon": 37.8666, "tags": {"name": "Kyeni Kya Kai", "place": "village"}}, {"type": "node", "id": 44990389, "lat": -2.410343, "lon": 37.965529, "tags": {"name": "Kibwezi", "name:ru": "\u041a\u0438\u0431\u0432\u0435\u0437\u0438", "place": "town", "wikidata": "Q11228563", "wikipedia": "en:Kibwezi"}}, {"type": "node", "id": 44995336, "lat": -2.483022, "lon": 37.992497, "tags": {"name": "Kavyongo", "place": "village", "wikidata": "Q6379390"}}, {"type": "node", "id": 44995439, "lat": -2.3666, "lon": 38.0833, "tags": {"name": "Kevanda", "place": "village", "wikidata": "Q6395669"}}, {"type": "node", "id": 44997187, "lat": -2.6166, "lon": 38.15, "tags": {"name": "Kathekani", "place": "village", "wikidata": "Q6376272"}}, {"type": "node", "id": 44997303, "lat": -2.5944934, "lon": 38.0755919, "tags": {"name": "Kambu", "place": "village"}}, {"type": "node", "id": 44997309, "lat": -2.316778, "lon": 37.917168, "tags": {"name": "Kambi ya Munyu", "place": "village", "wikidata": "Q6356335"}}, {"type": "node", "id": 44999454, "lat": -2.35, "lon": 37.9833, "tags": {"name": "Kalulini", "place": "village", "wikidata": "Q15045688"}}, {"type": "node", "id": 44999567, "lat": -2.4166, "lon": 37.9833, "tags": {"name": "Kakangani", "place": "village", "wikidata": "Q6349218"}}, {"type": "node", "id": 45002545, "lat": -2.587958, "lon": 38.115957, "tags": {"name": "Darajani", "place": "village", "wikidata": "Q5222053"}}, {"type": "node", "id": 45002757, "lat": -2.395642, "lon": 38.0129154, "tags": {"name": "Dwa", "place": "village"}}, {"type": "node", "id": 45005782, "lat": -2.2666, "lon": 38.0666, "tags": {"name": "Athi", "place": "village", "wikidata": "Q4813643"}}, {"type": "node", "id": 2137882227, "lat": -2.5275274, "lon": 38.0511663, "tags": {"name": "Ngwata", "place": "village"}}, {"type": "node", "id": 2196241467, "lat": -2.3257565, "lon": 38.0139776, "tags": {"place": "village"}}, {"type": "node", "id": 2645832004, "lat": -2.5234097, "lon": 38.0300969, "tags": {"name": "Machinery", "place": "town", "wheelchair": "limited"}}, {"type": "node", "id": 2647312407, "lat": -2.5117048, "lon": 38.0828296, "tags": {"name": "Kativani", "place": "village"}}, {"type": "node", "id": 2647312408, "lat": -2.5182913, "lon": 38.0681526, "tags": {"name": "Miami", "place": "village"}}, {"type": "node", "id": 2647365510, "lat": -2.4600297, "lon": 38.1188223, "tags": {"name": "Kavatini", "place": "village"}}, {"type": "node", "id": 2647365604, "lat": -2.4140453, "lon": 38.1532229, "tags": {"name": "Ulilinzi", "place": "village"}}, {"type": "node", "id": 2647534799, "lat": -2.4920414, "lon": 38.0953262, "tags": {"name": "Kalimakoi", "place": "village"}}, {"type": "node", "id": 3414876726, "lat": -2.4114405, "lon": 38.099319, "tags": {"name": "Kyumani", "place": "village"}}, {"type": "node", "id": 6232806593, "lat": -2.3341847, "lon": 37.8777827, "tags": {"addr:city": "Kibwezi", "addr:street": "Mombasa Road", "name": "Kiunduani Town", "place": "town"}}, {"type": "node", "id": 6347011195, "lat": -2.4051848, "lon": 37.960725}, {"type": "node", "id": 6347011196, "lat": -2.4105659, "lon": 37.956412}, {"type": "node", "id": 6347011197, "lat": -2.4157969, "lon": 37.9616906}, {"type": "node", "id": 6347011198, "lat": -2.4189484, "lon": 37.9617979}, {"type": "node", "id": 6347011199, "lat": -2.4169546, "lon": 37.9698016}, {"type": "node", "id": 6347011200, "lat": -2.4094511, "lon": 37.9721834}, {"type": "node", "id": 6347011201, "lat": -2.4041343, "lon": 37.9674842}, {"type": "node", "id": 6349143370, "lat": -2.2713259, "lon": 37.8132295}, {"type": "node", "id": 6349143371, "lat": -2.2746078, "lon": 37.8118577}, {"type": "node", "id": 6349143372, "lat": -2.2781793, "lon": 37.8125919}, {"type": "node", "id": 6349143373, "lat": -2.2810558, "lon": 37.8153548}, {"type": "node", "id": 6349143374, "lat": -2.2835848, "lon": 37.8180017}, {"type": "node", "id": 6349143375, "lat": -2.2915773, "lon": 37.8281451}, {"type": "node", "id": 6349143376, "lat": -2.2898398, "lon": 37.8317581}, {"type": "node", "id": 6349143377, "lat": -2.2857664, "lon": 37.8326855}, {"type": "node", "id": 6349143378, "lat": -2.2799554, "lon": 37.8297101}, {"type": "node", "id": 6349143379, "lat": -2.27399, "lon": 37.8288793}, {"type": "node", "id": 6349143380, "lat": -2.2700903, "lon": 37.8306568}, {"type": "node", "id": 6349143381, "lat": -2.2690671, "lon": 37.8275268}, {"type": "node", "id": 6349143382, "lat": -2.2702254, "lon": 37.8243776}, {"type": "node", "id": 6349143383, "lat": -2.2697621, "lon": 37.8196826}, {"type": "node", "id": 6349143384, "lat": -2.2692409, "lon": 37.8168811}, {"type": "node", "id": 7939749648, "lat": -2.4177973, "lon": 37.9617553}, {"type": "node", "id": 7939749649, "lat": -2.4179237, "lon": 37.9617661}, {"type": "node", "id": 7939749656, "lat": -2.4184851, "lon": 37.9617748}, {"type": "node", "id": 7939749660, "lat": -2.4184702, "lon": 37.9617766}, {"type": "node", "id": 7943474138, "lat": -2.4072371, "lon": 37.9590842}, {"type": "node", "id": 8988367511, "lat": -2.3866472, "lon": 38.0005597, "tags": {"name": "Kwa Kiyai", "place": "village"}}, {"type": "node", "id": 11047758459, "lat": -2.3586797, "lon": 37.8523314, "tags": {"name": "Ilatu Primary School", "place": "locality"}}, {"type": "way", "id": 677851929, "nodes": [6347011195, 7943474138, 6347011196, 6347011197, 7939749648, 7939749649, 7939749660, 7939749656, 6347011198, 6347011199, 6347011200, 6347011201, 6347011195], "tags": {"name": "Kibwezi", "place": "town", "wikidata": "Q11228563", "wikipedia": "en:Kibwezi"}}, {"type": "way", "id": 678093951, "nodes": [6349143370, 6349143371, 6349143372, 6349143373, 6349143374, 6349143375, 6349143376, 6349143377, 6349143378, 6349143379, 6349143380, 6349143381, 6349143382, 6349143383, 6349143384, 6349143370], "tags": {"name": "Makindu", "place": "town", "wikidata": "Q6739546", "wikipedia": "en:Makindu"}}]}