{"version": 0.6, "generator": "Overpass API 0.7.62.1 084b4234", "osm3s": {"timestamp_osm_base": "2024-09-30T23:01:43Z", "copyright": "The data included in this document is from www.openstreetmap.org. The data is made available under ODbL."}, "elements": [{"type": "node", "id": 316869699, "lat": 9.312287, "lon": 41.442772, "tags": {"name": "Deder", "place": "town", "source": "landsat", "wikidata": "Q5249768"}}, {"type": "node", "id": 1150881738, "lat": 9.21667, "lon": 41.23333, "tags": {"is_in:country": "Ethiopia", "is_in:country_code": "ET", "name": "Dubo Shet'", "place": "locality", "source": "GeoDatabase"}}, {"type": "node", "id": 1150882151, "lat": 9.28333, "lon": 41.21667, "tags": {"is_in:country": "Ethiopia", "is_in:country_code": "ET", "name": "Halo", "place": "locality", "source": "GeoDatabase"}}, {"type": "node", "id": 1150882201, "lat": 9.25, "lon": 41.28333, "tags": {"is_in:country": "Ethiopia", "is_in:country_code": "ET", "name": "Burk'A Mika'El Bete Kristiyan", "place": "locality", "source": "GeoDatabase"}}, {"type": "node", "id": 1150883296, "lat": 9.03333, "lon": 41.25, "tags": {"is_in:country": "Ethiopia", "is_in:country_code": "ET", "name": "Webicha Shet'", "place": "locality", "source": "GeoDatabase"}}, {"type": "node", "id": 1150883387, "lat": 9.26667, "lon": 41.38333, "tags": {"is_in:country": "Ethiopia", "is_in:country_code": "ET", "name": "Kiyo", "place": "locality", "source": "GeoDatabase"}}, {"type": "node", "id": 1150887128, "lat": 9.16667, "lon": 41.38333, "tags": {"is_in:country": "Ethiopia", "is_in:country_code": "ET", "name": "Busule Shet'", "place": "locality", "source": "GeoDatabase"}}, {"type": "node", "id": 1150887285, "lat": 9.16667, "lon": 41.28333, "tags": {"is_in:country": "Ethiopia", "is_in:country_code": "ET", "name": "Ahmed Abdule", "place": "locality", "source": "GeoDatabase"}}, {"type": "node", "id": 1150888593, "lat": 9.3, "lon": 41.35, "tags": {"is_in:country": "Ethiopia", "is_in:country_code": "ET", "name": "Mendule", "place": "locality", "source": "GeoDatabase"}}, {"type": "node", "id": 1150888743, "lat": 9.33333, "lon": 41.33333, "tags": {"is_in:country": "Ethiopia", "is_in:country_code": "ET", "name": "Gaua", "place": "locality", "source": "GeoDatabase"}}, {"type": "node", "id": 1150889210, "lat": 9.38333, "lon": 41.45, "tags": {"is_in:country": "Ethiopia", "is_in:country_code": "ET", "name": "Usman Abdulahi", "place": "locality", "source": "GeoDatabase"}}, {"type": "node", "id": 1150892267, "lat": 9.18333, "lon": 41.33333, "tags": {"is_in:country": "Ethiopia", "is_in:country_code": "ET", "name": "Harawach'A Timhirt Bet", "place": "locality", "source": "GeoDatabase"}}, {"type": "node", "id": 1150892580, "lat": 9.03333, "lon": 41.31666, "tags": {"is_in:country": "Ethiopia", "is_in:country_code": "ET", "name": "Harew", "place": "locality", "source": "GeoDatabase"}}, {"type": "node", "id": 1150894051, "lat": 9.38333, "lon": 41.21667, "tags": {"is_in:country": "Ethiopia", "is_in:country_code": "ET", "name": "Ahmar Mountains", "place": "locality", "source": "GeoDatabase"}}, {"type": "node", "id": 1150894515, "lat": 9.3336959, "lon": 41.2901403, "tags": {"name": "Boreda", "place": "town", "source": "GeoDatabase"}}, {"type": "node", "id": 1150894624, "lat": 9.33333, "lon": 41.5, "tags": {"is_in:country": "Ethiopia", "is_in:country_code": "ET", "name": "Wobera", "place": "locality", "source": "GeoDatabase"}}, {"type": "node", "id": 1150894704, "lat": 9.36667, "lon": 41.36667, "tags": {"is_in:country": "Ethiopia", "is_in:country_code": "ET", "name": "Meserete Timhirt Bet", "place": "locality", "source": "GeoDatabase"}}, {"type": "node", "id": 1150900781, "lat": 9.26667, "lon": 41.28333, "tags": {"is_in:country": "Ethiopia", "is_in:country_code": "ET", "name": "Ala", "place": "locality", "source": "GeoDatabase"}}, {"type": "node", "id": 1150902100, "lat": 9.28333, "lon": 41.48333, "tags": {"is_in:country": "Ethiopia", "is_in:country_code": "ET", "name": "Minyo", "place": "locality", "source": "GeoDatabase"}}, {"type": "node", "id": 1150902864, "lat": 9.05, "lon": 41.25, "tags": {"is_in:country": "Ethiopia", "is_in:country_code": "ET", "name": "Gorore", "place": "locality", "source": "GeoDatabase"}}, {"type": "node", "id": 1150903157, "lat": 9.21667, "lon": 41.43333, "tags": {"is_in:country": "Ethiopia", "is_in:country_code": "ET", "name": "Gelan Sedi Shelek'O", "place": "locality", "source": "GeoDatabase"}}, {"type": "node", "id": 1150911907, "lat": 9.3764093, "lon": 41.4744045, "tags": {"name": "Kobo", "place": "town", "source": "GPS"}}, {"type": "node", "id": 1150912232, "lat": 9.16667, "lon": 41.45, "tags": {"is_in:country": "Ethiopia", "is_in:country_code": "ET", "name": "Sok'A", "place": "locality", "source": "GeoDatabase"}}, {"type": "node", "id": 1150912355, "lat": 9.15, "lon": 41.3, "tags": {"is_in:country": "Ethiopia", "is_in:country_code": "ET", "name": "Ch'Erch'Er", "place": "locality", "source": "GeoDatabase"}}, {"type": "node", "id": 1150916077, "lat": 9.3, "lon": 41.36667, "tags": {"is_in:country": "Ethiopia", "is_in:country_code": "ET", "name": "Webi Shet'", "place": "locality", "source": "GeoDatabase"}}, {"type": "node", "id": 1150921469, "lat": 9.25, "lon": 41.26667, "tags": {"is_in:country": "Ethiopia", "is_in:country_code": "ET", "name": "Burca", "place": "locality", "source": "GeoDatabase"}}, {"type": "node", "id": 1150922476, "lat": 9.08333, "lon": 41.36667, "tags": {"is_in:country": "Ethiopia", "is_in:country_code": "ET", "name": "Jaja Medhane `Alem Bete Kristiyan", "place": "locality", "source": "GeoDatabase"}}, {"type": "node", "id": 1150922901, "lat": 9.08333, "lon": 41.31666, "tags": {"is_in:country": "Ethiopia", "is_in:country_code": "ET", "name": "K'O'E", "place": "locality", "source": "GeoDatabase"}}, {"type": "node", "id": 1150925570, "lat": 9.3, "lon": 41.3, "tags": {"is_in:country": "Ethiopia", "is_in:country_code": "ET", "name": "Durro", "place": "locality", "source": "GeoDatabase"}}, {"type": "node", "id": 1150925815, "lat": 9.32361, "lon": 41.50333, "tags": {"is_in:country": "Ethiopia", "is_in:country_code": "ET", "name": "Lele", "place": "locality", "source": "GeoDatabase"}}, {"type": "node", "id": 1150926035, "lat": 9.3742728, "lon": 41.3698341, "tags": {"name": "Karamile", "place": "town", "source": "GeoDatabase"}}, {"type": "node", "id": 1150928087, "lat": 9.05, "lon": 41.46667, "tags": {"is_in:country": "Ethiopia", "is_in:country_code": "ET", "name": "Boye", "place": "locality", "source": "GeoDatabase"}}, {"type": "node", "id": 1150934800, "lat": 9.4, "lon": 41.41667, "tags": {"is_in:country": "Ethiopia", "is_in:country_code": "ET", "name": "Guro Gutu Giyorgis Bete Kristiyan", "place": "locality", "source": "GeoDatabase"}}, {"type": "node", "id": 1150937031, "lat": 9.28333, "lon": 41.28333, "tags": {"is_in:country": "Ethiopia", "is_in:country_code": "ET", "name": "Sumane", "place": "locality", "source": "GeoDatabase"}}, {"type": "node", "id": 1150949491, "lat": 9.25, "lon": 41.2, "tags": {"is_in:country": "Ethiopia", "is_in:country_code": "ET", "name": "Tullo", "place": "locality", "source": "GeoDatabase"}}, {"type": "node", "id": 1150955355, "lat": 9.23333, "lon": 41.4, "tags": {"is_in:country": "Ethiopia", "is_in:country_code": "ET", "name": "Kore", "place": "locality", "source": "GeoDatabase"}}, {"type": "node", "id": 1150958522, "lat": 9.38333, "lon": 41.35, "tags": {"is_in:country": "Ethiopia", "is_in:country_code": "ET", "name": "Adisu Karamile", "place": "locality", "source": "GeoDatabase"}}, {"type": "node", "id": 1150966621, "lat": 9.08333, "lon": 41.41667, "tags": {"is_in:country": "Ethiopia", "is_in:country_code": "ET", "name": "Shek Mehamed Mesbay Mesgid", "place": "locality", "source": "GeoDatabase"}}, {"type": "node", "id": 1150967042, "lat": 9.15, "lon": 41.26667, "tags": {"is_in:country": "Ethiopia", "is_in:country_code": "ET", "name": "Adem Gadi Burk'A Terara", "place": "locality", "source": "GeoDatabase"}}, {"type": "node", "id": 1150968871, "lat": 9.23194, "lon": 41.51472, "tags": {"is_in:country": "Ethiopia", "is_in:country_code": "ET", "name": "Abuno", "place": "locality", "source": "GeoDatabase"}}, {"type": "node", "id": 1150969895, "lat": 9.3, "lon": 41.31666, "tags": {"is_in:country": "Ethiopia", "is_in:country_code": "ET", "name": "Burca", "place": "locality", "source": "GeoDatabase"}}, {"type": "node", "id": 1150972673, "lat": 9.09139, "lon": 41.51139, "tags": {"is_in:country": "Ethiopia", "is_in:country_code": "ET", "name": "Abae", "place": "locality", "source": "GeoDatabase"}}, {"type": "node", "id": 1150973231, "lat": 9.34556, "lon": 41.5075, "tags": {"is_in:country": "Ethiopia", "is_in:country_code": "ET", "name": "Meta", "place": "locality", "source": "GeoDatabase"}}, {"type": "node", "id": 1150976525, "lat": 9.18333, "lon": 41.2, "tags": {"is_in:country": "Ethiopia", "is_in:country_code": "ET", "name": "Burk'A Racha Shet'", "place": "locality", "source": "GeoDatabase"}}, {"type": "node", "id": 1150976970, "lat": 9.16667, "lon": 41.33333, "tags": {"is_in:country": "Ethiopia", "is_in:country_code": "ET", "name": "Biscian Arauacia", "place": "locality", "source": "GeoDatabase"}}, {"type": "node", "id": 1150980223, "lat": 9.31667, "lon": 41.18333, "tags": {"is_in:country": "Ethiopia", "is_in:country_code": "ET", "name": "Wagur Shet'", "place": "locality", "source": "GeoDatabase"}}, {"type": "node", "id": 1150980961, "lat": 9.21667, "lon": 41.31666, "tags": {"is_in:country": "Ethiopia", "is_in:country_code": "ET", "name": "Gondela Terara", "place": "locality", "source": "GeoDatabase"}}, {"type": "node", "id": 1150981339, "lat": 9.33333, "lon": 41.48333, "tags": {"is_in:country": "Ethiopia", "is_in:country_code": "ET", "name": "Ame T'Isa", "place": "locality", "source": "GeoDatabase"}}, {"type": "node", "id": 1175668049, "lat": 9.3168243, "lon": 41.2514316, "tags": {"name": "Addes", "name:am": "Addes \u1201\u1260\u1273", "place": "village"}}, {"type": "node", "id": 1176695792, "lat": 9.2795066, "lon": 41.1836783, "tags": {"name": "Guge", "place": "village"}}, {"type": "node", "id": 2290205601, "lat": 9.1225124, "lon": 41.2200393, "tags": {"place": "village"}}, {"type": "node", "id": 2290536070, "lat": 9.3394247, "lon": 41.4639896, "tags": {"place": "village"}}, {"type": "node", "id": 2290536421, "lat": 9.0813125, "lon": 41.3652532, "tags": {"name": "Jaja", "place": "town"}}, {"type": "node", "id": 2290614032, "lat": 9.1777908, "lon": 41.3390531, "tags": {"name": "Hare Wacha", "place": "town"}}, {"type": "node", "id": 3328448120, "lat": 9.2127128, "lon": 41.446636, "tags": {"place": "hamlet"}}, {"type": "node", "id": 10282605557, "lat": 9.1184255, "lon": 41.2848889, "tags": {"place": "village"}}, {"type": "node", "id": 10282815148, "lat": 9.0367703, "lon": 41.3108453, "tags": {"place": "village"}}, {"type": "node", "id": 10282879717, "lat": 9.0699, "lon": 41.3695926, "tags": {"place": "hamlet"}}, {"type": "node", "id": 10285216332, "lat": 9.1560031, "lon": 41.2703867, "tags": {"place": "hamlet"}}, {"type": "node", "id": 10285778011, "lat": 9.2378767, "lon": 41.3465692, "tags": {"place": "hamlet"}}, {"type": "node", "id": 10285846577, "lat": 9.2569504, "lon": 41.3424088, "tags": {"place": "hamlet", "population": "1"}}, {"type": "node", "id": 10285854326, "lat": 9.2500742, "lon": 41.3641398, "tags": {"place": "village"}}, {"type": "node", "id": 10285882691, "lat": 9.2769838, "lon": 41.3562191, "tags": {"place": "village"}}, {"type": "node", "id": 10286012693, "lat": 9.1379456, "lon": 41.4957512, "tags": {"place": "village"}}, {"type": "node", "id": 10286333125, "lat": 9.1650726, "lon": 41.4450552, "tags": {"place": "village"}}, {"type": "node", "id": 10286603263, "lat": 9.3518906, "lon": 41.4676387, "tags": {"place": "village"}}, {"type": "node", "id": 10287554371, "lat": 9.2718375, "lon": 41.3432232, "tags": {"place": "hamlet"}}, {"type": "node", "id": 10287596854, "lat": 9.2737322, "lon": 41.3365705, "tags": {"place": "hamlet"}}, {"type": "node", "id": 10287719004, "lat": 9.2573313, "lon": 41.2717892, "tags": {"place": "village"}}, {"type": "node", "id": 10287719028, "lat": 9.2807389, "lon": 41.2928664, "tags": {"place": "hamlet"}}, {"type": "node", "id": 10287719244, "lat": 9.2718021, "lon": 41.2590394, "tags": {"place": "hamlet"}}, {"type": "node", "id": 10287719245, "lat": 9.2638189, "lon": 41.2671069, "tags": {"place": "hamlet"}}, {"type": "node", "id": 10290279560, "lat": 9.3664592, "lon": 41.4418539, "tags": {"place": "hamlet"}}, {"type": "node", "id": 10293763020, "lat": 9.3303399, "lon": 41.492378, "tags": {"place": "village"}}, {"type": "node", "id": 10293763024, "lat": 9.3240055, "lon": 41.4912168, "tags": {"place": "village"}}, {"type": "node", "id": 10293899171, "lat": 9.3663237, "lon": 41.4772407, "tags": {"place": "village"}}, {"type": "node", "id": 10293934729, "lat": 9.3664247, "lon": 41.4806701, "tags": {"place": "hamlet"}}, {"type": "node", "id": 10293934735, "lat": 9.3574514, "lon": 41.4862811, "tags": {"place": "village"}}, {"type": "node", "id": 10293934756, "lat": 9.3454092, "lon": 41.5016641, "tags": {"place": "village"}}, {"type": "node", "id": 10293934757, "lat": 9.3375078, "lon": 41.5129129, "tags": {"place": "village"}}, {"type": "node", "id": 10315644222, "lat": 9.3788397, "lon": 41.2816282, "tags": {"place": "village"}}, {"type": "node", "id": 10315649694, "lat": 9.3670324, "lon": 41.2636404, "tags": {"place": "village"}}]}