{"version": 0.6, "generator": "Overpass API 0.7.62.1 084b4234", "osm3s": {"timestamp_osm_base": "2024-09-30T19:04:02Z", "copyright": "The data included in this document is from www.openstreetmap.org. The data is made available under ODbL."}, "elements": [{"type": "node", "id": 44915176, "lat": 1.0666, "lon": 35.25, "tags": {"created_by": "JOSM", "is_in": "Trans-nzoia,Kenya", "name": "Sitaman", "place": "village"}}, {"type": "node", "id": 45003004, "lat": 1.316616, "lon": 35.2, "tags": {"alt_name": "Chepareria", "is_in": "West pokot,Kenya", "name": "Cheberia", "place": "village", "wikidata": "Q5088975"}}, {"type": "node", "id": 2094015088, "lat": 0.9835852, "lon": 35.2233351, "tags": {"name": "Kachibora", "place": "village"}}, {"type": "node", "id": 2556797486, "lat": 1.0941598, "lon": 35.2345131, "tags": {"name": "Kapterit", "place": "village"}}, {"type": "node", "id": 2556947978, "lat": 0.9451416, "lon": 35.391406, "tags": {"name": "Chebororwo", "place": "village"}}, {"type": "node", "id": 2561533454, "lat": 1.0655657, "lon": 35.2822551, "tags": {"name": "Chesubet", "place": "village"}}, {"type": "node", "id": 2561533457, "lat": 1.0819811, "lon": 35.2567154, "tags": {"name": "Kamoi", "place": "village"}}, {"type": "node", "id": 2561533461, "lat": 1.0393684, "lon": 35.3210804, "tags": {"name": "Kapcherop", "place": "village"}}, {"type": "node", "id": 2561533464, "lat": 1.1037864, "lon": 35.4282601, "tags": {"name": "Kaptalamwa", "place": "village"}}, {"type": "node", "id": 3070243864, "lat": 1.2637093, "lon": 35.4192064, "tags": {"place": "village"}}, {"type": "node", "id": 3070243866, "lat": 1.1474788, "lon": 35.4786427, "tags": {"name": "Tangul", "place": "village"}}, {"type": "node", "id": 3070243883, "lat": 1.0293646, "lon": 35.4557264, "tags": {"name": "Kipnai", "place": "village"}}, {"type": "node", "id": 3070243906, "lat": 0.941473, "lon": 35.514541, "tags": {"is_in": "E. marakwet,Kenya", "name": "Cheptonge", "place": "village", "wikidata": "Q5091742"}}, {"type": "node", "id": 4401184942, "lat": 0.915414, "lon": 35.5087153, "tags": {"name": "Nerkwo", "place": "hamlet"}}, {"type": "node", "id": 5200378176, "lat": 1.2646995, "lon": 35.3648004, "tags": {"place": "village"}}, {"type": "node", "id": 11747932657, "lat": 1.0884823, "lon": 35.4154586, "tags": {"name": "Makutano", "place": "village"}}]}