{"version": 0.6, "generator": "Overpass API 0.7.62.1 084b4234", "osm3s": {"timestamp_osm_base": "2024-09-30T23:23:26Z", "copyright": "The data included in this document is from www.openstreetmap.org. The data is made available under ODbL."}, "elements": [{"type": "node", "id": 1150891366, "lat": 6.46806, "lon": 46.2675, "tags": {"name": "Bur Corrali", "place": "locality", "source": "GeoDatabase", "wikidata": "Q24031454"}}, {"type": "node", "id": 1150921086, "lat": 6.4691485, "lon": 46.4199722, "tags": {"name": "Bali Ad", "place": "locality", "source": "GeoDatabase"}}, {"type": "node", "id": 10034980525, "lat": 6.3880585, "lon": 46.241553, "tags": {"alt_name": "Dilinbaa", "name": "Dilimbaa", "place": "village"}}, {"type": "node", "id": 10034980541, "lat": 6.4849559, "lon": 46.2485287, "tags": {"name": "Godane", "place": "village"}}, {"type": "node", "id": 10034980542, "lat": 6.42541, "lon": 46.2443839, "tags": {"name": "Dafle", "place": "village"}}, {"type": "node", "id": 10132141747, "lat": 6.6428616, "lon": 46.3430537, "tags": {"alt_name": "Levi Abdulla Weyn", "name": "Levi Abdulla Uen", "place": "village"}}, {"type": "node", "id": 10167359884, "lat": 6.394789, "lon": 46.59149, "tags": {"name": "Ghelnisor", "place": "isolated_dwelling"}}, {"type": "node", "id": 10167403247, "lat": 6.3672, "lon": 46.2891, "tags": {"name": "Angalo", "place": "village"}}, {"type": "node", "id": 10167416718, "lat": 6.3904082, "lon": 46.3751522, "tags": {"GNS:id": "-605280", "alt_name": "Bali Hawd", "name": "Balli Abdi Ali", "name:en": "Bali Haud", "place": "hamlet"}}, {"type": "node", "id": 10167416722, "lat": 6.355379, "lon": 46.3359669, "tags": {"alt_name": "Bali Cabdi Cali", "name": "Bali Abdi Ali", "place": "village"}}, {"type": "node", "id": 10167416728, "lat": 6.5196164, "lon": 46.5819191, "tags": {"alt_name": "Mircawleed, Mirocowlo", "name": "Qobdheer", "place": "locality", "waterway": "dam"}}, {"type": "node", "id": 10167416730, "lat": 6.407547, "lon": 46.318307, "tags": {"name": "Hananfarid", "place": "village"}}, {"type": "node", "id": 10167446539, "lat": 6.6824059, "lon": 46.6127958, "tags": {"alt_name": "Gaxandhaale", "name": "Gahandhale", "place": "village"}}, {"type": "node", "id": 10203958925, "lat": 6.4342875, "lon": 46.4604442, "tags": {"alt_name": "Dhabbad;Dhabat;Dhabbat;Debet", "name": "Dhabad \u0636\u0627\u0628\u0637", "name:ar": "\u0636\u0627\u0628\u0637", "place": "city", "population": "35000", "wikipedia": "so:Dhabbad"}}, {"type": "node", "id": 10224731559, "lat": 6.7174534, "lon": 46.334109, "tags": {"name": "Ramalo", "place": "village", "waterway": "water_point"}}, {"type": "node", "id": 10226548536, "lat": 6.5758133, "lon": 46.4417687, "tags": {"name": "Corrof", "place": "locality"}}, {"type": "node", "id": 10244311536, "lat": 6.6208489, "lon": 46.3642279, "tags": {"name": "Bali Maganlo", "place": "village"}}, {"type": "node", "id": 10244311537, "lat": 6.746681, "lon": 46.3910936, "tags": {"alt_name": "Hananwaylood", "name": "Hananweylod", "old_name": "Ananeilo", "place": "village", "waterway": "water_point"}}, {"type": "node", "id": 10244311539, "lat": 6.586713, "lon": 46.5306934, "tags": {"alt_name": "Dacadheer;Dadheer", "name": "Dacdheer", "place": "village"}}, {"type": "node", "id": 10245278752, "lat": 6.6714837, "lon": 46.2631006, "tags": {"alt_name": "Uurmadag", "name": "Urmadag", "place": "town"}}, {"type": "node", "id": 10296264754, "lat": 6.610959, "lon": 46.372436, "tags": {"name": "Meghenlo", "place": "locality", "waterway": "dam"}}, {"type": "node", "id": 10310189061, "lat": 6.489872, "lon": 46.54224, "tags": {"alt_name": "Forenta Fore", "name": "Furinta Fore", "place": "locality", "waterway": "dam"}}, {"type": "node", "id": 10310202090, "lat": 6.4929504, "lon": 46.507566, "tags": {"name": "Kabauar", "place": "village"}}, {"type": "node", "id": 10310202091, "lat": 6.5841576, "lon": 46.4352793, "tags": {"alt_name": "Qorrof", "name": "Qorof", "place": "town"}}, {"type": "node", "id": 10310202092, "lat": 6.5282584, "lon": 46.5156822, "tags": {"alt_name": "Jafadhig", "name": "Jafaadhig", "place": "village"}}, {"type": "node", "id": 10310207112, "lat": 6.4707985, "lon": 46.3066834, "tags": {"name": "Hanbayle", "place": "village"}}, {"type": "node", "id": 10310207117, "lat": 6.4048017, "lon": 46.2844835, "tags": {"alt_name": "Guuled Naasey", "name": "Guled Nasey", "place": "village"}}, {"type": "node", "id": 10310207120, "lat": 6.3569042, "lon": 46.2769165, "tags": {"alt_name": "Dhake", "name": "Dhaake", "place": "village"}}, {"type": "node", "id": 11071787635, "lat": 6.6076174, "lon": 46.6679637, "tags": {"alt_name": "Higlotiriye;Higlo Tirie;Higlotirie", "name": "Higlo Tiriye", "place": "village"}}, {"type": "node", "id": 11261677482, "lat": 6.3843555, "lon": 46.4523826, "tags": {"alt_name": "Balicad", "name": "Bel Ad", "place": "village"}}]}