{"version": 0.6, "generator": "Overpass API 0.7.62.1 084b4234", "osm3s": {"timestamp_osm_base": "2024-09-30T23:01:43Z", "copyright": "The data included in this document is from www.openstreetmap.org. The data is made available under ODbL."}, "elements": [{"type": "node", "id": 1150887027, "lat": 8.93333, "lon": 41.41667, "tags": {"is_in:country": "Ethiopia", "is_in:country_code": "ET", "name": "Rare", "place": "locality", "source": "GeoDatabase"}}, {"type": "node", "id": 1150888247, "lat": 8.73333, "lon": 41.33333, "tags": {"is_in:country": "Ethiopia", "is_in:country_code": "ET", "name": "Loloha", "place": "locality", "source": "GeoDatabase"}}, {"type": "node", "id": 1150890934, "lat": 8.8, "lon": 41.48333, "tags": {"is_in:country": "Ethiopia", "is_in:country_code": "ET", "name": "Tirtira", "place": "locality", "source": "GeoDatabase"}}, {"type": "node", "id": 1150892196, "lat": 8.85, "lon": 41.38333, "tags": {"is_in:country": "Ethiopia", "is_in:country_code": "ET", "name": "Jejeba", "place": "locality", "source": "GeoDatabase"}}, {"type": "node", "id": 1150894246, "lat": 8.66667, "lon": 41.25, "tags": {"is_in:country": "Ethiopia", "is_in:country_code": "ET", "name": "Oda Jilo Shet'", "place": "locality", "source": "GeoDatabase"}}, {"type": "node", "id": 1150897243, "lat": 8.98333, "lon": 41.48333, "tags": {"is_in:country": "Ethiopia", "is_in:country_code": "ET", "name": "T'Oble Ramis", "place": "locality", "source": "GeoDatabase"}}, {"type": "node", "id": 1150898584, "lat": 8.65, "lon": 41.48333, "tags": {"is_in:country": "Ethiopia", "is_in:country_code": "ET", "name": "Limey", "place": "locality", "source": "GeoDatabase"}}, {"type": "node", "id": 1150907359, "lat": 8.91667, "lon": 41.21667, "tags": {"is_in:country": "Ethiopia", "is_in:country_code": "ET", "name": "Gerbi Shelek'O", "place": "locality", "source": "GeoDatabase"}}, {"type": "node", "id": 1150911496, "lat": 8.76667, "lon": 41.2, "tags": {"is_in:country": "Ethiopia", "is_in:country_code": "ET", "name": "Madaba Raku", "place": "locality", "source": "GeoDatabase"}}, {"type": "node", "id": 1150912193, "lat": 8.91667, "lon": 41.45, "tags": {"is_in:country": "Ethiopia", "is_in:country_code": "ET", "name": "Gobenti Shet'", "place": "locality", "source": "GeoDatabase"}}, {"type": "node", "id": 1150915632, "lat": 8.71667, "lon": 41.43333, "tags": {"is_in:country": "Ethiopia", "is_in:country_code": "ET", "name": "Gerbi Dimtu", "place": "locality", "source": "GeoDatabase"}}, {"type": "node", "id": 1150915959, "lat": 8.85, "lon": 41.21667, "tags": {"is_in:country": "Ethiopia", "is_in:country_code": "ET", "name": "Jerjertu Shet'", "place": "locality", "source": "GeoDatabase"}}, {"type": "node", "id": 1150922242, "lat": 8.9, "lon": 41.45, "tags": {"is_in:country": "Ethiopia", "is_in:country_code": "ET", "name": "Wayu Shet'", "place": "locality", "source": "GeoDatabase"}}, {"type": "node", "id": 1150925191, "lat": 8.7, "lon": 41.25, "tags": {"is_in:country": "Ethiopia", "is_in:country_code": "ET", "name": "Gobba", "place": "locality", "source": "GeoDatabase"}}, {"type": "node", "id": 1150929450, "lat": 8.73333, "lon": 41.43333, "tags": {"is_in:country": "Ethiopia", "is_in:country_code": "ET", "name": "Gele", "place": "locality", "source": "GeoDatabase"}}, {"type": "node", "id": 1150942037, "lat": 9.01667, "lon": 41.31666, "tags": {"is_in:country": "Ethiopia", "is_in:country_code": "ET", "name": "K'Ubi Abdul K'Adir Mesgid", "place": "locality", "source": "GeoDatabase"}}, {"type": "node", "id": 1150946315, "lat": 8.96667, "lon": 41.21667, "tags": {"is_in:country": "Ethiopia", "is_in:country_code": "ET", "name": "Halicho Shet'", "place": "locality", "source": "GeoDatabase"}}, {"type": "node", "id": 1150954939, "lat": 8.96667, "lon": 41.41667, "tags": {"is_in:country": "Ethiopia", "is_in:country_code": "ET", "name": "Rago", "place": "locality", "source": "GeoDatabase"}}, {"type": "node", "id": 1150958247, "lat": 8.8, "lon": 41.38333, "tags": {"is_in:country": "Ethiopia", "is_in:country_code": "ET", "name": "Ela'E Shet'", "place": "locality", "source": "GeoDatabase"}}, {"type": "node", "id": 1150958424, "lat": 8.86667, "lon": 41.21667, "tags": {"is_in:country": "Ethiopia", "is_in:country_code": "ET", "name": "Ciaffe", "place": "locality", "source": "GeoDatabase"}}, {"type": "node", "id": 1150963498, "lat": 8.71667, "lon": 41.18333, "tags": {"is_in:country": "Ethiopia", "is_in:country_code": "ET", "name": "Umecho Shet'", "place": "locality", "source": "GeoDatabase"}}, {"type": "node", "id": 1150966133, "lat": 8.91667, "lon": 41.35, "tags": {"is_in:country": "Ethiopia", "is_in:country_code": "ET", "name": "Mucha Roba", "place": "locality", "source": "GeoDatabase"}}, {"type": "node", "id": 1150969507, "lat": 8.7, "lon": 41.33333, "tags": {"is_in:country": "Ethiopia", "is_in:country_code": "ET", "name": "Hie", "place": "locality", "source": "GeoDatabase"}}, {"type": "node", "id": 1150973424, "lat": 8.8, "lon": 41.43333, "tags": {"is_in:country": "Ethiopia", "is_in:country_code": "ET", "name": "Arago", "place": "locality", "source": "GeoDatabase"}}, {"type": "node", "id": 2150450486, "lat": 8.8021754, "lon": 41.4911023, "tags": {"place": "village"}}, {"type": "node", "id": 2150450896, "lat": 8.789281, "lon": 41.4611214, "tags": {"place": "village"}}, {"type": "node", "id": 2151452037, "lat": 8.6720226, "lon": 41.4726381, "tags": {"place": "village"}}, {"type": "node", "id": 2290557930, "lat": 8.8387895, "lon": 41.3490746, "tags": {"place": "village"}}, {"type": "node", "id": 10282668695, "lat": 8.8565281, "lon": 41.1761218, "tags": {"place": "hamlet"}}, {"type": "node", "id": 10282668758, "lat": 8.8946298, "lon": 41.1935554, "tags": {"place": "hamlet"}}, {"type": "node", "id": 10282822237, "lat": 8.9564171, "lon": 41.3564357, "tags": {"place": "village"}}, {"type": "node", "id": 10282880034, "lat": 8.9586361, "lon": 41.2671981, "tags": {"place": "hamlet"}}, {"type": "node", "id": 10282971418, "lat": 8.8306648, "lon": 41.2628191, "tags": {"place": "village"}}]}