{"version": 0.6, "generator": "Overpass API 0.7.62.1 084b4234", "osm3s": {"timestamp_osm_base": "2024-09-30T20:33:43Z", "copyright": "The data included in this document is from www.openstreetmap.org. The data is made available under ODbL."}, "elements": [{"type": "node", "id": 1404221965, "lat": 6.3539495, "lon": 47.0324464, "tags": {"name": "Laqu-Raqsay", "pcode": "NB-3808-R12-002", "place": "village", "source": "UNDP - 2006"}}, {"type": "node", "id": 1404222803, "lat": 6.0991, "lon": 47.0205, "tags": {"name": "En Gomot", "pcode": "NB-3808-X12-001", "place": "village", "source": "UNDP - 1997"}}, {"type": "node", "id": 1404224158, "lat": 6.1811, "lon": 47.0709, "tags": {"name": "Lababulscio", "pcode": "NB-3808-V13-001", "place": "village", "source": "UNDP - 1997"}}, {"type": "node", "id": 1404224211, "lat": 6.352963, "lon": 46.885518, "tags": {"name": "Moqor", "pcode": "NB-3808-R09-001", "place": "village", "source": "INGO - 2010", "verified": "no"}}, {"type": "node", "id": 1404224383, "lat": 6.458067, "lon": 46.8088, "tags": {"name": "Laan Weyn", "pcode": "NB-3808-P07-001", "place": "village", "source": "INGO - 2010", "verified": "no"}}, {"type": "node", "id": 1404224417, "lat": 6.330502, "lon": 47.016201, "tags": {"name": "Lanweyndoc", "pcode": "NB-3808-S12-001", "place": "village", "source": "INGO - 2010", "verified": "no"}}, {"type": "node", "id": 1404224437, "lat": 6.34234, "lon": 46.79284, "tags": {"name": "Wad-Galinsoor", "pcode": "NB-3808-R07-001", "place": "village", "source": "UNDP - 2006"}}, {"type": "node", "id": 1404224527, "lat": 6.36934, "lon": 47.04234, "tags": {"name": "Bandiiradleey", "pcode": "NB-3808-R12-001", "place": "village", "source": "UNDP - 2006"}}, {"type": "node", "id": 1404225128, "lat": 6.1319629, "lon": 46.9684436, "tags": {"name": "Docolay", "pcode": "NB-3808-W10-001", "place": "village", "source": "UNDP - 2006"}}, {"type": "node", "id": 1404225181, "lat": 6.17485, "lon": 46.84643, "tags": {"alt_name": "Idoole", "name": "Iidoole", "pcode": "NB-3808-V08-001", "place": "village", "source": "UNDP - 2006, UNDP - 1997"}}, {"type": "node", "id": 1404226857, "lat": 6.1278, "lon": 46.819401, "tags": {"name": "Balli Angie Berdo", "pcode": "NB-3808-W08-001", "place": "village", "source": "UNDP - 1997"}}, {"type": "node", "id": 1404228608, "lat": 6.42639, "lon": 46.70553, "tags": {"alt_name": "Gellinsoo", "name": "Galinsoor \u062c\u0627\u0644\u064a\u0646\u0633\u0648\u0631", "name:ar": "\u062c\u0627\u0644\u064a\u0646\u0633\u0648\u0631", "name:en": "Galinsoor", "name:fr": "Galinsoor", "pcode": "NB-3808-P05-001", "place": "village", "source": "UNDP - 2006, UNDP - 1997, FSAU"}}, {"type": "node", "id": 1404229048, "lat": 6.2456965, "lon": 47.0610744, "tags": {"name": "Wanakiir", "pcode": "NB-3808-U13-001", "place": "village", "source": "UNDP - 2006"}}, {"type": "node", "id": 1404230339, "lat": 6.39188, "lon": 47.03887, "tags": {"name": "Isgowrac", "pcode": "NB-3808-Q12-001", "place": "village", "source": "UNDP - 2006"}}, {"type": "node", "id": 1404231653, "lat": 6.4423061, "lon": 46.8319338, "tags": {"name": "Balaquay", "pcode": "NB-3808-P08-002", "place": "hamlet", "source": "UNDP - 2006"}}, {"type": "node", "id": 1404231937, "lat": 6.47979, "lon": 46.945358, "tags": {"name": "Bandiidley \u0628\u0646\u062f\u064a\u0631\u062f\u0644\u064a", "name:ar": "\u0628\u0646\u062f\u064a\u0631\u062f\u0644\u064a", "name:en": "Banderadley", "name:fr": "Banderadley", "pcode": "NB-3808-N10-001", "place": "village", "source": "UNDP - 1997", "wikidata": "Q3322768"}}, {"type": "node", "id": 1404232862, "lat": 6.4312, "lon": 46.832802, "tags": {"name": "Balliiano", "pcode": "NB-3808-P08-001", "place": "locality", "source": "UNDP - 1997"}}, {"type": "node", "id": 1404233576, "lat": 6.336212, "lon": 47.005344, "tags": {"name": "Docole Lgr", "pcode": "NB-3808-R12-003", "place": "village", "source": "INGO - 2010", "verified": "no"}}]}