{"version": 0.6, "generator": "Overpass API 0.7.62.1 084b4234", "osm3s": {"timestamp_osm_base": "2024-09-30T20:45:58Z", "copyright": "The data included in this document is from www.openstreetmap.org. The data is made available under ODbL."}, "elements": [{"type": "node", "id": 1404221578, "lat": 3.817635, "lon": 44.520564, "tags": {"name": "Buulo Dhowdhow", "pcode": "NA-3802-E23-005", "place": "village", "source": "UNDP - 2006"}}, {"type": "node", "id": 1404221734, "lat": 3.90931, "lon": 44.45569, "tags": {"name": "Herarow", "pcode": "NA-3802-C22-004", "place": "village", "source": "UNDP - 2006"}}, {"type": "node", "id": 1404221753, "lat": 3.76927, "lon": 44.57172, "tags": {"alt_name": "Qonle", "name": "Aw-Qoonle", "pcode": "NA-3802-F24-004", "place": "village", "source": "UNDP - 2006, UNDP - 1997"}}, {"type": "node", "id": 1404221798, "lat": 3.84245, "lon": 44.44471, "tags": {"name": "Duqsiilow", "pcode": "NA-3802-D21-001", "place": "village", "source": "UNDP - 2006"}}, {"type": "node", "id": 1404221877, "lat": 3.83879, "lon": 44.42461, "tags": {"name": "Hamiinoy", "pcode": "NA-3802-D21-002", "place": "village", "source": "UNDP - 2006"}}, {"type": "node", "id": 1404222526, "lat": 3.91399, "lon": 44.32348, "tags": {"name": "Hoobishe", "pcode": "NA-3802-C19-006", "place": "village", "source": "UNDP - 2006"}}, {"type": "node", "id": 1404222834, "lat": 3.8155, "lon": 44.51857, "tags": {"alt_name": "Dhema", "name": "Dheemo", "pcode": "NA-3802-E23-006", "place": "village", "source": "UNDP - 2006, UNDP - 1997, FSAU"}}, {"type": "node", "id": 1404223027, "lat": 3.85581, "lon": 44.38642, "tags": {"name": "Korar", "pcode": "NA-3802-D20-001", "place": "village", "source": "UNDP - 2006"}}, {"type": "node", "id": 1404223096, "lat": 3.86446, "lon": 44.34816, "tags": {"name": "Ban Daran", "pcode": "NA-3802-D19-001", "place": "village", "source": "UNDP - 2006"}}, {"type": "node", "id": 1404223237, "lat": 3.86447, "lon": 44.531426, "tags": {"name": "Buulo Jadiid 4", "pcode": "NA-3802-D23-003", "place": "village", "source": "UNDP - 2006"}}, {"type": "node", "id": 1404223303, "lat": 3.75376, "lon": 44.59525, "tags": {"name": "Biilaley", "pcode": "NA-3802-F25-001", "place": "village", "source": "UNDP - 2006"}}, {"type": "node", "id": 1404223702, "lat": 3.86275, "lon": 44.51143, "tags": {"name": "Hubudhi", "pcode": "NA-3802-D23-004", "place": "village", "source": "UNDP - 2006, FSAU"}}, {"type": "node", "id": 1404224274, "lat": 3.8016, "lon": 44.4881, "tags": {"name": "Aboorow", "pcode": "NA-3802-E22-001", "place": "village", "source": "UNDP - 2006"}}, {"type": "node", "id": 1404224361, "lat": 3.76641, "lon": 44.55389, "tags": {"name": "Buulo Dhato", "pcode": "NA-3802-F24-003", "place": "village", "source": "UNDP - 2006"}}, {"type": "node", "id": 1404224532, "lat": 3.78092, "lon": 44.49707, "tags": {"name": "Waki 1", "pcode": "NA-3802-F22-001", "place": "village", "source": "UNDP - 2006"}}, {"type": "node", "id": 1404224630, "lat": 3.7777, "lon": 44.6791, "tags": {"name": "Garas-Ca Damo", "pcode": "NA-3802-F26-001", "place": "village", "source": "UNDP - 1997"}}, {"type": "node", "id": 1404225001, "lat": 3.75768, "lon": 44.55253, "tags": {"name": "Abaqlow", "pcode": "NA-3802-F24-002", "place": "village", "source": "UNDP - 2006"}}, {"type": "node", "id": 1404225109, "lat": 3.8948, "lon": 44.46371, "tags": {"name": "Doon Mundili", "pcode": "NA-3802-C22-003", "place": "village", "source": "UNDP - 2006"}}, {"type": "node", "id": 1404225241, "lat": 3.88266, "lon": 44.344799, "tags": {"name": "Drersin", "pcode": "NA-3802-C19-002", "place": "village", "source": "UNDP - 1997"}}, {"type": "node", "id": 1404225415, "lat": 3.85946, "lon": 44.50395, "tags": {"name": "Gareradi", "pcode": "NA-3802-D23-006", "place": "village", "source": "UNDP - 2006"}}, {"type": "node", "id": 1404225939, "lat": 3.83434, "lon": 44.43517, "tags": {"name": "Qarsooy", "pcode": "NA-3802-D21-003", "place": "village", "source": "UNDP - 2006"}}, {"type": "node", "id": 1404226208, "lat": 3.78264, "lon": 44.50678, "tags": {"name": "Waki 2", "pcode": "NA-3802-F23-003", "place": "village", "source": "UNDP - 2006"}}, {"type": "node", "id": 1404226631, "lat": 3.91594, "lon": 44.349751, "tags": {"name": "Cashur", "pcode": "NA-3802-C19-001", "place": "village", "source": "UNDP - 1997"}}, {"type": "node", "id": 1404226879, "lat": 3.87316, "lon": 44.47904, "tags": {"alt_name": "Hugoy", "name": "Hugey", "pcode": "NA-3802-D22-002", "place": "village", "source": "UNDP - 2006, FSAU"}}, {"type": "node", "id": 1404227938, "lat": 3.8454458, "lon": 44.4047449, "tags": {"name": "Bulo Hadija", "pcode": "NA-3802-D20-002", "place": "village", "source": "UNDP - 2006"}}, {"type": "node", "id": 1404228383, "lat": 3.91527, "lon": 44.31749, "tags": {"name": "Gunri", "pcode": "NA-3802-C18-001", "place": "village", "source": "UNDP - 2006"}}, {"type": "node", "id": 1404228843, "lat": 3.77861, "lon": 44.52969, "tags": {"name": "Edaayin", "pcode": "NA-3802-F23-002", "place": "village", "source": "UNDP - 2006"}}, {"type": "node", "id": 1404229083, "lat": 3.8786389, "lon": 44.3406808, "tags": {"name": "Buulo Issaq", "pcode": "NA-3802-C19-004", "place": "village", "source": "UNDP - 2006"}}, {"type": "node", "id": 1404229901, "lat": 3.74914, "lon": 44.58551, "tags": {"name": "Harar Gaafow", "pcode": "NA-3802-G24-001", "place": "village", "source": "UNDP - 2006"}}, {"type": "node", "id": 1404230045, "lat": 3.883167, "lon": 44.346494, "tags": {"alt_name": "Ooraar", "name": "Oorar", "pcode": "NA-3802-C19-003", "place": "village", "source": "UNDP - 2006, FSAU"}}, {"type": "node", "id": 1404230058, "lat": 3.83276, "lon": 44.54199, "tags": {"name": "Ruqa", "pcode": "NA-3802-E23-004", "place": "village", "source": "UNDP - 2006"}}, {"type": "node", "id": 1404230219, "lat": 3.80396, "lon": 44.52753, "tags": {"name": "Shiidka", "pcode": "NA-3802-E23-003", "place": "village", "source": "UNDP - 2006"}}, {"type": "node", "id": 1404230240, "lat": 3.8519987, "lon": 44.3776041, "tags": {"name": "Dhooblow", "pcode": "NA-3802-D20-004", "place": "village", "source": "UNDP - 2006"}}, {"type": "node", "id": 1404230333, "lat": 3.8197, "lon": 44.5023, "tags": {"name": "Ubudi", "pcode": "NA-3802-E23-001", "place": "village", "source": "UNDP - 1997"}}, {"type": "node", "id": 1404230463, "lat": 3.7278, "lon": 44.6805, "tags": {"name": "Sciaule Ali Mai", "pcode": "NA-3802-G26-001", "place": "hamlet", "source": "UNDP - 1997"}}, {"type": "node", "id": 1404230641, "lat": 3.87508, "lon": 44.46949, "tags": {"name": "Durey", "pcode": "NA-3802-C22-002", "place": "village", "source": "UNDP - 2006"}}, {"type": "node", "id": 1404230746, "lat": 3.83848, "lon": 44.44606, "tags": {"name": "Ka", "pcode": "NA-3802-D21-004", "place": "village", "source": "UNDP - 2006"}}, {"type": "node", "id": 1404230807, "lat": 3.91586, "lon": 44.34958, "tags": {"name": "Dareersin 1", "pcode": "NA-3802-C19-005", "place": "village", "source": "UNDP - 2006, FSAU"}}, {"type": "node", "id": 1404230957, "lat": 3.89137, "lon": 44.4583, "tags": {"name": "Ay Haaway", "pcode": "NA-3802-C22-005", "place": "village", "source": "UNDP - 2006"}}, {"type": "node", "id": 1404231380, "lat": 3.84627, "lon": 44.45988, "tags": {"name": "Lowi Gayloy", "pcode": "NA-3802-D22-001", "place": "village", "source": "UNDP - 2006"}}, {"type": "node", "id": 1404231615, "lat": 3.84869, "lon": 44.5428, "tags": {"name": "Gowki", "pcode": "NA-3802-D23-002", "place": "village", "source": "UNDP - 2006"}}, {"type": "node", "id": 1404231693, "lat": 3.84208, "lon": 44.4936, "tags": {"name": "Mood Mareri", "pcode": "NA-3802-D22-003", "place": "village", "source": "UNDP - 2006"}}, {"type": "node", "id": 1404231918, "lat": 3.81125, "lon": 44.5253, "tags": {"name": "Buulo Ajusi", "pcode": "NA-3802-E23-002", "place": "village", "source": "UNDP - 2006"}}, {"type": "node", "id": 1404231925, "lat": 3.864897, "lon": 44.533988, "tags": {"name": "Sedax Haawo", "pcode": "NA-3802-D23-007", "place": "village", "source": "UNDP - 2006"}}, {"type": "node", "id": 1404232369, "lat": 3.9046, "lon": 44.460011, "tags": {"name": "Jiumqaale", "pcode": "NA-3802-C22-001", "place": "village", "source": "UNDP - 1997"}}, {"type": "node", "id": 1404232695, "lat": 3.78706, "lon": 44.54457, "tags": {"name": "Shaatoli", "pcode": "NA-3802-F23-001", "place": "village", "source": "UNDP - 2006"}}, {"type": "node", "id": 1404232933, "lat": 3.854857, "lon": 44.5007317, "tags": {"name": "Herarow", "pcode": "NA-3802-D23-005", "place": "village", "source": "UNDP - 2006"}}, {"type": "node", "id": 1404233389, "lat": 3.76346, "lon": 44.56234, "tags": {"name": "Libaanow", "pcode": "NA-3802-F24-001", "place": "village", "source": "UNDP - 2006"}}, {"type": "node", "id": 1404233640, "lat": 3.85339, "lon": 44.503391, "tags": {"name": "Elkiya", "pcode": "NA-3802-D23-001", "place": "village", "source": "UNDP - 1997"}}, {"type": "node", "id": 1404234132, "lat": 3.8608067, "lon": 44.352533, "tags": {"name": "Dudumale Wiin", "pcode": "NA-3802-D19-002", "place": "village", "source": "UNDP - 2006"}}]}