{"version": 0.6, "generator": "Overpass API 0.7.62.1 084b4234", "osm3s": {"timestamp_osm_base": "2024-09-30T22:14:43Z", "copyright": "The data included in this document is from www.openstreetmap.org. The data is made available under ODbL."}, "elements": [{"type": "node", "id": 1150494390, "lat": 12.285335, "lon": 39.600904, "tags": {"name": "\u12cb\u1303 Waja", "name:en": "Waja", "name:fr": "Waja", "name:ti": "\u12cb\u1303", "place": "village", "source": "300TDI", "wikidata": "Q3565195"}}, {"type": "node", "id": 1150494445, "lat": 12.15063, "lon": 39.628837, "tags": {"name": "Kobo", "name:ar": "\u0642\u0648\u0628\u0648", "place": "town", "source": "300TDI", "wikidata": "Q3198143", "wikipedia": "en:Kobo, Ethiopia"}}, {"type": "node", "id": 1150494535, "lat": 11.9491125, "lon": 39.6649282, "tags": {"name": "Gobiye", "place": "village", "source": "300TDI"}}, {"type": "node", "id": 1150880796, "lat": 11.93333, "lon": 39.41667, "tags": {"is_in:country_code": "ET", "is_in:county": "Ethiopia", "name": "Wek'O Terara", "place": "locality", "source": "GeoDatabase"}}, {"type": "node", "id": 1150881193, "lat": 12.2, "lon": 39.56666, "tags": {"is_in:country_code": "ET", "is_in:county": "Ethiopia", "name": "Monte Hobat", "place": "locality", "source": "GeoDatabase"}}, {"type": "node", "id": 1150881214, "lat": 12.01667, "lon": 39.46667, "tags": {"is_in:country_code": "ET", "is_in:county": "Ethiopia", "name": "Amba Maryam Bete Kristiyan", "place": "locality", "source": "GeoDatabase"}}, {"type": "node", "id": 1150881470, "lat": 12.28333, "lon": 39.55, "tags": {"is_in:country_code": "ET", "is_in:county": "Ethiopia", "name": "Monte Cobat", "place": "locality", "source": "GeoDatabase"}}, {"type": "node", "id": 1150881514, "lat": 12.11667, "lon": 39.5, "tags": {"is_in:country_code": "ET", "is_in:county": "Ethiopia", "name": "Wale Amba", "place": "locality", "source": "GeoDatabase"}}, {"type": "node", "id": 1150882092, "lat": 12.01667, "lon": 39.38333, "tags": {"is_in:country_code": "ET", "is_in:county": "Ethiopia", "name": "Gesta Silase Bete Kristiyan", "place": "locality", "source": "GeoDatabase"}}, {"type": "node", "id": 1150882111, "lat": 12.0110265, "lon": 39.6247203, "tags": {"is_in:country_code": "ET", "is_in:county": "Ethiopia", "name": "Robit", "place": "village", "source": "GeoDatabase", "wikidata": "Q24026674"}}, {"type": "node", "id": 1150882580, "lat": 12.2689764, "lon": 39.605815, "tags": {"name": "Bitimo", "place": "village"}}, {"type": "node", "id": 1150882855, "lat": 12.21667, "lon": 39.65, "tags": {"is_in:country_code": "ET", "is_in:county": "Ethiopia", "name": "Nigus Galel Shet'", "place": "locality", "source": "GeoDatabase"}}, {"type": "node", "id": 1150883344, "lat": 11.93333, "lon": 39.45, "tags": {"is_in:country_code": "ET", "is_in:county": "Ethiopia", "name": "Weyra Beret", "place": "locality", "source": "GeoDatabase"}}, {"type": "node", "id": 1150883370, "lat": 11.9042745, "lon": 39.3809984, "tags": {"is_in:country_code": "ET", "is_in:county": "Ethiopia", "name": "K'Efo Mesk'Eya", "place": "locality", "source": "GeoDatabase"}}, {"type": "node", "id": 1150884108, "lat": 11.93333, "lon": 39.66667, "tags": {"is_in:country_code": "ET", "is_in:county": "Ethiopia", "name": "Wach'O Iyesus Bete Kristiyan", "place": "locality", "source": "GeoDatabase"}}, {"type": "node", "id": 1150884545, "lat": 12.28333, "lon": 39.68333, "tags": {"is_in:country_code": "ET", "is_in:county": "Ethiopia", "name": "Bale Kurma", "place": "locality", "source": "GeoDatabase"}}, {"type": "node", "id": 1150884886, "lat": 12.0, "lon": 39.41667, "tags": {"is_in:country_code": "ET", "is_in:county": "Ethiopia", "name": "Sire Gedel", "place": "locality", "source": "GeoDatabase"}}, {"type": "node", "id": 1150885764, "lat": 12.06667, "lon": 39.6, "tags": {"is_in:country_code": "ET", "is_in:county": "Ethiopia", "name": "T'Ot'A Amba Shet'", "place": "locality", "source": "GeoDatabase"}}, {"type": "node", "id": 1150885924, "lat": 11.96667, "lon": 39.66667, "tags": {"is_in:country_code": "ET", "is_in:county": "Ethiopia", "name": "K'Ulk'Wal Amba", "place": "locality", "source": "GeoDatabase"}}, {"type": "node", "id": 1150886558, "lat": 12.18333, "lon": 39.5, "tags": {"is_in:country_code": "ET", "is_in:county": "Ethiopia", "name": "Sheway Maryam Bete Kristiyan", "place": "locality", "source": "GeoDatabase"}}, {"type": "node", "id": 1150886564, "lat": 12.21667, "lon": 39.4, "tags": {"is_in:country_code": "ET", "is_in:county": "Ethiopia", "name": "K'Ey Amba Abo Bete Kristiyan", "place": "locality", "source": "GeoDatabase"}}, {"type": "node", "id": 1150887390, "lat": 11.93333, "lon": 39.6, "tags": {"is_in:country_code": "ET", "is_in:county": "Ethiopia", "name": "Mintamir Iyesus Bete Kristiyan", "place": "locality", "source": "GeoDatabase"}}, {"type": "node", "id": 1150887992, "lat": 12.11667, "lon": 39.68333, "tags": {"is_in:country_code": "ET", "is_in:county": "Ethiopia", "name": "Shimbarge Abo Bete Kristiyan", "place": "locality", "source": "GeoDatabase"}}, {"type": "node", "id": 1150889871, "lat": 12.03333, "lon": 39.5, "tags": {"is_in:country_code": "ET", "is_in:county": "Ethiopia", "name": "Derba Maryam", "place": "locality", "source": "GeoDatabase"}}, {"type": "node", "id": 1150890437, "lat": 12.08333, "lon": 39.43333, "tags": {"is_in:country_code": "ET", "is_in:county": "Ethiopia", "name": "Was Amba Maryam Bete Kristiyan", "place": "locality", "source": "GeoDatabase"}}, {"type": "node", "id": 1150890861, "lat": 12.31667, "lon": 39.6, "tags": {"name": "T'Imuga", "place": "village"}}, {"type": "node", "id": 1150890993, "lat": 12.16667, "lon": 39.41667, "tags": {"is_in:country_code": "ET", "is_in:county": "Ethiopia", "name": "Lich'O Beret Giyorgis Bete Kristiyan", "place": "locality", "source": "GeoDatabase"}}, {"type": "node", "id": 1150892294, "lat": 12.3, "lon": 39.48333, "tags": {"is_in:country_code": "ET", "is_in:county": "Ethiopia", "name": "Misa Tay Senbet", "place": "locality", "source": "GeoDatabase"}}, {"type": "node", "id": 1150892889, "lat": 12.28333, "lon": 39.5, "tags": {"is_in:country_code": "ET", "is_in:county": "Ethiopia", "name": "Adi Saseso", "place": "locality", "source": "GeoDatabase"}}, {"type": "node", "id": 1150893548, "lat": 12.15, "lon": 39.48333, "tags": {"is_in:country_code": "ET", "is_in:county": "Ethiopia", "name": "Uaffat", "place": "locality", "source": "GeoDatabase"}}, {"type": "node", "id": 1150895405, "lat": 12.05, "lon": 39.6, "tags": {"is_in:country_code": "ET", "is_in:county": "Ethiopia", "name": "Ch'Erch'Er", "place": "locality", "source": "GeoDatabase"}}, {"type": "node", "id": 1150896640, "lat": 12.2, "lon": 39.45, "tags": {"is_in:country_code": "ET", "is_in:county": "Ethiopia", "name": "Mehal Meda", "place": "locality", "source": "GeoDatabase"}}, {"type": "node", "id": 1150898134, "lat": 12.08333, "lon": 39.46667, "tags": {"is_in:country_code": "ET", "is_in:county": "Ethiopia", "name": "Wesi'Am Maryam Bete Kristiyan", "place": "locality", "source": "GeoDatabase"}}, {"type": "node", "id": 1150898178, "lat": 11.91667, "lon": 39.48333, "tags": {"is_in:country_code": "ET", "is_in:county": "Ethiopia", "name": "Aba Libanos Ch'Aka", "place": "locality", "source": "GeoDatabase"}}, {"type": "node", "id": 1150898946, "lat": 12.3, "lon": 39.4, "tags": {"is_in:country_code": "ET", "is_in:county": "Ethiopia", "name": "Maugo", "place": "locality", "source": "GeoDatabase"}}, {"type": "node", "id": 1150899147, "lat": 12.25, "lon": 39.55, "tags": {"is_in:country_code": "ET", "is_in:county": "Ethiopia", "name": "Bich'Ro", "place": "locality", "source": "GeoDatabase"}}, {"type": "node", "id": 1150899152, "lat": 12.06667, "lon": 39.45, "tags": {"is_in:country_code": "ET", "is_in:county": "Ethiopia", "name": "Sedie Mugia", "place": "locality", "source": "GeoDatabase"}}, {"type": "node", "id": 1150899434, "lat": 12.31667, "lon": 39.65, "tags": {"is_in:country_code": "ET", "is_in:county": "Ethiopia", "name": "Harosha", "place": "locality", "source": "GeoDatabase"}}, {"type": "node", "id": 1150899468, "lat": 12.06667, "lon": 39.51667, "tags": {"is_in:country_code": "ET", "is_in:county": "Ethiopia", "name": "Gureza Shet'", "place": "locality", "source": "GeoDatabase"}}, {"type": "node", "id": 1150900213, "lat": 12.01667, "lon": 39.65, "tags": {"is_in:country_code": "ET", "is_in:county": "Ethiopia", "name": "Wereminya Gebri'El Bete Kristiyan", "place": "locality", "source": "GeoDatabase"}}, {"type": "node", "id": 1150902083, "lat": 12.18333, "lon": 39.45, "tags": {"is_in:country_code": "ET", "is_in:county": "Ethiopia", "name": "Monte Taragana", "place": "locality", "source": "GeoDatabase"}}, {"type": "node", "id": 1150903414, "lat": 11.93333, "lon": 39.61667, "tags": {"is_in:country_code": "ET", "is_in:county": "Ethiopia", "name": "Agembir Gebri'El Bete Kristiyan", "place": "locality", "source": "GeoDatabase"}}, {"type": "node", "id": 1150907004, "lat": 12.05, "lon": 39.4, "tags": {"is_in:country_code": "ET", "is_in:county": "Ethiopia", "name": "Betara", "place": "locality", "source": "GeoDatabase"}}, {"type": "node", "id": 1150909312, "lat": 12.08333, "lon": 39.6, "tags": {"is_in:country_code": "ET", "is_in:county": "Ethiopia", "name": "Yilala Dima Giyorgis Bete Kristiyan", "place": "locality", "source": "GeoDatabase"}}, {"type": "node", "id": 1150909481, "lat": 11.98333, "lon": 39.68333, "tags": {"is_in:country_code": "ET", "is_in:county": "Ethiopia", "name": "Uoira Baie", "place": "locality", "source": "GeoDatabase"}}, {"type": "node", "id": 1150910793, "lat": 12.15, "lon": 39.51667, "tags": {"is_in:country_code": "ET", "is_in:county": "Ethiopia", "name": "Sink'E Amba", "place": "locality", "source": "GeoDatabase"}}, {"type": "node", "id": 1150910800, "lat": 12.23333, "lon": 39.41667, "tags": {"is_in:country_code": "ET", "is_in:county": "Ethiopia", "name": "Awka Kidane Mihret Bete Kristiyan", "place": "locality", "source": "GeoDatabase"}}, {"type": "node", "id": 1150911121, "lat": 12.3187664, "lon": 39.5634843, "tags": {"name": "Muka Lench'A", "place": "village"}}, {"type": "node", "id": 1150911139, "lat": 12.21667, "lon": 39.61667, "tags": {"is_in:country_code": "ET", "is_in:county": "Ethiopia", "name": "Rare", "place": "locality", "source": "GeoDatabase"}}, {"type": "node", "id": 1150911838, "lat": 11.98333, "lon": 39.4, "tags": {"is_in:country_code": "ET", "is_in:county": "Ethiopia", "name": "Yenad Dega", "place": "locality", "source": "GeoDatabase"}}, {"type": "node", "id": 1150912563, "lat": 11.95, "lon": 39.6, "tags": {"is_in:country_code": "ET", "is_in:county": "Ethiopia", "name": "Hamid", "place": "locality", "source": "GeoDatabase"}}, {"type": "node", "id": 1150918743, "lat": 12.1, "lon": 39.48333, "tags": {"is_in:country_code": "ET", "is_in:county": "Ethiopia", "name": "Brigandet", "place": "locality", "source": "GeoDatabase"}}, {"type": "node", "id": 1150920421, "lat": 12.2977148, "lon": 39.6269911, "tags": {"name": "Bufeli", "place": "village"}}, {"type": "node", "id": 1150920475, "lat": 12.15, "lon": 39.43333, "tags": {"is_in:country_code": "ET", "is_in:county": "Ethiopia", "name": "Talak' Kelkil", "place": "locality", "source": "GeoDatabase"}}, {"type": "node", "id": 1150922630, "lat": 12.3, "lon": 39.5, "tags": {"is_in:country_code": "ET", "is_in:county": "Ethiopia", "name": "Giram Hora", "place": "locality", "source": "GeoDatabase"}}, {"type": "node", "id": 1150923399, "lat": 12.28333, "lon": 39.53333, "tags": {"is_in:country_code": "ET", "is_in:county": "Ethiopia", "name": "Hudad", "place": "locality", "source": "GeoDatabase"}}, {"type": "node", "id": 1150924168, "lat": 12.18333, "lon": 39.48333, "tags": {"is_in:country_code": "ET", "is_in:county": "Ethiopia", "name": "Warka", "place": "locality", "source": "GeoDatabase"}}, {"type": "node", "id": 1150924771, "lat": 12.01667, "lon": 39.68333, "tags": {"is_in:country_code": "ET", "is_in:county": "Ethiopia", "name": "Beguoco", "place": "locality", "source": "GeoDatabase"}}, {"type": "node", "id": 1150925295, "lat": 12.16667, "lon": 39.65, "tags": {"is_in:country_code": "ET", "is_in:county": "Ethiopia", "name": "Dik'Ala Shet'", "place": "locality", "source": "GeoDatabase"}}, {"type": "node", "id": 1150927151, "lat": 11.91667, "lon": 39.66667, "tags": {"is_in:country_code": "ET", "is_in:county": "Ethiopia", "name": "Gobiye", "place": "locality", "source": "GeoDatabase"}}, {"type": "node", "id": 1150927416, "lat": 12.21667, "lon": 39.45, "tags": {"is_in:country_code": "ET", "is_in:county": "Ethiopia", "name": "Gobu Maryam Bete Kristiyan", "place": "locality", "source": "GeoDatabase"}}, {"type": "node", "id": 1150928293, "lat": 12.08333, "lon": 39.41667, "tags": {"is_in:country_code": "ET", "is_in:county": "Ethiopia", "name": "Dino", "place": "locality", "source": "GeoDatabase"}}, {"type": "node", "id": 1150929292, "lat": 12.3179488, "lon": 39.6790599, "tags": {"name": "Bedena Leko", "place": "village"}}, {"type": "node", "id": 1150929580, "lat": 12.15, "lon": 39.4, "tags": {"is_in:country_code": "ET", "is_in:county": "Ethiopia", "name": "Aregza", "place": "locality", "source": "GeoDatabase"}}, {"type": "node", "id": 1150934371, "lat": 12.3146784, "lon": 39.4478328, "tags": {"name": "Adi K'Esawist", "place": "hamlet"}}, {"type": "node", "id": 1150934980, "lat": 12.28333, "lon": 39.41667, "tags": {"is_in:country_code": "ET", "is_in:county": "Ethiopia", "name": "Jemedo Maryma Bete Kristiyan", "place": "locality", "source": "GeoDatabase"}}, {"type": "node", "id": 1150935005, "lat": 12.1, "lon": 39.45, "tags": {"is_in:country_code": "ET", "is_in:county": "Ethiopia", "name": "Duda Abo Bete Kristiyan", "place": "locality", "source": "GeoDatabase"}}, {"type": "node", "id": 1150935775, "lat": 12.06667, "lon": 39.53333, "tags": {"is_in:country_code": "ET", "is_in:county": "Ethiopia", "name": "Istiye Shet'", "place": "locality", "source": "GeoDatabase"}}, {"type": "node", "id": 1150936676, "lat": 12.15, "lon": 39.6, "tags": {"is_in:country_code": "ET", "is_in:county": "Ethiopia", "name": "K'Emele", "place": "locality", "source": "GeoDatabase"}}, {"type": "node", "id": 1150938587, "lat": 12.26667, "lon": 39.61667, "tags": {"name": "Passo Bitimo", "place": "locality"}}, {"type": "node", "id": 1150938921, "lat": 12.13333, "lon": 39.46667, "tags": {"is_in:country_code": "ET", "is_in:county": "Ethiopia", "name": "K'Ey Afer", "place": "locality", "source": "GeoDatabase"}}, {"type": "node", "id": 1150942441, "lat": 11.93333, "lon": 39.38333, "tags": {"is_in:country_code": "ET", "is_in:county": "Ethiopia", "name": "Debot", "place": "locality", "source": "GeoDatabase"}}, {"type": "node", "id": 1150944848, "lat": 11.91667, "lon": 39.4, "tags": {"is_in:country_code": "ET", "is_in:county": "Ethiopia", "name": "Sahat", "place": "locality", "source": "GeoDatabase"}}, {"type": "node", "id": 1150945950, "lat": 12.2, "lon": 39.55, "tags": {"is_in:country_code": "ET", "is_in:county": "Ethiopia", "name": "Ch'Efe Medhane `Alem Bete Kristiyan", "place": "locality", "source": "GeoDatabase"}}, {"type": "node", "id": 1150946001, "lat": 12.1, "lon": 39.43333, "tags": {"is_in:country_code": "ET", "is_in:county": "Ethiopia", "name": "Monte Socona", "place": "locality", "source": "GeoDatabase"}}, {"type": "node", "id": 1150949378, "lat": 12.0, "lon": 39.38333, "tags": {"is_in:country_code": "ET", "is_in:county": "Ethiopia", "name": "Gesta", "place": "locality", "source": "GeoDatabase"}}, {"type": "node", "id": 1150949438, "lat": 12.03333, "lon": 39.61667, "tags": {"is_in:country_code": "ET", "is_in:county": "Ethiopia", "name": "Legas Weyra Mika'El Bete Kristiyan", "place": "locality", "source": "GeoDatabase"}}, {"type": "node", "id": 1150951561, "lat": 12.26667, "lon": 39.58333, "tags": {"is_in:country_code": "ET", "is_in:county": "Ethiopia", "name": "Marsa Shet'", "place": "locality", "source": "GeoDatabase"}}, {"type": "node", "id": 1150951975, "lat": 12.16667, "lon": 39.53333, "tags": {"is_in:country_code": "ET", "is_in:county": "Ethiopia", "name": "K'Urk'Ura", "place": "locality", "source": "GeoDatabase"}}, {"type": "node", "id": 1150953134, "lat": 12.2, "lon": 39.65, "tags": {"is_in:country_code": "ET", "is_in:county": "Ethiopia", "name": "Ciobi", "place": "locality", "source": "GeoDatabase"}}, {"type": "node", "id": 1150958254, "lat": 12.01667, "lon": 39.4, "tags": {"is_in:country_code": "ET", "is_in:county": "Ethiopia", "name": "Sagulsaf", "place": "locality", "source": "GeoDatabase"}}, {"type": "node", "id": 1150960551, "lat": 12.11667, "lon": 39.58333, "tags": {"is_in:country_code": "ET", "is_in:county": "Ethiopia", "name": "Monte Sebensa", "place": "locality", "source": "GeoDatabase"}}, {"type": "node", "id": 1150960812, "lat": 12.11667, "lon": 39.48333, "tags": {"is_in:country_code": "ET", "is_in:county": "Ethiopia", "name": "Arbete Igzi'Abher Ab Bete Kristiyan", "place": "locality", "source": "GeoDatabase"}}, {"type": "node", "id": 1150962441, "lat": 12.15, "lon": 39.68333, "tags": {"is_in:country_code": "ET", "is_in:county": "Ethiopia", "name": "Monte Garra Aleucia", "place": "locality", "source": "GeoDatabase"}}, {"type": "node", "id": 1150962486, "lat": 12.3, "lon": 39.65, "tags": {"is_in:country_code": "ET", "is_in:county": "Ethiopia", "name": "Monte Thec", "place": "locality", "source": "GeoDatabase"}}, {"type": "node", "id": 1150962711, "lat": 12.16667, "lon": 39.5, "tags": {"is_in:country_code": "ET", "is_in:county": "Ethiopia", "name": "Gidiba", "place": "locality", "source": "GeoDatabase"}}, {"type": "node", "id": 1150962717, "lat": 12.2, "lon": 39.4, "tags": {"is_in:country_code": "ET", "is_in:county": "Ethiopia", "name": "Sidistya", "place": "locality", "source": "GeoDatabase"}}, {"type": "node", "id": 1150969175, "lat": 12.05, "lon": 39.68333, "tags": {"is_in:country_code": "ET", "is_in:county": "Ethiopia", "name": "Raya Meda", "place": "locality", "source": "GeoDatabase"}}, {"type": "node", "id": 1150969532, "lat": 12.16667, "lon": 39.38333, "tags": {"is_in:country_code": "ET", "is_in:county": "Ethiopia", "name": "Tewer Maryam Bete Kristiyan", "place": "locality", "source": "GeoDatabase"}}, {"type": "node", "id": 1150972266, "lat": 12.03333, "lon": 39.48333, "tags": {"is_in:country_code": "ET", "is_in:county": "Ethiopia", "name": "Dengolsa", "place": "locality", "source": "GeoDatabase"}}, {"type": "node", "id": 1150972730, "lat": 12.11667, "lon": 39.41667, "tags": {"is_in:country_code": "ET", "is_in:county": "Ethiopia", "name": "Duda Abo Bete Kristiyan", "place": "locality", "source": "GeoDatabase"}}, {"type": "node", "id": 1150973340, "lat": 12.06667, "lon": 39.41667, "tags": {"is_in:country_code": "ET", "is_in:county": "Ethiopia", "name": "Afk'Era Maryam Bete Kristiyan", "place": "locality", "source": "GeoDatabase"}}, {"type": "node", "id": 1150973450, "lat": 12.16667, "lon": 39.4, "tags": {"is_in:country_code": "ET", "is_in:county": "Ethiopia", "name": "Wenz Amba Abo Bete Kristiyan", "place": "locality", "source": "GeoDatabase"}}, {"type": "node", "id": 1150977161, "lat": 12.3, "lon": 39.51667, "tags": {"is_in:country_code": "ET", "is_in:county": "Ethiopia", "name": "K'Ibk'Ib", "place": "locality", "source": "GeoDatabase"}}, {"type": "node", "id": 1150978360, "lat": 12.28333, "lon": 39.45, "tags": {"is_in:country_code": "ET", "is_in:county": "Ethiopia", "name": "Dagrich Giyorgis Bete Kristiyan", "place": "locality", "source": "GeoDatabase"}}, {"type": "node", "id": 1150979531, "lat": 12.1, "lon": 39.53333, "tags": {"is_in:country_code": "ET", "is_in:county": "Ethiopia", "name": "Mehid", "place": "locality", "source": "GeoDatabase"}}, {"type": "node", "id": 1150980595, "lat": 12.23333, "lon": 39.58333, "tags": {"is_in:country_code": "ET", "is_in:county": "Ethiopia", "name": "Ayu", "place": "locality", "source": "GeoDatabase"}}, {"type": "node", "id": 1150982213, "lat": 12.2788589, "lon": 39.6331691, "tags": {"name": "Arengem", "place": "village"}}, {"type": "node", "id": 1150983008, "lat": 12.16667, "lon": 39.46667, "tags": {"is_in:country_code": "ET", "is_in:county": "Ethiopia", "name": "Insesa Gedel", "place": "locality", "source": "GeoDatabase"}}, {"type": "node", "id": 1151003829, "lat": 12.11667, "lon": 39.45, "tags": {"is_in:country_code": "ET", "is_in:county": "Ethiopia", "name": "T'Ik'It Angot Maryam Bete Kristiyan", "place": "locality", "source": "GeoDatabase"}}, {"type": "node", "id": 1151004112, "lat": 11.95, "lon": 39.38333, "tags": {"is_in:country_code": "ET", "is_in:county": "Ethiopia", "name": "And Iyela", "place": "locality", "source": "GeoDatabase"}}, {"type": "node", "id": 1280028413, "lat": 11.9313816, "lon": 39.4306115, "tags": {"name": "Debot", "place": "village"}}, {"type": "node", "id": 1280028446, "lat": 11.9528568, "lon": 39.4306671, "tags": {"name": "Reqar", "place": "village"}}, {"type": "node", "id": 1280040928, "lat": 12.0781104, "lon": 39.6750291, "tags": {"name": "Abare", "place": "village"}}, {"type": "node", "id": 4701343184, "lat": 11.9354944, "lon": 39.4306249, "tags": {"name": "Debot", "name:en": "Debot", "place": "village"}}, {"type": "node", "id": 4701344689, "lat": 11.9600323, "lon": 39.4193998, "tags": {"alt_name": "Dilb;Dibib", "name": "Dilib", "name:en": "Dilb", "place": "village"}}, {"type": "node", "id": 4701344690, "lat": 11.9349196, "lon": 39.3782816, "tags": {"alt_name": "Debot", "name": "Babasat", "name:en": "Babasat", "place": "village"}}, {"type": "node", "id": 9243107729, "lat": 12.2765634, "lon": 39.6144247, "tags": {"place": "hamlet"}}, {"type": "node", "id": 9248538087, "lat": 12.3313811, "lon": 39.5065945, "tags": {"place": "hamlet"}}, {"type": "node", "id": 9248538088, "lat": 12.3278987, "lon": 39.5001304, "tags": {"place": "hamlet"}}, {"type": "node", "id": 10616101567, "lat": 12.1075305, "lon": 39.4877186, "tags": {"place": "hamlet"}}, {"type": "node", "id": 10616352257, "lat": 12.2531075, "lon": 39.4532174, "tags": {"place": "hamlet"}}, {"type": "node", "id": 10616467530, "lat": 12.2547483, "lon": 39.5042975, "tags": {"place": "hamlet"}}, {"type": "node", "id": 10616534327, "lat": 12.2710834, "lon": 39.4167661, "tags": {"place": "village"}}, {"type": "node", "id": 10616534532, "lat": 12.2643023, "lon": 39.41156, "tags": {"place": "hamlet"}}, {"type": "node", "id": 10616759415, "lat": 12.2221987, "lon": 39.4555956, "tags": {"place": "hamlet"}}, {"type": "node", "id": 11682609296, "lat": 12.2341276, "lon": 39.6866801, "tags": {"place": "village"}}]}