{"version": 0.6, "generator": "Overpass API 0.7.62.1 084b4234", "osm3s": {"timestamp_osm_base": "2024-09-30T23:13:59Z", "copyright": "The data included in this document is from www.openstreetmap.org. The data is made available under ODbL."}, "elements": [{"type": "node", "id": 1150883354, "lat": 4.50191, "lon": 42.68531, "tags": {"is_in:country": "Ethiopia", "is_in:country_code": "ET", "name": "Bakaro", "place": "locality", "source": "GeoDatabase"}}, {"type": "node", "id": 1150885310, "lat": 4.31049, "lon": 42.79581, "tags": {"name": "Ber Kurale", "place": "locality", "source": "GeoDatabase"}}, {"type": "node", "id": 1150894475, "lat": 4.45186, "lon": 42.6733, "tags": {"is_in:country": "Ethiopia", "is_in:country_code": "ET", "name": "Ararro", "place": "locality", "source": "GeoDatabase"}}, {"type": "node", "id": 1150900602, "lat": 4.38333, "lon": 42.65, "tags": {"is_in:country": "Ethiopia", "is_in:country_code": "ET", "name": "Salieno", "place": "locality", "source": "GeoDatabase"}}, {"type": "node", "id": 1150916222, "lat": 4.24231, "lon": 42.60903, "tags": {"name": "Dzhadunley", "place": "locality", "source": "GeoDatabase"}}, {"type": "node", "id": 1150936969, "lat": 4.25, "lon": 42.63333, "tags": {"name": "Giadunlei", "place": "locality", "source": "GeoDatabase"}}, {"type": "node", "id": 1150946666, "lat": 4.22619, "lon": 42.54414, "tags": {"name": "Did Anan", "place": "locality", "source": "GeoDatabase"}}, {"type": "node", "id": 1150960857, "lat": 4.45115, "lon": 42.67657, "tags": {"is_in:country": "Ethiopia", "is_in:country_code": "ET", "name": "Ararro", "place": "locality", "source": "GeoDatabase"}}, {"type": "node", "id": 1150980856, "lat": 4.21786, "lon": 42.53889, "tags": {"name": "Did Anan", "place": "locality", "source": "GeoDatabase"}}, {"type": "node", "id": 1404221632, "lat": 4.1788, "lon": 42.871399, "tags": {"name": "Reidabal", "pcode": "NB-3813-V20-001", "place": "hamlet", "source": "UNDP - 1997"}}, {"type": "node", "id": 1404223843, "lat": 4.2485, "lon": 42.8223, "tags": {"name": "Rahaman", "pcode": "NB-3813-U19-001", "place": "village", "source": "UNDP - 1997"}}, {"type": "node", "id": 1404224553, "lat": 4.1302, "lon": 42.748001, "tags": {"name": "El Ghelda", "pcode": "NB-3813-W17-001", "place": "locality", "source": "UNDP - 1997"}}, {"type": "node", "id": 1404227193, "lat": 4.29686, "lon": 42.81444, "tags": {"name": "Harxoday", "pcode": "NB-3813-S18-001", "place": "village", "source": "UNDP - 2006"}}, {"type": "node", "id": 1404230071, "lat": 4.2173, "lon": 42.718201, "tags": {"name": "Goriale", "pcode": "NB-3813-U16-001", "place": "village", "source": "UNDP - 1997"}}, {"type": "node", "id": 1404230452, "lat": 4.2296, "lon": 42.921299, "tags": {"name": "Dhigleey", "pcode": "NB-3813-U21-002", "place": "hamlet", "source": "UNDP - 1997"}}, {"type": "node", "id": 1404233092, "lat": 4.26193, "lon": 42.91916, "tags": {"alt_name": "Durrei", "name": "Dhuurey", "pcode": "NB-3813-T21-001", "place": "hamlet", "source": "UNDP - 2006, UNDP - 1997"}}]}