{"version": 0.6, "generator": "Overpass API 0.7.62.1 084b4234", "osm3s": {"timestamp_osm_base": "2024-09-30T19:20:35Z", "copyright": "The data included in this document is from www.openstreetmap.org. The data is made available under ODbL."}, "elements": [{"type": "node", "id": 44915539, "lat": 1.3944978, "lon": 35.3379062, "tags": {"name": "Sebit", "place": "village"}}, {"type": "node", "id": 45003004, "lat": 1.316616, "lon": 35.2, "tags": {"alt_name": "Chepareria", "is_in": "West pokot,Kenya", "name": "Cheberia", "place": "village", "wikidata": "Q5088975"}}, {"type": "node", "id": 45003327, "lat": 1.5, "lon": 35.1666, "tags": {"is_in": "West pokot,Kenya", "name": "Chepunyal", "place": "village", "wikidata": "Q5091744"}}, {"type": "node", "id": 1839007847, "lat": 1.4600631, "lon": 35.2287985, "tags": {"name": "Chepkopegh", "place": "village"}}, {"type": "node", "id": 2556797484, "lat": 1.2116893, "lon": 35.1460553, "tags": {"name": "Kaibos", "place": "village"}}, {"type": "node", "id": 3070239541, "lat": 1.4955976, "lon": 35.4059787, "tags": {"place": "village"}}, {"type": "node", "id": 3070239548, "lat": 1.4379234, "lon": 35.357803, "tags": {"place": "village"}}, {"type": "node", "id": 3070243864, "lat": 1.2637093, "lon": 35.4192064, "tags": {"place": "village"}}, {"type": "node", "id": 5200378176, "lat": 1.2646995, "lon": 35.3648004, "tags": {"place": "village"}}]}