{"version": 0.6, "generator": "Overpass API 0.7.62.1 084b4234", "osm3s": {"timestamp_osm_base": "2024-09-30T20:12:02Z", "copyright": "The data included in this document is from www.openstreetmap.org. The data is made available under ODbL."}, "elements": [{"type": "node", "id": 348404524, "lat": 8.0006638, "lon": 47.0136256}, {"type": "node", "id": 1404224477, "lat": 8.474261, "lon": 47.355194, "tags": {"alt_name": "Las Anod;Laas Caanood;Laas Anood;Lasanod;Laas Aanood", "name": "Laascaanood \u0644\u0627\u0633 \u0639\u0627\u0646\u0648\u062f", "name:ar": "\u0644\u0627\u0633 \u0639\u0627\u0646\u0648\u062f", "name:de": "Las Anod", "name:en": "Las Anod", "name:es": "Las Anod", "name:fr": "Las Anod", "name:it": "Las Anod", "name:pt": "Las Anod", "name:ru": "\u041b\u0430\u0441-\u0410\u043d\u043e\u0434", "name:uk": "\u041b\u0430\u0441'\u0430\u043d\u043e\u0434", "pcode": "NC-3816-N19-001", "place": "town", "source": "GTZ - 2002, UNDP - 1997, FSAU", "wikidata": "Q1017223", "wikipedia": "ar:\u0644\u0627\u0633 \u0639\u0627\u0646\u0648\u062f"}}, {"type": "node", "id": 1404233128, "lat": 9.1460978, "lon": 48.4219373, "tags": {"name": "Taleex \u062a\u0644\u0623 \u062d", "name:ar": "\u062a\u0644\u0623 \u062d", "name:ca": "Taleex", "name:en": "Taleh", "name:fr": "Taleh", "name:it": "Taleh", "name:nl": "Taleh", "name:pl": "Taleex", "name:ro": "Taleex", "name:ru": "\u0422\u0430\u043b\u0435\u0445", "name:so": "Taleex", "name:sv": "Taleh", "name:ur": "\u062a\u0644\u0627\u062d", "name:zu": "Taleh", "pcode": "NC-3909-W10-001", "place": "town", "source": "UNDP - 2006, GTZ - 2002, UNDP - 1997", "wikidata": "Q1111521", "wikipedia": "so:Taleex"}}, {"type": "node", "id": 1404233332, "lat": 9.15477, "lon": 47.478248, "tags": {"alt_name": "Hudun", "name": "Xudun", "pcode": "NC-3812-W22-001", "place": "town", "source": "UNDP - 2006, GTZ - 2002, UNDP - 1997", "wikidata": "Q3388333"}}, {"type": "node", "id": 1406056924, "lat": 8.0, "lon": 47.9199982}, {"type": "node", "id": 1406056938, "lat": 8.0007395, "lon": 47.0118848}, {"type": "node", "id": 1406056943, "lat": 8.0200005, "lon": 47.9399986}, {"type": "node", "id": 1406056995, "lat": 8.21, "lon": 48.1300011}, {"type": "node", "id": 1406057141, "lat": 8.5600004, "lon": 47.0999985}, {"type": "node", "id": 1406057202, "lat": 8.75, "lon": 47.0}, {"type": "node", "id": 1406057203, "lat": 8.7600002, "lon": 46.9199982}, {"type": "node", "id": 1406057225, "lat": 8.7799997, "lon": 48.0400009}, {"type": "node", "id": 1406057226, "lat": 8.7799997, "lon": 48.5600014}, {"type": "node", "id": 1406057227, "lat": 8.7799997, "lon": 48.7299995}, {"type": "node", "id": 1406057242, "lat": 8.781579, "lon": 46.9199982}, {"type": "node", "id": 1406057246, "lat": 8.8199997, "lon": 46.9199982}, {"type": "node", "id": 1406057250, "lat": 8.8422422, "lon": 46.9196281}, {"type": "node", "id": 1406057339, "lat": 9.1395245, "lon": 49.0800591}, {"type": "node", "id": 1406057410, "lat": 9.4399991, "lon": 47.0700082}, {"type": "node", "id": 1406057411, "lat": 9.4418116, "lon": 47.0998993}, {"type": "node", "id": 1406057414, "lat": 9.4655085, "lon": 47.4908791}, {"type": "node", "id": 1406057438, "lat": 9.5, "lon": 48.0600014}, {"type": "node", "id": 1406057439, "lat": 9.5014782, "lon": 48.0784798}, {"type": "node", "id": 1406057446, "lat": 9.54, "lon": 48.5600014}, {"type": "node", "id": 1406057453, "lat": 9.5411053, "lon": 48.5784302}, {"type": "node", "id": 1406057457, "lat": 9.5699997, "lon": 49.0600014}, {"type": "node", "id": 9251392790, "lat": 8.4437907, "lon": 48.375996, "tags": {"name": "Nugaal-sool provisional  border"}}, {"type": "node", "id": 11900396207, "lat": 9.4399954, "lon": 47.0699268}, {"type": "node", "id": 11900396208, "lat": 9.430001, "lon": 46.9100066}, {"type": "node", "id": 11900396217, "lat": 9.4642122, "lon": 47.4694913}, {"type": "node", "id": 11900664306, "lat": 9.4642098, "lon": 47.4694709}, {"type": "way", "id": 126924865, "nodes": [1406056938, 348404524, 1406056924], "tags": {"admin_level": "2", "border_type": "nation", "boundary": "administrative", "left:country": "\u0627\u0644\u0635\u0648\u0645\u0627\u0644", "name": "Ethiopia - Jamhuuriyadda Soomaaliland", "name:ar": "\u0625\u062b\u064a\u0648\u0628\u064a\u0627 - \u062c\u0645\u0647\u0648\u0631\u064a\u0629 \u0635\u0648\u0645\u0627\u0644\u064a\u0644\u0627\u0646\u062f", "name:en": "Ethiopia - Republic of Somaliland", "name:fr": "\u00c9thiopie - Somaliland", "right:country": "Ethiopia", "right:state": "Somali", "source": "maplibrary.org"}}, {"type": "way", "id": 126925010, "nodes": [1406057453, 1406057457], "tags": {"admin_level": "4", "boundary": "administrative"}}, {"type": "way", "id": 126925018, "nodes": [1406057339, 1406057457], "tags": {"admin_level": "2", "boundary": "administrative", "name": "\u0627\u0644\u0635\u0648\u0645\u0627\u0644 - \u0635\u0648\u0645\u0627\u0644\u064a\u0644\u0627\u0646\u062f", "name:ar": "\u0627\u0644\u0635\u0648\u0645\u0627\u0644 - \u0635\u0648\u0645\u0627\u0644\u064a\u0644\u0627\u0646\u062f", "name:en": "Somalia - Republic of Somaliland", "name:so": "Soomaaliya - Jamhuuriyadda Soomaaliland"}}, {"type": "way", "id": 126925030, "nodes": [1406057227, 1406057226, 1406057225], "tags": {"admin_level": "6", "boundary": "administrative"}}, {"type": "way", "id": 126925037, "nodes": [11900396208, 1406057250], "tags": {"admin_level": "6", "boundary": "administrative"}}, {"type": "way", "id": 126925041, "nodes": [1406057225, 1406057439], "tags": {"admin_level": "6", "boundary": "administrative"}}, {"type": "way", "id": 126925086, "nodes": [1406057225, 1406057250], "tags": {"admin_level": "6", "boundary": "administrative"}}, {"type": "way", "id": 126925233, "nodes": [1406057250, 1406057246, 1406057242]}, {"type": "way", "id": 126925244, "nodes": [1406057439, 1406057446, 1406057453], "tags": {"admin_level": "4", "boundary": "administrative"}}, {"type": "way", "id": 126925250, "nodes": [11900396208, 11900396207, 1406057410, 1406057411], "tags": {"admin_level": "4", "boundary": "administrative"}}, {"type": "way", "id": 126925336, "nodes": [1406056995, 1406056943, 1406056924], "tags": {"admin_level": "2", "boundary": "administrative", "name": "Somalia - Somaliland"}}, {"type": "way", "id": 126925354, "nodes": [1406057411, 11900664306, 11900396217, 1406057414, 1406057438, 1406057439], "tags": {"admin_level": "4", "boundary": "administrative"}}, {"type": "way", "id": 126925499, "nodes": [1406057242, 1406057203, 1406057202, 1406057141, 1406056938], "tags": {"admin_level": "4", "boundary": "administrative"}}, {"type": "way", "id": 1002440399, "nodes": [1406057227, 9251392790, 1406056995], "tags": {"admin_level": "2", "boundary": "administrative", "name": "Somalia - Republic of Somaliland"}}, {"type": "way", "id": 1007453958, "nodes": [1406057227, 1406057339], "tags": {"admin_level": "2", "boundary": "administrative", "left:country": "Somaliland", "name": "Somalia - Republic of Somaliland", "right:country": "Somalia"}}, {"type": "relation", "id": 1720120, "members": [{"type": "node", "ref": 1404224477, "role": "admin_centre"}, {"type": "way", "ref": 126924865, "role": "outer"}, {"type": "way", "ref": 126925499, "role": "outer"}, {"type": "way", "ref": 126925233, "role": "outer"}, {"type": "way", "ref": 126925086, "role": "outer"}, {"type": "way", "ref": 126925030, "role": "outer"}, {"type": "way", "ref": 1002440399, "role": "outer"}, {"type": "way", "ref": 126925336, "role": "outer"}], "tags": {"admin_level": "6", "boundary": "administrative", "name": "Laas Caanood \u0644\u0627\u0633 \u0639\u0627\u0646\u0648\u062f", "name:ar": "\u0644\u0627\u0633 \u0639\u0627\u0646\u0648\u062f", "name:en": "Las Anod District", "name:fr": "Las Anod", "name:zh": "\u62c9\u65af\u963f\u8bfa\u5f97\u533a", "source": "UN OCHA COD", "type": "boundary", "wikidata": "Q6492047"}}, {"type": "relation", "id": 1720135, "members": [{"type": "way", "ref": 126925010, "role": "outer"}, {"type": "way", "ref": 126925018, "role": "outer"}, {"type": "way", "ref": 1007453958, "role": "outer"}, {"type": "way", "ref": 126925030, "role": "outer"}, {"type": "way", "ref": 126925041, "role": "outer"}, {"type": "way", "ref": 126925244, "role": "outer"}, {"type": "node", "ref": 1404233128, "role": "admin_centre"}], "tags": {"admin_level": "6", "boundary": "administrative", "name": "Taleex \u062a\u0644\u0623 \u062d", "name:ar": "\u062a\u0644\u0623 \u062d", "name:en": "Taleh District", "name:fr": "Taleh", "name:zh": "\u5854\u96f7\u8d6b\u533a", "source": "UN OCHA COD", "type": "boundary", "wikidata": "Q7679147"}}, {"type": "relation", "id": 1720140, "members": [{"type": "way", "ref": 126925037, "role": "outer"}, {"type": "way", "ref": 126925086, "role": "outer"}, {"type": "way", "ref": 126925041, "role": "outer"}, {"type": "way", "ref": 126925354, "role": "outer"}, {"type": "way", "ref": 126925250, "role": "outer"}, {"type": "node", "ref": 1404233332, "role": "admin_centre"}], "tags": {"admin_level": "6", "boundary": "administrative", "name": "Xudun", "name:en": "Xudun District", "name:fr": "Xudun", "source": "UN OCHA COD", "type": "boundary", "wikidata": "Q8045197"}}]}