{"version": 0.6, "generator": "Overpass API 0.7.62.1 084b4234", "osm3s": {"timestamp_osm_base": "2024-09-30T22:54:29Z", "copyright": "The data included in this document is from www.openstreetmap.org. The data is made available under ODbL."}, "elements": [{"type": "node", "id": 1150881112, "lat": 8.15, "lon": 41.43333, "tags": {"is_in:country": "Ethiopia", "is_in:country_code": "ET", "name": "Halo Dertu Bota", "place": "locality", "source": "GeoDatabase"}}, {"type": "node", "id": 1150882379, "lat": 7.93333, "lon": 41.53333, "tags": {"is_in:country": "Ethiopia", "is_in:country_code": "ET", "name": "Harkiso Shet'", "place": "locality", "source": "GeoDatabase"}}, {"type": "node", "id": 1150888713, "lat": 7.93333, "lon": 41.56666, "tags": {"is_in:country": "Ethiopia", "is_in:country_code": "ET", "name": "Turbasa", "place": "locality", "source": "GeoDatabase"}}, {"type": "node", "id": 1150890400, "lat": 8.01667, "lon": 41.2, "tags": {"is_in:country": "Ethiopia", "is_in:country_code": "ET", "name": "Sacche", "place": "locality", "source": "GeoDatabase"}}, {"type": "node", "id": 1150899066, "lat": 8.21667, "lon": 41.36667, "tags": {"is_in:country": "Ethiopia", "is_in:country_code": "ET", "name": "Fulensa", "place": "locality", "source": "GeoDatabase"}}, {"type": "node", "id": 1150916405, "lat": 7.96667, "lon": 41.53333, "tags": {"is_in:country": "Ethiopia", "is_in:country_code": "ET", "name": "Ramis", "place": "locality", "source": "GeoDatabase"}}, {"type": "node", "id": 1150919715, "lat": 8.03333, "lon": 41.23333, "tags": {"is_in:country": "Ethiopia", "is_in:country_code": "ET", "name": "Loko", "place": "locality", "source": "GeoDatabase"}}, {"type": "node", "id": 1150923323, "lat": 7.93333, "lon": 41.55, "tags": {"is_in:country": "Ethiopia", "is_in:country_code": "ET", "name": "Malca Milehi", "place": "locality", "source": "GeoDatabase"}}, {"type": "node", "id": 1150941330, "lat": 8.25, "lon": 41.46667, "tags": {"is_in:country": "Ethiopia", "is_in:country_code": "ET", "name": "Errer", "place": "locality", "source": "GeoDatabase"}}, {"type": "node", "id": 1150945716, "lat": 8.15, "lon": 41.3, "tags": {"is_in:country": "Ethiopia", "is_in:country_code": "ET", "name": "Fulensa Shet'", "place": "locality", "source": "GeoDatabase"}}, {"type": "node", "id": 1150950219, "lat": 7.93333, "lon": 41.51667, "tags": {"is_in:country": "Ethiopia", "is_in:country_code": "ET", "name": "Fik' Shet'", "place": "locality", "source": "GeoDatabase"}}, {"type": "node", "id": 1150961807, "lat": 8.06667, "lon": 41.3, "tags": {"is_in:country": "Ethiopia", "is_in:country_code": "ET", "name": "Manditu", "place": "locality", "source": "GeoDatabase"}}, {"type": "node", "id": 1150966779, "lat": 8.26667, "lon": 41.4, "tags": {"is_in:country": "Ethiopia", "is_in:country_code": "ET", "name": "Fulensa (2)", "place": "locality", "source": "GeoDatabase"}}, {"type": "node", "id": 1150967478, "lat": 8.06667, "lon": 41.45, "tags": {"is_in:country": "Ethiopia", "is_in:country_code": "ET", "name": "Fik' Mek'Abir", "place": "locality", "source": "GeoDatabase"}}, {"type": "node", "id": 1150977151, "lat": 8.21667, "lon": 41.43333, "tags": {"is_in:country": "Ethiopia", "is_in:country_code": "ET", "name": "Ramis", "place": "locality", "source": "GeoDatabase"}}, {"type": "node", "id": 1150981471, "lat": 8.13333, "lon": 41.2, "tags": {"is_in:country": "Ethiopia", "is_in:country_code": "ET", "name": "Darbo Intalo", "place": "locality", "source": "GeoDatabase"}}, {"type": "node", "id": 3141933542, "lat": 8.2721087, "lon": 41.2025817, "tags": {"place": "village"}}, {"type": "node", "id": 3141934447, "lat": 8.2282043, "lon": 41.3547054, "tags": {"place": "village"}}, {"type": "node", "id": 3143545659, "lat": 7.9480034, "lon": 41.2092345, "tags": {"place": "village"}}, {"type": "node", "id": 3143545847, "lat": 7.9615723, "lon": 41.1879383, "tags": {"place": "village"}}, {"type": "node", "id": 3143545856, "lat": 7.944635, "lon": 41.2212616, "tags": {"place": "village"}}, {"type": "node", "id": 3143545859, "lat": 7.9553882, "lon": 41.1908137, "tags": {"place": "village"}}, {"type": "node", "id": 3143546167, "lat": 7.9949347, "lon": 41.2037414, "tags": {"place": "village"}}, {"type": "node", "id": 3143546403, "lat": 8.0418073, "lon": 41.1972394, "tags": {"place": "village"}}]}