{"version": 0.6, "generator": "Overpass API 0.7.62.1 084b4234", "osm3s": {"timestamp_osm_base": "2024-09-30T22:27:05Z", "copyright": "The data included in this document is from www.openstreetmap.org. The data is made available under ODbL."}, "elements": [{"type": "node", "id": 1150697794, "lat": 6.25, "lon": 40.75, "tags": {"is_in:country": "Ethiopia", "is_in:country_code": "ET", "name": "Melka K'Uni", "place": "locality", "source": "GeoDatabase"}}, {"type": "node", "id": 1150884043, "lat": 6.31667, "lon": 40.75, "tags": {"is_in:country": "Ethiopia", "is_in:country_code": "ET", "name": "Malca Irba", "place": "locality", "source": "GeoDatabase"}}, {"type": "node", "id": 1150886880, "lat": 6.55, "lon": 40.71667, "tags": {"is_in:country": "Ethiopia", "is_in:country_code": "ET", "name": "Melka Dado", "place": "locality", "source": "GeoDatabase"}}, {"type": "node", "id": 1150887874, "lat": 6.18333, "lon": 40.81666, "tags": {"is_in:country": "Ethiopia", "is_in:country_code": "ET", "name": "Cara", "place": "locality", "source": "GeoDatabase"}}, {"type": "node", "id": 1150892006, "lat": 6.43333, "lon": 40.7, "tags": {"is_in:country": "Ethiopia", "is_in:country_code": "ET", "name": "Uabara", "place": "locality", "source": "GeoDatabase"}}, {"type": "node", "id": 1150901949, "lat": 6.2, "lon": 40.7, "tags": {"is_in:country": "Ethiopia", "is_in:country_code": "ET", "name": "Gunduma", "place": "locality", "source": "GeoDatabase"}}, {"type": "node", "id": 1150904279, "lat": 6.35, "lon": 40.8, "tags": {"is_in:country": "Ethiopia", "is_in:country_code": "ET", "name": "Uabara", "place": "locality", "source": "GeoDatabase"}}, {"type": "node", "id": 1150913392, "lat": 6.23333, "lon": 40.81666, "tags": {"is_in:country": "Ethiopia", "is_in:country_code": "ET", "name": "Irba", "place": "locality", "source": "GeoDatabase"}}, {"type": "node", "id": 1150921581, "lat": 6.38333, "lon": 40.78333, "tags": {"is_in:country": "Ethiopia", "is_in:country_code": "ET", "name": "Muddi Gallahe", "place": "locality", "source": "GeoDatabase"}}, {"type": "node", "id": 1150924224, "lat": 6.16667, "lon": 40.78333, "tags": {"is_in:country": "Ethiopia", "is_in:country_code": "ET", "name": "Sorgente Mana Burchita", "place": "locality", "source": "GeoDatabase"}}, {"type": "node", "id": 1150934812, "lat": 6.16667, "lon": 40.66667, "tags": {"is_in:country": "Ethiopia", "is_in:country_code": "ET", "name": "Arre", "place": "locality", "source": "GeoDatabase"}}, {"type": "node", "id": 1150944970, "lat": 6.4, "lon": 40.73333, "tags": {"is_in:country": "Ethiopia", "is_in:country_code": "ET", "name": "Malca Catta", "place": "locality", "source": "GeoDatabase"}}, {"type": "node", "id": 1150953865, "lat": 6.51667, "lon": 40.76667, "tags": {"is_in:country": "Ethiopia", "is_in:country_code": "ET", "name": "Malca Gugufto", "place": "locality", "source": "GeoDatabase"}}, {"type": "node", "id": 1150963495, "lat": 6.38333, "lon": 40.8, "tags": {"is_in:country": "Ethiopia", "is_in:country_code": "ET", "name": "Tullu Micire", "place": "locality", "source": "GeoDatabase"}}, {"type": "node", "id": 1987214105, "lat": 6.4505618, "lon": 40.7264999, "tags": {"place": "village"}}, {"type": "node", "id": 6852200694, "lat": 6.2489653, "lon": 40.8358001, "tags": {"name": "Khundi", "place": "town"}}]}