{"version": 0.6, "generator": "Overpass API 0.7.62.1 084b4234", "osm3s": {"timestamp_osm_base": "2024-09-30T23:50:56Z", "copyright": "The data included in this document is from www.openstreetmap.org. The data is made available under ODbL."}, "elements": [{"type": "node", "id": 1150883597, "lat": 7.05, "lon": 42.91667, "tags": {"is_in:country": "Ethiopia", "is_in:country_code": "ET", "name": "Maleico", "place": "locality", "source": "GeoDatabase"}}, {"type": "node", "id": 1150886634, "lat": 7.28333, "lon": 43.06666, "tags": {"is_in:country": "Ethiopia", "is_in:country_code": "ET", "name": "Carinta Chenleh", "place": "locality", "source": "GeoDatabase"}}, {"type": "node", "id": 1150890751, "lat": 7.11667, "lon": 43.01667, "tags": {"is_in:country": "Ethiopia", "is_in:country_code": "ET", "name": "Dovalle", "place": "locality", "source": "GeoDatabase"}}, {"type": "node", "id": 1150895994, "lat": 7.43333, "lon": 43.05, "tags": {"is_in:country": "Ethiopia", "is_in:country_code": "ET", "name": "Dudamori", "place": "locality", "source": "GeoDatabase"}}, {"type": "node", "id": 1150897900, "lat": 7.2, "lon": 42.9, "tags": {"is_in:country": "Ethiopia", "is_in:country_code": "ET", "name": "Durhi", "place": "locality", "source": "GeoDatabase"}}, {"type": "node", "id": 1150900033, "lat": 7.11667, "lon": 42.76667, "tags": {"is_in:country": "Ethiopia", "is_in:country_code": "ET", "name": "Tucub Wells", "place": "locality", "source": "GeoDatabase"}}, {"type": "node", "id": 1150902462, "lat": 7.08333, "lon": 42.96667, "tags": {"is_in:country": "Ethiopia", "is_in:country_code": "ET", "name": "Anamaleh", "place": "locality", "source": "GeoDatabase"}}, {"type": "node", "id": 1150929019, "lat": 7.25, "lon": 42.86667, "tags": {"is_in:country": "Ethiopia", "is_in:country_code": "ET", "name": "El Fud", "place": "locality", "source": "GeoDatabase"}}, {"type": "node", "id": 1150935202, "lat": 7.4, "lon": 42.93333, "tags": {"is_in:country": "Ethiopia", "is_in:country_code": "ET", "name": "Gorghis", "place": "locality", "source": "GeoDatabase"}}, {"type": "node", "id": 1150941341, "lat": 7.13333, "lon": 42.86667, "tags": {"is_in:country": "Ethiopia", "is_in:country_code": "ET", "name": "Halloua", "place": "locality", "source": "GeoDatabase"}}, {"type": "node", "id": 1150956019, "lat": 7.05, "lon": 42.85, "tags": {"is_in:country": "Ethiopia", "is_in:country_code": "ET", "name": "Bulbollod", "place": "locality", "source": "GeoDatabase"}}, {"type": "node", "id": 1150973188, "lat": 7.11667, "lon": 42.93333, "tags": {"is_in:country": "Ethiopia", "is_in:country_code": "ET", "name": "Hagal", "place": "locality", "source": "GeoDatabase"}}, {"type": "node", "id": 1150981640, "lat": 7.35, "lon": 42.76667, "tags": {"is_in:country": "Ethiopia", "is_in:country_code": "ET", "name": "Fidadedih", "place": "locality", "source": "GeoDatabase"}}, {"type": "node", "id": 1151003478, "lat": 7.16667, "lon": 42.88333, "tags": {"is_in:country": "Ethiopia", "is_in:country_code": "ET", "name": "Gabadilli", "place": "locality", "source": "GeoDatabase"}}, {"type": "node", "id": 8463783781, "lat": 7.3916307, "lon": 43.0939971, "tags": {"place": "hamlet"}}, {"type": "node", "id": 8463783790, "lat": 7.3932445, "lon": 43.0876378, "tags": {"place": "hamlet"}}, {"type": "node", "id": 8463783800, "lat": 7.3929053, "lon": 43.0887893, "tags": {"place": "hamlet"}}, {"type": "node", "id": 8463783808, "lat": 7.3944051, "lon": 43.0898731, "tags": {"place": "hamlet"}}, {"type": "node", "id": 8463784191, "lat": 7.4430325, "lon": 43.0168618, "tags": {"place": "hamlet"}}, {"type": "node", "id": 8467950644, "lat": 7.3063393, "lon": 42.8550605, "tags": {"place": "hamlet"}}, {"type": "node", "id": 8467951163, "lat": 7.350585, "lon": 42.8392959, "tags": {"abandoned:place": "ca 6m radius around Dihun", "place": "hamlet"}}, {"type": "node", "id": 8467951555, "lat": 7.3318457, "lon": 42.9006791, "tags": {"place": "isolated_dwelling"}}, {"type": "node", "id": 8467951604, "lat": 7.3222092, "lon": 42.9002421, "tags": {"place": "hamlet"}}, {"type": "node", "id": 8467951670, "lat": 7.334693, "lon": 42.9159801, "tags": {"place": "hamlet"}}, {"type": "node", "id": 8467951756, "lat": 7.3266036, "lon": 42.8927017, "tags": {"place": "hamlet"}}, {"type": "node", "id": 8467951785, "lat": 7.2923114, "lon": 42.8973415, "tags": {"place": "village"}}, {"type": "node", "id": 8467951927, "lat": 7.3699987, "lon": 42.8866078, "tags": {"place": "hamlet"}}, {"type": "node", "id": 8467952059, "lat": 7.3296758, "lon": 42.935346, "tags": {"place": "hamlet"}}, {"type": "node", "id": 8467952071, "lat": 7.3361912, "lon": 42.9280439, "tags": {"place": "hamlet"}}]}