{"version": 0.6, "generator": "Overpass API 0.7.62.1 084b4234", "osm3s": {"timestamp_osm_base": "2024-09-30T21:10:24Z", "copyright": "The data included in this document is from www.openstreetmap.org. The data is made available under ODbL."}, "elements": [{"type": "node", "id": 1404221517, "lat": 2.45029, "lon": 43.48165, "tags": {"name": "Raydabti", "pcode": "NA-3805-P33-002", "place": "hamlet", "source": "UNDP - 2006"}}, {"type": "node", "id": 1404221870, "lat": 2.44082, "lon": 43.54473, "tags": {"name": "Kuunyo-Burow", "pcode": "NA-3806-P01-003", "place": "hamlet", "source": "UNDP - 2006"}}, {"type": "node", "id": 1404222103, "lat": 2.54523, "lon": 43.40711, "tags": {"name": "Ceel-Goof", "pcode": "NA-3805-L31-001", "place": "village", "source": "UNDP - 2006"}}, {"type": "node", "id": 1404222227, "lat": 2.42576, "lon": 43.56241, "tags": {"name": "Adaanow", "pcode": "NA-3806-P02-001", "place": "village", "source": "UNDP - 2006"}}, {"type": "node", "id": 1404222349, "lat": 2.4240899, "lon": 43.7682546, "tags": {"name": "Buraaga", "pcode": "NA-3806-P06-001", "place": "village", "source": "UNDP - 2006"}}, {"type": "node", "id": 1404223062, "lat": 2.43241, "lon": 43.55571, "tags": {"name": "Diribquuy", "pcode": "NA-3806-P02-002", "place": "village", "source": "UNDP - 2006"}}, {"type": "node", "id": 1404223182, "lat": 2.7962008, "lon": 43.7718993, "tags": {"name": "Dereboshile", "pcode": "NA-3806-E06-001", "place": "hamlet", "source": "UNDP - 1997"}}, {"type": "node", "id": 1404223460, "lat": 2.66794, "lon": 43.6509, "tags": {"alt_name": "Irwarka", "name": "Buulo Jadiid", "pcode": "NA-3806-H04-001", "place": "village", "source": "UNDP - 2006, UNDP - 1997"}}, {"type": "node", "id": 1404223477, "lat": 2.74997, "lon": 43.43617, "tags": {"name": "Dharqo", "pcode": "NA-3805-G32-001", "place": "village", "source": "FSAU"}}, {"type": "node", "id": 1404223810, "lat": 2.68627, "lon": 43.64973, "tags": {"name": "Buulo Agoon", "pcode": "NA-3806-H04-002", "place": "village", "source": "UNDP - 2006"}}, {"type": "node", "id": 1404224077, "lat": 2.6887182, "lon": 43.6513151, "tags": {"name": "Dafaad", "pcode": "NA-3806-H04-003", "place": "village", "source": "UNDP - 2006"}}, {"type": "node", "id": 1404224119, "lat": 2.46061, "lon": 43.47572, "tags": {"name": "Hareegoli", "pcode": "NA-3805-N33-001", "place": "village", "source": "UNDP - 2006"}}, {"type": "node", "id": 1404224984, "lat": 2.4261444, "lon": 43.7627899, "tags": {"name": "Miskoron", "pcode": "NA-3806-P06-002", "place": "village", "source": "UNDP - 2006"}}, {"type": "node", "id": 1404225332, "lat": 2.827469, "lon": 43.4406397, "tags": {"name": "Lulaaye", "pcode": "NA-3805-E32-001", "place": "village", "source": "FSAU"}}, {"type": "node", "id": 1404225586, "lat": 2.43013, "lon": 43.52361, "tags": {"name": "Mitaanti", "pcode": "NA-3806-P01-001", "place": "village", "source": "UNDP - 2006"}}, {"type": "node", "id": 1404225741, "lat": 2.8374486, "lon": 43.3797368, "tags": {"name": "Sabiyo", "pcode": "NA-3805-D31-001", "place": "village", "source": "UNDP - 1997"}}, {"type": "node", "id": 1404226035, "lat": 2.45097, "lon": 43.50581, "tags": {"name": "Hareeri-Wajeer", "pcode": "NA-3806-P01-005", "place": "hamlet", "source": "UNDP - 2006"}}, {"type": "node", "id": 1404226476, "lat": 2.57154, "lon": 43.46253, "tags": {"name": "Barkatle", "pcode": "NA-3805-L33-003", "place": "village", "source": "UNDP - 2006"}}, {"type": "node", "id": 1404227274, "lat": 2.5717, "lon": 43.400799, "tags": {"name": "Turgodut", "pcode": "NA-3805-L31-003", "place": "village", "source": "UNDP - 1997"}}, {"type": "node", "id": 1404228401, "lat": 2.4470812, "lon": 43.761785, "tags": {"name": "Cali Saboy", "pcode": "NA-3806-P06-003", "place": "village", "source": "UNDP - 2006"}}, {"type": "node", "id": 1404228417, "lat": 2.728745, "lon": 43.63409, "tags": {"name": "Jamacadda", "pcode": "NA-3806-G03-003", "place": "hamlet", "source": "UNDP - 2006"}}, {"type": "node", "id": 1404228516, "lat": 2.69481, "lon": 43.628479, "tags": {"name": "Dhafaad Fuurka", "pcode": "NA-3806-H03-002", "place": "village", "source": "UNDP - 1997"}}, {"type": "node", "id": 1404229135, "lat": 2.68753, "lon": 43.63017, "tags": {"name": "Fuurka", "pcode": "NA-3806-H03-001", "place": "village", "source": "UNDP - 2006"}}, {"type": "node", "id": 1404229832, "lat": 2.55291, "lon": 43.46405, "tags": {"name": "Aasho", "pcode": "NA-3805-L33-001", "place": "village", "source": "UNDP - 2006"}}, {"type": "node", "id": 1404230172, "lat": 2.44244, "lon": 43.5236, "tags": {"name": "Kuunyo-Harubow", "pcode": "NA-3806-P01-004", "place": "hamlet", "source": "UNDP - 2006"}}, {"type": "node", "id": 1404230367, "lat": 2.44501, "lon": 43.49424, "tags": {"name": "Duukaanki", "pcode": "NA-3805-P33-001", "place": "hamlet", "source": "UNDP - 2006"}}, {"type": "node", "id": 1404230407, "lat": 2.55713, "lon": 43.40254, "tags": {"name": "Ulbaanti", "pcode": "NA-3805-L31-002", "place": "village", "source": "UNDP - 2006"}}, {"type": "node", "id": 1404230482, "lat": 2.71382, "lon": 43.62031, "tags": {"alt_name": "Lowiga", "name": "Lowiiqa", "pcode": "NA-3806-G03-001", "place": "hamlet", "source": "UNDP - 2006, UNDP - 1997"}}, {"type": "node", "id": 1404230975, "lat": 2.46193, "lon": 43.77525, "tags": {"alt_name": "Ceel Bisiq Cadde", "name": "Bisig Adde", "pcode": "NA-3806-N07-001", "place": "village", "source": "UNDP - 2006, UNDP - 1997, FSAU"}}, {"type": "node", "id": 1404231318, "lat": 2.46095, "lon": 43.47368, "tags": {"name": "Showka", "pcode": "NA-3805-N33-002", "place": "village", "source": "UNDP - 2006"}}, {"type": "node", "id": 1404231520, "lat": 2.57748, "lon": 43.45392, "tags": {"name": "Gember", "pcode": "NA-3805-L32-002", "place": "village", "source": "UNDP - 2006"}}, {"type": "node", "id": 1404231613, "lat": 2.7773569, "lon": 43.4403588, "tags": {"name": "Warmod", "pcode": "NA-3805-F32-001", "place": "hamlet", "source": "FSAU"}}, {"type": "node", "id": 1404231736, "lat": 2.543, "lon": 43.42546, "tags": {"name": "Kuunyomegentole", "pcode": "NA-3805-L32-001", "place": "village", "source": "UNDP - 2006"}}, {"type": "node", "id": 1404231913, "lat": 2.692576, "lon": 43.7074686, "tags": {"name": "Mansuur", "pcode": "NA-3806-H05-001", "place": "village", "source": "UNDP - 1997"}}, {"type": "node", "id": 1404232257, "lat": 2.56746, "lon": 43.4588, "tags": {"name": "Wiriggi", "pcode": "NA-3805-L33-002", "place": "village", "source": "UNDP - 2006"}}, {"type": "node", "id": 1404233127, "lat": 2.41553, "lon": 43.742661, "tags": {"name": "War Aaw Kheero", "pcode": "NA-3806-Q06-001", "place": "village", "source": "UNDP - 1997"}}, {"type": "node", "id": 1404233145, "lat": 2.726945, "lon": 43.63425, "tags": {"alt_name": "Baas Ma Lah", "name": "Basmala", "pcode": "NA-3806-G03-002", "place": "hamlet", "source": "UNDP - 2006, UNDP - 1997"}}, {"type": "node", "id": 1404233470, "lat": 2.44037, "lon": 43.51245, "tags": {"name": "Garasgod (Main Village)", "pcode": "NA-3806-P01-002", "place": "village", "source": "UNDP - 2006"}}, {"type": "node", "id": 1404233625, "lat": 2.58599, "lon": 43.44886, "tags": {"name": "Deg-Jinay", "pcode": "NA-3805-K32-002", "place": "village", "source": "UNDP - 2006"}}, {"type": "node", "id": 1404233637, "lat": 2.7695, "lon": 43.7771, "tags": {"name": "Abac Gurei", "pcode": "NA-3806-F07-004", "place": "locality", "source": "UNDP - 1997"}}, {"type": "node", "id": 1404233953, "lat": 2.58548, "lon": 43.45379, "tags": {"name": "Gaal-Midoowle", "pcode": "NA-3805-K32-001", "place": "village", "source": "UNDP - 2006"}}, {"type": "node", "id": 2208333091, "lat": 2.6366011, "lon": 43.6293816, "tags": {"alt_name": "Baay", "name": "\u0628\u0627\u064a Bay", "name:ar": "\u0628\u0627\u064a", "name:en": "Bay", "name:fr": "Bay", "name:hu": "Bay", "name:ko": "\ubc14\uc774", "place": "region", "wikidata": "Q812064", "wikipedia": "ar:\u0628\u0627\u064a (\u0627\u0644\u0635\u0648\u0645\u0627\u0644)"}}, {"type": "node", "id": 6008712862, "lat": 2.6981069, "lon": 43.6582676, "tags": {"alt_name": "Isgoy", "name": "Isgooy", "pcode": "NA-3806-H04-004", "place": "village", "source": "UNDP - 2006, UNDP - 1997"}}, {"type": "node", "id": 6127903047, "lat": 2.7963905, "lon": 43.7623396, "tags": {"place": "hamlet", "source:ref": "UNSOA field mission and SPOT5 images data capture"}}, {"type": "node", "id": 6127903048, "lat": 2.8136614, "lon": 43.7681567, "tags": {"place": "isolated_dwelling", "source:ref": "UNSOA field mission and SPOT5 images data capture"}}, {"type": "node", "id": 6127903051, "lat": 2.7822158, "lon": 43.7638859, "tags": {"place": "isolated_dwelling", "source:ref": "UNSOA field mission and SPOT5 images data capture"}}, {"type": "node", "id": 6183742579, "lat": 2.7614664, "lon": 43.5856888, "tags": {"place": "isolated_dwelling", "source": "UNSOA field mission", "source:date": "2008-03-03"}}, {"type": "node", "id": 6286397448, "lat": 2.61681, "lon": 43.75687, "tags": {"name": "Bur Samhamdu", "place": "locality", "source": "UNSOA III: E043N02_08, SPOT5 image based data capture using different Ancillary Sources coming from UNSOA field mission", "source:date": "2007-02-17"}}, {"type": "node", "id": 7701440562, "lat": 2.7034676, "lon": 43.7565225, "tags": {"alt_name": "Farale", "name": "Farraale", "place": "hamlet", "source": "UNSOA III: E043N02_08, SPOT5 image based data capture using different Ancillary Sources coming from UNSOA field mission", "source:date": "2007-02-17"}}, {"type": "node", "id": 7719145632, "lat": 2.8378285, "lon": 43.5097781, "tags": {"place": "hamlet"}}, {"type": "node", "id": 7733387875, "lat": 2.8035914, "lon": 43.7665325, "tags": {"place": "isolated_dwelling"}}, {"type": "node", "id": 7733387876, "lat": 2.808703, "lon": 43.7721544, "tags": {"place": "isolated_dwelling"}}, {"type": "node", "id": 7733387877, "lat": 2.8127482, "lon": 43.7681633, "tags": {"place": "hamlet"}}, {"type": "node", "id": 9890497381, "lat": 2.7739796, "lon": 43.4445757, "tags": {"place": "hamlet"}}, {"type": "node", "id": 9901829879, "lat": 2.7773365, "lon": 43.4379869, "tags": {"place": "hamlet"}}]}