{"version": 0.6, "generator": "Overpass API 0.7.62.1 084b4234", "osm3s": {"timestamp_osm_base": "2024-09-30T21:10:24Z", "copyright": "The data included in this document is from www.openstreetmap.org. The data is made available under ODbL."}, "elements": [{"type": "node", "id": 1404221678, "lat": 3.1694, "lon": 44.872101, "tags": {"name": "Belhan Humei", "pcode": "NA-3802-V31-001", "place": "village", "source": "UNDP - 1997"}}, {"type": "node", "id": 1404222626, "lat": 3.2307, "lon": 44.770901, "tags": {"name": "Ceel Adde", "pcode": "NA-3802-U28-001", "place": "village", "source": "UNDP - 1997"}}, {"type": "node", "id": 1404223329, "lat": 3.12222, "lon": 44.76507, "tags": {"name": "Gobanle", "pcode": "NA-3802-X28-001", "place": "village", "source": "UNDP - 2006"}}, {"type": "node", "id": 1404223884, "lat": 3.16663, "lon": 44.811508, "tags": {"name": "Afar Daar", "pcode": "NA-3802-W29-001", "place": "village", "source": "UNDP - 1997"}}, {"type": "node", "id": 1404225300, "lat": 3.0783, "lon": 44.9007, "tags": {"name": "Deb Arar", "pcode": "NA-3802-Y31-001", "place": "village", "source": "UNDP - 1997"}}, {"type": "node", "id": 1404226951, "lat": 3.0278, "lon": 44.917099, "tags": {"name": "Deb Scinnele", "pcode": "NA-3802-Z32-001", "place": "village", "source": "UNDP - 1997"}}, {"type": "node", "id": 1404230762, "lat": 3.1707, "lon": 44.7784, "tags": {"name": "Dudufodlei", "pcode": "NA-3802-V29-001", "place": "village", "source": "UNDP - 1997"}}, {"type": "node", "id": 1404231421, "lat": 3.01967, "lon": 44.669109, "tags": {"name": "Laqaadi Waay", "pcode": "NA-3802-Z26-001", "place": "village", "source": "UNDP - 1997"}}]}