{"version": 0.6, "generator": "Overpass API 0.7.62.1 084b4234", "osm3s": {"timestamp_osm_base": "2024-09-30T23:46:51Z", "copyright": "The data included in this document is from www.openstreetmap.org. The data is made available under ODbL."}, "elements": [{"type": "node", "id": 1150883660, "lat": 5.38333, "lon": 39.96667, "tags": {"is_in:country": "Ethiopia", "is_in:country_code": "ET", "name": "Abarra", "place": "locality", "source": "GeoDatabase"}}, {"type": "node", "id": 1150886508, "lat": 5.45, "lon": 40.28333, "tags": {"is_in:country": "Ethiopia", "is_in:country_code": "ET", "name": "Cascata Dal Verme", "place": "locality", "source": "GeoDatabase"}}, {"type": "node", "id": 1150901713, "lat": 5.46667, "lon": 40.2, "tags": {"is_in:country": "Ethiopia", "is_in:country_code": "ET", "name": "Baratieri Falls", "place": "locality", "source": "GeoDatabase"}}, {"type": "node", "id": 2291820695, "lat": 5.3386742, "lon": 40.0613765, "tags": {"place": "hamlet"}}, {"type": "node", "id": 2291820847, "lat": 5.3785387, "lon": 40.0635545, "tags": {"place": "hamlet"}}, {"type": "node", "id": 3171100472, "lat": 5.3712623, "lon": 40.2957047, "tags": {"place": "hamlet"}}, {"type": "node", "id": 3171100478, "lat": 5.4073928, "lon": 40.0430349, "tags": {"place": "hamlet"}}]}