{"version": 0.6, "generator": "Overpass API 0.7.62.1 084b4234", "osm3s": {"timestamp_osm_base": "2024-09-30T17:17:26Z", "copyright": "The data included in this document is from www.openstreetmap.org. The data is made available under ODbL."}, "elements": [{"type": "node", "id": 44910490, "lat": -0.55, "lon": 34.7333, "tags": {"name": "Wasis", "place": "village"}}, {"type": "node", "id": 44915200, "lat": -0.3889862, "lon": 35.011536, "tags": {"name": "Sondu", "place": "town", "wikidata": "Q7560913", "wikipedia": "en:Sondu"}}, {"type": "node", "id": 44922929, "lat": -0.509908, "lon": 34.734576, "tags": {"name": "Oyugis", "place": "town", "wikidata": "Q583989", "wikipedia": "en:Oyugis"}}, {"type": "node", "id": 44929547, "lat": -0.4833, "lon": 35.0166, "tags": {"created_by": "JOSM", "is_in": "Nyamira,Kenya", "name": "Maragwa", "place": "village"}}, {"type": "node", "id": 44929639, "lat": -0.4833, "lon": 35.0166, "tags": {"created_by": "JOSM", "is_in": "Nyamira,Kenya", "name": "Maraagwa", "place": "village"}}, {"type": "node", "id": 44930127, "lat": -0.4833, "lon": 35.0166, "tags": {"is_in": "Nyamira,Kenya", "name": "Magwagwa", "place": "village", "wikidata": "Q6732558"}}, {"type": "node", "id": 44999203, "lat": -0.5333, "lon": 35.0166, "tags": {"is_in": "Nyamira,Kenya", "name": "Ikonge", "place": "village", "wikidata": "Q5996143"}}, {"type": "node", "id": 44999876, "lat": -0.447052, "lon": 34.890148, "tags": {"is_in": "Homa_bay,Kenya", "name": "Kadongo", "place": "village"}}, {"type": "node", "id": 45001764, "lat": -0.5666, "lon": 34.7333, "tags": {"created_by": "JOSM", "is_in": "Homa_bay,Kenya", "name": "Gors", "place": "village"}}, {"type": "node", "id": 45005211, "lat": -0.3333, "lon": 35.0, "tags": {"name": "Assawa", "place": "neighbourhood", "wikidata": "Q4808613"}}, {"type": "node", "id": 45005839, "lat": -0.5166, "lon": 34.7, "tags": {"name": "Andiwo's Village", "place": "village", "wikidata": "Q4754507"}}, {"type": "node", "id": 45006094, "lat": -0.5166, "lon": 34.8833, "tags": {"is_in": "Nyamira,Kenya", "name": "Bonyunyu", "place": "village", "wikidata": "Q4942704"}}, {"type": "node", "id": 45006163, "lat": -0.5333, "lon": 34.8666, "tags": {"alt_name": "Bumburia", "is_in": "Kisii,Kenya", "name": "Bomburia", "place": "village", "wikidata": "Q4997268"}}, {"type": "node", "id": 45006401, "lat": -0.5166, "lon": 34.8833, "tags": {"created_by": "JOSM", "is_in": "Nyamira,Kenya", "name": "Bunyunya", "place": "village"}}, {"type": "node", "id": 1180528044, "lat": -0.3110226, "lon": 34.9353592, "tags": {"name": "Pap Onditi", "place": "town"}}, {"type": "node", "id": 2520905813, "lat": -0.428287, "lon": 34.6904494, "tags": {"name": "Kosele", "place": "town", "population": "5000"}}, {"type": "node", "id": 2657523529, "lat": -0.4704116, "lon": 34.8537105, "tags": {"name": "Ringa", "place": "village"}}, {"type": "node", "id": 2868220641, "lat": -0.4999505, "lon": 34.8807393, "tags": {"name": "Miruka", "place": "village"}}, {"type": "node", "id": 4397068788, "lat": -0.3544195, "lon": 34.687255}, {"type": "node", "id": 4397068789, "lat": -0.3558035, "lon": 34.6788972}, {"type": "node", "id": 4397068848, "lat": -0.3590972, "lon": 34.6788758}, {"type": "node", "id": 4397068849, "lat": -0.3592903, "lon": 34.6870619}, {"type": "node", "id": 4397072848, "lat": -0.353413, "lon": 34.7035602}, {"type": "node", "id": 4397072849, "lat": -0.354797, "lon": 34.7090426}, {"type": "node", "id": 4397072850, "lat": -0.3577045, "lon": 34.7029164}, {"type": "node", "id": 4397072851, "lat": -0.3590241, "lon": 34.7068217}, {"type": "node", "id": 4397091106, "lat": -0.355546, "lon": 34.7121781}, {"type": "node", "id": 4397091107, "lat": -0.355782, "lon": 34.7093457}, {"type": "node", "id": 4397091108, "lat": -0.3571124, "lon": 34.7155899}, {"type": "node", "id": 4397091336, "lat": -0.3589255, "lon": 34.7090882}, {"type": "node", "id": 4397091337, "lat": -0.3600842, "lon": 34.7151715}, {"type": "node", "id": 4397091338, "lat": -0.360567, "lon": 34.7098178}, {"type": "node", "id": 4397091339, "lat": -0.3607923, "lon": 34.7136265}, {"type": "node", "id": 4695127785, "lat": -0.3555632, "lon": 34.7119712}, {"type": "node", "id": 4870252485, "lat": -0.566595, "lon": 34.9357117, "tags": {"name": "Nyamira", "place": "town", "population": "10000"}}, {"type": "node", "id": 5107217560, "lat": -0.3272674, "lon": 34.8527612, "tags": {"name": "Kolweny", "place": "village"}}, {"type": "node", "id": 5609542757, "lat": -0.3626074, "lon": 34.66183, "tags": {"name": "Mabati Sita", "place": "locality"}}, {"type": "node", "id": 6610109334, "lat": -0.3567762, "lon": 34.7080027}, {"type": "node", "id": 7437130535, "lat": -0.3030162, "lon": 34.7884803, "tags": {"name": "Obange", "place": "hamlet"}}, {"type": "node", "id": 7437135930, "lat": -0.3110949, "lon": 34.777612, "tags": {"name": "Nyadina", "place": "hamlet"}}, {"type": "node", "id": 7437136165, "lat": -0.3315282, "lon": 34.8179066, "tags": {"name": "Sango Buru", "place": "hamlet"}}, {"type": "node", "id": 7437148491, "lat": -0.3014565, "lon": 34.7941668, "tags": {"name": "Sango Rota", "place": "hamlet"}}, {"type": "node", "id": 7437151118, "lat": -0.3476582, "lon": 34.7851785}, {"type": "node", "id": 7437151119, "lat": -0.3474222, "lon": 34.7868522}, {"type": "node", "id": 7437151120, "lat": -0.3467999, "lon": 34.7881504}, {"type": "node", "id": 7437151121, "lat": -0.3458021, "lon": 34.7894808}, {"type": "node", "id": 7437151122, "lat": -0.3461025, "lon": 34.7905858}, {"type": "node", "id": 7437151123, "lat": -0.3465424, "lon": 34.7911116}, {"type": "node", "id": 7437151124, "lat": -0.3471003, "lon": 34.7910794}, {"type": "node", "id": 7437151125, "lat": -0.3486452, "lon": 34.7911759}, {"type": "node", "id": 7437151126, "lat": -0.3492353, "lon": 34.7913476}, {"type": "node", "id": 7437151127, "lat": -0.3497074, "lon": 34.79153}, {"type": "node", "id": 7437151128, "lat": -0.3505227, "lon": 34.7905751}, {"type": "node", "id": 7437151129, "lat": -0.3523788, "lon": 34.7897168}, {"type": "node", "id": 7437151130, "lat": -0.3525934, "lon": 34.7887512}, {"type": "node", "id": 7437151131, "lat": -0.3527328, "lon": 34.78682}, {"type": "node", "id": 7437151132, "lat": -0.3502974, "lon": 34.7855111}, {"type": "node", "id": 7437151133, "lat": -0.3486989, "lon": 34.7852643}, {"type": "node", "id": 7437153356, "lat": -0.3307927, "lon": 34.7710755, "tags": {"name": "Osodo", "place": "hamlet"}}, {"type": "node", "id": 7437166490, "lat": -0.3510484, "lon": 34.7663762, "tags": {"name": "Kobala", "place": "hamlet"}}, {"type": "node", "id": 8226300477, "lat": -0.5828457, "lon": 34.9387453}, {"type": "node", "id": 8226300478, "lat": -0.5401899, "lon": 34.9208067}, {"type": "node", "id": 8226300479, "lat": -0.5592434, "lon": 34.9420927}, {"type": "node", "id": 8226300480, "lat": -0.5546088, "lon": 34.9169443}, {"type": "node", "id": 8226300481, "lat": -0.5710875, "lon": 34.9225233}, {"type": "node", "id": 8226300482, "lat": -0.5855063, "lon": 34.9334238}, {"type": "node", "id": 8226300483, "lat": -0.5702292, "lon": 34.9428652}, {"type": "node", "id": 8226300484, "lat": -0.5440521, "lon": 34.915056}, {"type": "node", "id": 8226300485, "lat": -0.5794126, "lon": 34.9276731}, {"type": "node", "id": 8226300486, "lat": -0.5489442, "lon": 34.936857}, {"type": "node", "id": 8226300487, "lat": -0.5418206, "lon": 34.926729}, {"type": "node", "id": 8604419666, "lat": -0.561805, "lon": 34.9422728}, {"type": "node", "id": 8604419685, "lat": -0.5600709, "lon": 34.9421509}, {"type": "node", "id": 8604419690, "lat": -0.5613276, "lon": 34.9422393}, {"type": "node", "id": 8988367510, "lat": -0.3350997, "lon": 34.825304, "tags": {"fixme": "Exact outline unknown.", "name": "Kong'ou", "place": "village"}}, {"type": "node", "id": 9002149058, "lat": -0.3285117, "lon": 34.9027993, "tags": {"name": "Ragen", "place": "village"}}, {"type": "node", "id": 9007609900, "lat": -0.3652685, "lon": 34.9001936, "tags": {"name": "West Kadiang'a", "place": "neighbourhood"}}, {"type": "node", "id": 9201459478, "lat": -0.5753046, "lon": 34.7400158, "tags": {"name": "Nyamondo", "place": "village"}}, {"type": "node", "id": 9201459480, "lat": -0.5732817, "lon": 34.7617023, "tags": {"name": "Gesieka", "place": "village"}}, {"type": "node", "id": 9201459481, "lat": -0.5759242, "lon": 34.7355965, "tags": {"name": "Roga", "place": "village"}}, {"type": "node", "id": 9204890834, "lat": -0.5660741, "lon": 34.7418473, "tags": {"name": "Roga", "place": "village"}}, {"type": "node", "id": 9213049367, "lat": -0.5489299, "lon": 34.8438698, "tags": {"admin_type:KE": "locality", "name": "Kegogi", "place": "village"}}, {"type": "node", "id": 9213049860, "lat": -0.5544199, "lon": 34.7826235, "tags": {"name": "Kiomoncha", "place": "village"}}, {"type": "node", "id": 9213050882, "lat": -0.5450345, "lon": 34.7022374, "tags": {"name": "Nyangiela", "place": "village"}}, {"type": "node", "id": 9215243877, "lat": -0.51522, "lon": 34.8621349, "tags": {"name": "Nyakeyo", "place": "village"}}, {"type": "node", "id": 9215243878, "lat": -0.5676778, "lon": 34.8434188, "tags": {"name": "Entanda", "place": "village"}}, {"type": "node", "id": 9215243882, "lat": -0.4663432, "lon": 34.7044152, "tags": {"name": "Kiwiro", "place": "village"}}, {"type": "node", "id": 9215243885, "lat": -0.3954705, "lon": 34.6606474, "tags": {"name": "Gendia", "place": "village"}}, {"type": "node", "id": 9215245983, "lat": -0.5414535, "lon": 34.7903414, "tags": {"name": "Rioma", "place": "village"}}, {"type": "node", "id": 9215245984, "lat": -0.5348564, "lon": 34.7938222, "tags": {"name": "Gamba", "place": "village"}}, {"type": "node", "id": 9217449859, "lat": -0.4234439, "lon": 35.0030976, "tags": {"name": "Chabera", "place": "village"}}, {"type": "node", "id": 9217449860, "lat": -0.457049, "lon": 34.9725359, "tags": {"name": "Kiomara", "place": "village"}}, {"type": "node", "id": 9217469541, "lat": -0.481697, "lon": 34.9713422, "tags": {"name": "Nyamuse", "place": "village"}}, {"type": "node", "id": 9217469542, "lat": -0.4826082, "lon": 34.9081687, "tags": {"name": "Nyasore", "place": "village"}}, {"type": "node", "id": 9852834107, "lat": -0.311608, "lon": 34.9592027, "tags": {"name": "KOSWAGO UPPER", "place": "village"}}, {"type": "node", "id": 9852834108, "lat": -0.3230436, "lon": 34.9518056, "tags": {"name": "CENTRAL KACHAN", "place": "village"}}, {"type": "node", "id": 9852834109, "lat": -0.3179024, "lon": 34.9291177, "tags": {"name": "UPPER KONDITI", "place": "village"}}, {"type": "node", "id": 9852834110, "lat": -0.3112078, "lon": 34.9421115, "tags": {"name": "KOSWAGO LOWER", "place": "village"}}, {"type": "node", "id": 9852834111, "lat": -0.3348582, "lon": 34.9915901, "tags": {"name": "Dol", "place": "village"}}, {"type": "node", "id": 9852834112, "lat": -0.335443, "lon": 35.0000146, "tags": {"Village": "THIM", "name": "Thim", "place": "neighbourhood"}}, {"type": "node", "id": 9852834113, "lat": -0.3327387, "lon": 34.9891202, "tags": {"name": "Achiya", "place": "village"}}, {"type": "node", "id": 9852834115, "lat": -0.3190238, "lon": 34.9544367, "tags": {"name": "LOWER KACHAN", "place": "village"}}, {"type": "node", "id": 9852834116, "lat": -0.3061766, "lon": 34.9455782, "tags": {"name": "KOGOLA KOJOUNDO", "place": "village"}}, {"type": "node", "id": 9852853717, "lat": -0.3024542, "lon": 34.9566667, "tags": {"name": "KOLAL BORDER", "place": "village"}}, {"type": "node", "id": 9852853718, "lat": -0.2988053, "lon": 34.9420639, "tags": {"name": "KOLAL LOWER", "place": "village"}}, {"type": "node", "id": 9852853719, "lat": -0.3047373, "lon": 34.9677491, "tags": {"name": "KOGOLA CENTRAL", "place": "village"}}, {"type": "node", "id": 9852853720, "lat": -0.3111991, "lon": 34.9799291, "tags": {"name": "KOGOLA UPPER", "place": "village"}}, {"type": "node", "id": 9852853721, "lat": -0.3136364, "lon": 34.8584045, "tags": {"name": "Ajore", "place": "village"}}, {"type": "node", "id": 9852853722, "lat": -0.3239697, "lon": 34.9875939, "tags": {"name": "Kogada/Lower Kinda Kabol", "place": "village"}}, {"type": "node", "id": 9852853724, "lat": -0.3247319, "lon": 34.8965665, "tags": {"name": "Kameso", "place": "village"}}, {"type": "node", "id": 9852853725, "lat": -0.3262328, "lon": 34.9031007, "tags": {"name": "Widbondo", "place": "village"}}, {"type": "node", "id": 9852853726, "lat": -0.3197966, "lon": 34.8962001, "tags": {"name": "KADIPO 'B'", "place": "village"}}, {"type": "node", "id": 9852853727, "lat": -0.3169538, "lon": 34.9070051, "tags": {"name": "OYAMO LOWER", "place": "village"}}, {"type": "node", "id": 9852853728, "lat": -0.3246281, "lon": 34.892264, "tags": {"name": "Ragen Scheme", "place": "village"}}, {"type": "node", "id": 9852853729, "lat": -0.3157501, "lon": 34.8951589, "tags": {"name": "Kadipo", "place": "village"}}, {"type": "node", "id": 9852853730, "lat": -0.3254463, "lon": 34.9091748, "tags": {"name": "KARABUON", "place": "village"}}, {"type": "node", "id": 9852853731, "lat": -0.3189599, "lon": 34.9167227, "tags": {"name": "KANYANGO LOWER", "place": "village"}}, {"type": "node", "id": 9852853732, "lat": -0.3397404, "lon": 34.9130225, "tags": {"name": "PENDO", "place": "village"}}, {"type": "node", "id": 9852853733, "lat": -0.3354055, "lon": 34.9033085, "tags": {"name": "Kojwondo", "place": "village"}}, {"type": "node", "id": 9852853734, "lat": -0.3390713, "lon": 34.9175916, "tags": {"name": "AWINO OSEDO/NYAILA", "place": "village"}}, {"type": "node", "id": 9852853735, "lat": -0.3301931, "lon": 34.9161038, "tags": {"name": "NYAKECH/AHONO", "place": "village"}}, {"type": "node", "id": 9852853736, "lat": -0.3300458, "lon": 34.910437, "tags": {"name": "KOLOO /OLWALO", "place": "village"}}, {"type": "node", "id": 9852853737, "lat": -0.3321802, "lon": 34.920618, "tags": {"name": "WANDA LOWER/OLWALO 'C'", "place": "village"}}, {"type": "node", "id": 9852853738, "lat": -0.3420985, "lon": 34.9224657, "tags": {"name": "WANDA UPPER/CENTRAL WANDA", "place": "village"}}, {"type": "node", "id": 9852853740, "lat": -0.3106533, "lon": 34.8874523, "tags": {"name": "RAGEN EAST /WEST", "place": "village"}}, {"type": "node", "id": 9852853742, "lat": -0.3081544, "lon": 34.8728241, "tags": {"name": "BUGO-LOWER", "place": "village"}}, {"type": "node", "id": 9852853743, "lat": -0.3020987, "lon": 34.8623996, "tags": {"name": "Withur", "place": "village"}}, {"type": "node", "id": 9852853744, "lat": -0.2989114, "lon": 34.8673692, "tags": {"name": "LAK-ONGIRO", "place": "village"}}, {"type": "node", "id": 9852853745, "lat": -0.3062111, "lon": 34.8535054, "tags": {"name": "Ongajo", "place": "village"}}, {"type": "node", "id": 9852853746, "lat": -0.3198443, "lon": 34.8717696, "tags": {"name": "Radienya", "place": "village"}}, {"type": "node", "id": 9852853747, "lat": -0.3140975, "lon": 34.8688192, "tags": {"name": "Upper Bugo", "place": "village"}}, {"type": "node", "id": 9852853748, "lat": -0.3193804, "lon": 34.8629358, "tags": {"name": "UPPER KUSA", "place": "neighbourhood"}}, {"type": "node", "id": 9852853749, "lat": -0.3251904, "lon": 34.8746351, "tags": {"name": "Bur Kamwana", "place": "village"}}, {"type": "node", "id": 9852853750, "lat": -0.3359942, "lon": 34.9825306, "tags": {"name": "Ligusa", "place": "village"}}, {"type": "node", "id": 9852853751, "lat": -0.3356635, "lon": 34.9752563, "tags": {"name": "Soko", "place": "village"}}, {"type": "node", "id": 9852853752, "lat": -0.3275417, "lon": 34.8848817, "tags": {"name": "Ogilo Komulo", "place": "village"}}, {"type": "node", "id": 9852853753, "lat": -0.3207106, "lon": 34.8881925, "tags": {"name": "KOCHIENG' ODONGO", "place": "village"}}, {"type": "node", "id": 9852853754, "lat": -0.3222216, "lon": 34.8828292, "tags": {"name": "Lumbwa", "place": "village"}}, {"type": "node", "id": 9852853755, "lat": -0.3031972, "lon": 34.9210892, "tags": {"name": "LOWER KONDITI", "place": "village"}}, {"type": "node", "id": 9852853756, "lat": -0.299437, "lon": 34.903794, "tags": {"name": "KINDA CENTRAL / LOWER", "place": "village"}}, {"type": "node", "id": 9852853757, "lat": -0.2997586, "lon": 34.9478827, "tags": {"name": "KOLAL CENTRAL", "place": "village"}}, {"type": "node", "id": 9852853758, "lat": -0.3146084, "lon": 34.9226802, "tags": {"name": "KANYANGO CENTRAL", "place": "village"}}, {"type": "node", "id": 9852853759, "lat": -0.312925, "lon": 34.9687577, "tags": {"name": "KAGUTU/KAJIMBO", "place": "village"}}, {"type": "node", "id": 9852853760, "lat": -0.330313, "lon": 34.9888328, "tags": {"name": "Kogada Central", "place": "village"}}, {"type": "node", "id": 9852853762, "lat": -0.3263673, "lon": 34.9820848, "tags": {"name": "KODUM UPPER", "place": "village"}}, {"type": "node", "id": 9852853763, "lat": -0.3159608, "lon": 34.9546865, "tags": {"name": "KOLAL MANYATTA", "place": "village"}}, {"type": "node", "id": 9852853764, "lat": -0.3192958, "lon": 34.9749427, "tags": {"name": "KOKUMU EAST 'B'", "place": "village"}}, {"type": "node", "id": 9852853765, "lat": -0.3183402, "lon": 34.9819822, "tags": {"name": "KOKUM LOWER", "place": "village"}}, {"type": "node", "id": 9852853766, "lat": -0.3204369, "lon": 34.9669025, "tags": {"name": "KOKUMU CENTRAL", "place": "village"}}, {"type": "node", "id": 9852853767, "lat": -0.3267702, "lon": 34.97305, "tags": {"name": "KOKUMU EAST 'A'", "place": "village"}}, {"type": "node", "id": 9852853768, "lat": -0.323214, "lon": 34.9619906, "tags": {"name": "KOKUMU WEST", "place": "village"}}, {"type": "node", "id": 9852853769, "lat": -0.3349959, "lon": 34.9665849, "tags": {"name": "KOKUMU UPPER A& B", "place": "village"}}, {"type": "node", "id": 9852853770, "lat": -0.3164674, "lon": 34.9439648, "tags": {"name": "KAGUTU ANGIELA", "place": "village"}}, {"type": "node", "id": 9852853771, "lat": -0.3351947, "lon": 34.9511598, "tags": {"name": "UPPER KACHAN/UPPER KATIANG", "place": "village"}}, {"type": "node", "id": 9852853772, "lat": -0.3335648, "lon": 34.9446695, "tags": {"name": "MICHURA", "place": "village"}}, {"type": "node", "id": 9852853773, "lat": -0.3247634, "lon": 34.9352097, "tags": {"name": "KANYAKORE", "place": "village"}}, {"type": "node", "id": 9852853774, "lat": -0.3178527, "lon": 34.9339481, "tags": {"name": "KOLAL /OMONDO/KATIANG", "place": "village"}}, {"type": "node", "id": 9852853775, "lat": -0.3235965, "lon": 34.9403783, "tags": {"name": "KASERE", "place": "village"}}, {"type": "node", "id": 9852853776, "lat": -0.3393784, "lon": 34.9361162, "tags": {"name": "KANYANGO UPPER", "place": "village"}}, {"type": "node", "id": 9852853777, "lat": -0.3260857, "lon": 34.9268236, "tags": {"name": "OYAMO UPPER", "place": "village"}}, {"type": "node", "id": 9852853778, "lat": -0.3390515, "lon": 34.9284301, "tags": {"name": "KOKUMU/KINDA/UPPER KAUGWA", "place": "village"}}, {"type": "node", "id": 9852853779, "lat": -0.3262007, "lon": 34.9219582, "tags": {"name": "KOLAL", "place": "village"}}, {"type": "node", "id": 9852853780, "lat": -0.3144391, "lon": 34.8489641, "tags": {"name": "LUSA LOWER/BUGO CENTRAL", "place": "neighbourhood"}}, {"type": "node", "id": 9852853781, "lat": -0.3178535, "lon": 34.8428121, "tags": {"name": "Obugi", "place": "neighbourhood"}}, {"type": "node", "id": 9852990438, "lat": -0.2920268, "lon": 34.9506722, "tags": {"name": "KOWINYO NORTH", "place": "village"}}, {"type": "node", "id": 9852990442, "lat": -0.2938225, "lon": 34.9581691, "tags": {"name": "KACHOLA CENTRAL", "place": "village"}}, {"type": "node", "id": 9852990456, "lat": -0.309005, "lon": 35.0188034, "tags": {"name": "KAGAYA/ KOCHUKA", "place": "village"}}, {"type": "node", "id": 9852990457, "lat": -0.3122679, "lon": 34.9902398, "tags": {"name": "KOKUMU/ KAMULA/LOWER KAGURE", "place": "village"}}, {"type": "node", "id": 9852990458, "lat": -0.3220321, "lon": 35.0116617, "tags": {"name": "KASAE ASAWO", "place": "neighbourhood"}}, {"type": "node", "id": 9852990460, "lat": -0.3232438, "lon": 35.0044408, "tags": {"name": "KASAE ONYUONGO", "place": "neighbourhood"}}, {"type": "node", "id": 9852990461, "lat": -0.3039707, "lon": 35.0120369, "tags": {"name": "KOGOL", "place": "village"}}, {"type": "node", "id": 9852990462, "lat": -0.2952966, "lon": 34.938177, "tags": {"name": "KOUWOR /KOYOLA LOWER", "place": "village"}}, {"type": "node", "id": 9852990464, "lat": -0.30135, "lon": 34.9779678, "tags": {"name": "KOTIANG /KOLAL EAST", "place": "village"}}, {"type": "node", "id": 9852990465, "lat": -0.2975393, "lon": 34.9275011, "tags": {"name": "Koloo", "place": "village"}}, {"type": "node", "id": 9852990487, "lat": -0.2948452, "lon": 34.9255541, "tags": {"name": "JIMO /NYATARI/KOSIRIDANA", "place": "village"}}, {"type": "node", "id": 9852990494, "lat": -0.2969444, "lon": 34.9681264, "tags": {"name": "KOLAL WEST /CENTRAL", "place": "village"}}, {"type": "node", "id": 9852990497, "lat": -0.2935711, "lon": 34.9835678, "tags": {"name": "KAWITI WEST /EAST", "place": "village"}}, {"type": "node", "id": 9852990503, "lat": -0.2923588, "lon": 34.9953993, "tags": {"name": "KANYIBANA SOUTH", "place": "neighbourhood"}}, {"type": "node", "id": 9852990504, "lat": -0.2999393, "lon": 34.9876646, "tags": {"name": "KOTULA WEST/ KOLAL EAST", "place": "village"}}, {"type": "node", "id": 9852990505, "lat": -0.3064083, "lon": 34.9981744, "tags": {"name": "KOWALA/KABOUR/ACHEGO", "place": "village"}}, {"type": "node", "id": 9852990506, "lat": -0.3165466, "lon": 34.9980848, "tags": {"name": "KABUOR SAYE", "place": "village"}}, {"type": "node", "id": 9852990508, "lat": -0.292862, "lon": 35.0010252, "tags": {"name": "Waingu", "place": "neighbourhood"}}, {"type": "node", "id": 9852990511, "lat": -0.2940587, "lon": 35.0145482, "tags": {"name": "Kamloma East", "place": "village"}}, {"type": "node", "id": 9852990512, "lat": -0.2941073, "lon": 35.0078331, "tags": {"name": "Katuk/Kamloma West", "place": "village"}}, {"type": "node", "id": 9852990513, "lat": -0.3017769, "lon": 35.0026233, "tags": {"name": "KAKELO/KANJIRA/KABURA", "place": "village"}}, {"type": "node", "id": 9852990515, "lat": -0.2960307, "lon": 35.0201506, "tags": {"name": "KODUOR 'B'", "place": "village"}}, {"type": "node", "id": 9852999217, "lat": -0.3114689, "lon": 35.0094903, "tags": {"name": "Kamwana", "place": "neighbourhood"}}, {"type": "node", "id": 9852999219, "lat": -0.3142869, "lon": 35.0186708, "tags": {"name": "Kauko-ola", "place": "village"}}, {"type": "node", "id": 9853020821, "lat": -0.3870104, "lon": 35.0061307, "tags": {"name": "Kariobangi", "place": "village"}}, {"type": "node", "id": 9853020826, "lat": -0.3911758, "lon": 35.0041989, "tags": {"name": "Agai", "place": "village"}}, {"type": "node", "id": 9853020827, "lat": -0.3635017, "lon": 34.9783242, "tags": {"name": "Kadero", "place": "village"}}, {"type": "node", "id": 9853020829, "lat": -0.357609, "lon": 34.9921484, "tags": {"name": "KN Gege", "place": "village"}}, {"type": "node", "id": 9853020830, "lat": -0.3550771, "lon": 34.9824993, "tags": {"name": "Kamuga/Kobala", "place": "village"}}, {"type": "node", "id": 9853020833, "lat": -0.3522436, "lon": 34.9596231, "tags": {"name": "KATOMBO 'B'", "place": "village"}}, {"type": "node", "id": 9853020834, "lat": -0.374204, "lon": 34.995585, "tags": {"name": "Kamgan Guda", "place": "village"}}, {"type": "node", "id": 9853020835, "lat": -0.3678625, "lon": 35.0038327, "tags": {"name": "Kabongo Kamuoso", "place": "village"}}, {"type": "node", "id": 9853020836, "lat": -0.3461743, "lon": 34.9972504, "tags": {"name": "Holo", "place": "village"}}, {"type": "node", "id": 9853020838, "lat": -0.3440381, "lon": 34.9577617, "tags": {"name": "ANGOGOREMO", "place": "village"}}, {"type": "node", "id": 9853020839, "lat": -0.3622366, "lon": 34.9979556, "tags": {"name": "Kotieno Ngege", "place": "village"}}, {"type": "node", "id": 9853020841, "lat": -0.3587283, "lon": 34.967552, "tags": {"name": "KOMORO /RARIEDA", "place": "village"}}, {"type": "node", "id": 9853020842, "lat": -0.352389, "lon": 34.9370889, "tags": {"name": "NAKI GOT 'A'", "place": "village"}}, {"type": "node", "id": 9853020843, "lat": -0.3855027, "lon": 34.9617948, "tags": {"name": "KABETE", "place": "village"}}, {"type": "node", "id": 9853020845, "lat": -0.3925935, "lon": 34.965495, "tags": {"name": "KAMNWA BANG'A", "place": "village"}}, {"type": "node", "id": 9853020847, "lat": -0.3475242, "lon": 34.9834728, "tags": {"name": "Soi", "place": "village"}}, {"type": "node", "id": 9853020850, "lat": -0.3494756, "lon": 34.9701533, "tags": {"name": "Sigoti", "place": "village"}}, {"type": "node", "id": 9853020851, "lat": -0.3717543, "lon": 34.967905, "tags": {"name": "KAMGAN KOJWANG' B", "place": "village"}}, {"type": "node", "id": 9853020852, "lat": -0.3496272, "lon": 34.9449736, "tags": {"name": "NAKI GOT 'B'", "place": "village"}}, {"type": "node", "id": 9853020853, "lat": -0.3549786, "lon": 34.9538382, "tags": {"name": "KATOMBO 'A'", "place": "village"}}, {"type": "node", "id": 9853020855, "lat": -0.361581, "lon": 34.9556228, "tags": {"name": "NDORO 'B'", "place": "village"}}, {"type": "node", "id": 9853020859, "lat": -0.373147, "lon": 34.9824852, "tags": {"name": "KAMGAN", "place": "village"}}, {"type": "node", "id": 9853020861, "lat": -0.3806882, "lon": 34.9800375, "tags": {"name": "NYABONDO COMPLEX", "place": "village"}}, {"type": "node", "id": 9853020862, "lat": -0.383886, "lon": 34.9744989, "tags": {"name": "NYABONDO", "place": "village"}}, {"type": "node", "id": 9853020863, "lat": -0.3776134, "lon": 35.0017266, "tags": {"name": "Wahanda", "place": "village"}}, {"type": "node", "id": 9853020866, "lat": -0.3928718, "lon": 34.9902739, "tags": {"name": "Ochol", "place": "village"}}, {"type": "node", "id": 9853020868, "lat": -0.3864226, "lon": 34.9958017, "tags": {"name": "Kabongo", "place": "village"}}, {"type": "node", "id": 9853020869, "lat": -0.3865115, "lon": 34.9877261, "tags": {"name": "Kabongo Achego", "place": "village"}}, {"type": "node", "id": 9853020870, "lat": -0.3999757, "lon": 34.984411, "tags": {"name": "Kamna Kamoth", "place": "village"}}, {"type": "node", "id": 9853020871, "lat": -0.3984694, "lon": 35.0011331, "tags": {"name": "Kamana Olwa", "place": "village"}}, {"type": "node", "id": 9853020872, "lat": -0.3943918, "lon": 34.9777796, "tags": {"name": "KAMOTH", "place": "village"}}, {"type": "node", "id": 9853020876, "lat": -0.3751318, "lon": 34.9523203, "tags": {"name": "KODUL", "place": "village"}}, {"type": "node", "id": 9853020877, "lat": -0.3668755, "lon": 34.9376828, "tags": {"name": "KEYO NYADUNDO", "place": "village"}}, {"type": "node", "id": 9853082473, "lat": -0.3505543, "lon": 34.9256473, "tags": {"name": "BUNGUMERI/OSOUME", "place": "village"}}, {"type": "node", "id": 9853082475, "lat": -0.3586914, "lon": 34.9197425, "tags": {"name": "BAR-KAWARINDA", "place": "village"}}, {"type": "node", "id": 9853082476, "lat": -0.351506, "lon": 34.9144265, "tags": {"name": "RAKWARO B", "place": "village"}}, {"type": "node", "id": 9853082477, "lat": -0.3513614, "lon": 34.90447, "tags": {"name": "RAKWARO A", "place": "village"}}, {"type": "node", "id": 9853082480, "lat": -0.3846133, "lon": 34.9453636, "tags": {"name": "OLUTI A", "place": "village"}}, {"type": "node", "id": 9853082481, "lat": -0.3913409, "lon": 34.9479154, "tags": {"name": "OLUTI B", "place": "village"}}, {"type": "node", "id": 9853082482, "lat": -0.380206, "lon": 34.9369439, "tags": {"name": "SIANY'", "place": "village"}}, {"type": "node", "id": 9853082484, "lat": -0.3584692, "lon": 34.8958884, "tags": {"name": "BURKAMACH", "place": "village"}}, {"type": "node", "id": 9853082485, "lat": -0.3727122, "lon": 34.9231467, "tags": {"name": "NDORI", "place": "village"}}, {"type": "node", "id": 9853082486, "lat": -0.3786687, "lon": 34.9250143, "tags": {"name": "OTHITH", "place": "village"}}, {"type": "node", "id": 9853082487, "lat": -0.3655808, "lon": 34.9181362, "tags": {"name": "ACHINGURE 'A'", "place": "village"}}, {"type": "node", "id": 9853082488, "lat": -0.3688344, "lon": 34.9069303, "tags": {"name": "ACHINGURE 'B'", "place": "village"}}, {"type": "node", "id": 9853082489, "lat": -0.3728765, "lon": 34.894079, "tags": {"name": "NYAMARIMBA 'B'", "place": "village"}}, {"type": "node", "id": 9853082490, "lat": -0.3669137, "lon": 34.8942559, "tags": {"name": "NYAMARIMBA 'A'", "place": "village"}}, {"type": "node", "id": 9853082491, "lat": -0.3627291, "lon": 34.8809597, "tags": {"name": "NGOPE", "place": "village"}}, {"type": "node", "id": 9853082492, "lat": -0.3864226, "lon": 34.8472409, "tags": {"name": "APONDE", "place": "village"}}, {"type": "node", "id": 9853082493, "lat": -0.3900918, "lon": 34.8611267, "tags": {"name": "Gul-Maembe", "place": "village"}}, {"type": "node", "id": 9853082494, "lat": -0.3776721, "lon": 34.8712468, "tags": {"name": "Andingo Bware", "place": "village"}}, {"type": "node", "id": 9853082495, "lat": -0.3885022, "lon": 34.8756326, "tags": {"name": "Orobi", "place": "village"}}, {"type": "node", "id": 9853082496, "lat": -0.3853415, "lon": 34.8849299, "tags": {"name": "OGEKA", "place": "village"}}, {"type": "node", "id": 9853082497, "lat": -0.37939, "lon": 34.8920893, "tags": {"name": "APOKO 'A'", "place": "village"}}, {"type": "node", "id": 9853082498, "lat": -0.3880678, "lon": 34.8925153, "tags": {"name": "APOKO 'B'", "place": "village"}}, {"type": "node", "id": 9853082499, "lat": -0.3815328, "lon": 34.9058813, "tags": {"name": "Kalwande / Gari", "place": "village"}}, {"type": "node", "id": 9853082500, "lat": -0.3857879, "lon": 34.9198641, "tags": {"name": "Chachi", "place": "village"}}, {"type": "node", "id": 9853082501, "lat": -0.3892681, "lon": 34.9238655, "tags": {"name": "Alara", "place": "village"}}, {"type": "node", "id": 9853082502, "lat": -0.3963563, "lon": 34.9203877, "tags": {"name": "MOSOGO B", "place": "village"}}, {"type": "node", "id": 9853082503, "lat": -0.4038764, "lon": 34.9452143, "tags": {"name": "Saema-Kwoyo", "place": "village"}}, {"type": "node", "id": 9853082505, "lat": -0.3943499, "lon": 34.9296198, "tags": {"name": "Mosogo", "place": "village"}}, {"type": "node", "id": 9853082506, "lat": -0.3972821, "lon": 34.9377445, "tags": {"name": "Anyuang", "place": "village"}}, {"type": "node", "id": 9853082507, "lat": -0.4053091, "lon": 34.9346604, "tags": {"name": "SAEMA -LWANDA", "place": "village"}}, {"type": "node", "id": 9853082508, "lat": -0.4054527, "lon": 34.9535443, "tags": {"name": "Luala", "place": "village"}}, {"type": "node", "id": 9853117093, "lat": -0.2990615, "lon": 34.7799399, "tags": {"name": "Kamgan/Jimo", "place": "village"}}, {"type": "node", "id": 9853117094, "lat": -0.3211129, "lon": 34.8484017, "tags": {"name": "Saema Kakun", "place": "village"}}, {"type": "node", "id": 9853117095, "lat": -0.3287782, "lon": 34.8578986, "tags": {"name": "Kanyapong", "place": "village"}}, {"type": "node", "id": 9853117097, "lat": -0.3361715, "lon": 34.8618366, "tags": {"name": "Kawanda Kawe 'C'", "place": "neighbourhood"}}, {"type": "node", "id": 9853117098, "lat": -0.3391704, "lon": 34.8736021, "tags": {"name": "Warewe", "place": "village"}}, {"type": "node", "id": 9853117099, "lat": -0.3536063, "lon": 34.8750504, "tags": {"name": "KABONGO 'A' UPPER", "place": "village"}}, {"type": "node", "id": 9853117103, "lat": -0.3426297, "lon": 34.9001241, "tags": {"name": "KAMGAN/ODIO WANGE", "place": "village"}}, {"type": "node", "id": 9853117106, "lat": -0.3621411, "lon": 34.8637585, "tags": {"name": "Madida East", "place": "village"}}, {"type": "node", "id": 9853117107, "lat": -0.3485941, "lon": 34.8668252, "tags": {"name": "UPPER KORIEDO", "place": "village"}}, {"type": "node", "id": 9853117108, "lat": -0.3537336, "lon": 34.8506777, "tags": {"name": "Onono", "place": "village"}}, {"type": "node", "id": 9853117109, "lat": -0.3715682, "lon": 34.8453802, "tags": {"name": "MILANDO", "place": "village"}}, {"type": "node", "id": 9853117110, "lat": -0.369616, "lon": 34.8529407, "tags": {"name": "Madida West", "place": "village"}}, {"type": "node", "id": 9853117111, "lat": -0.3428341, "lon": 34.8483738, "tags": {"name": "Koriedo/Diere/Abwao", "place": "village"}}, {"type": "node", "id": 9853117112, "lat": -0.3336695, "lon": 34.8659974, "tags": {"name": "Wadanda A", "place": "village"}}, {"type": "node", "id": 9853117113, "lat": -0.3312638, "lon": 34.8482768, "tags": {"name": "Kamwana Nyade", "place": "village"}}, {"type": "node", "id": 9853117116, "lat": -0.3390134, "lon": 34.8560743, "tags": {"name": "Koriedo Diere", "place": "village"}}, {"type": "node", "id": 9853133417, "lat": -0.3311926, "lon": 34.842028, "tags": {"name": "Kamwana Nyadero", "place": "neighbourhood"}}, {"type": "node", "id": 9853133419, "lat": -0.3415692, "lon": 34.8362043, "tags": {"name": "Oriedo Odeng'a", "place": "village"}}, {"type": "node", "id": 9853133421, "lat": -0.3321235, "lon": 34.835062, "tags": {"name": "ORIEDO DENG'", "place": "neighbourhood"}}, {"type": "node", "id": 9853133422, "lat": -0.3419375, "lon": 34.8305408, "tags": {"name": "KAROGO", "place": "neighbourhood"}}, {"type": "node", "id": 9853133423, "lat": -0.3326219, "lon": 34.8231803, "tags": {"name": "KOWUOR", "place": "neighbourhood"}}, {"type": "node", "id": 9853133424, "lat": -0.3272778, "lon": 34.8299669, "tags": {"name": "KAPILA", "place": "neighbourhood"}}, {"type": "node", "id": 9853133425, "lat": -0.3295834, "lon": 34.8154873, "tags": {"name": "Andingo/Kajimbo", "place": "village"}}, {"type": "node", "id": 9853133426, "lat": -0.3390131, "lon": 34.8107146, "tags": {"name": "KOMORO", "place": "neighbourhood"}}, {"type": "node", "id": 9853133427, "lat": -0.3459795, "lon": 34.8190982, "tags": {"name": "Katombo Mwalo", "place": "village"}}, {"type": "node", "id": 9853133428, "lat": -0.3086374, "lon": 34.7738599, "tags": {"name": "Koloo/Kandaria", "place": "village"}}, {"type": "node", "id": 9853133429, "lat": -0.2971581, "lon": 34.7844272, "tags": {"name": "Kabongo/Kamoth/Kamuga", "place": "village"}}, {"type": "node", "id": 9853133430, "lat": -0.3018564, "lon": 34.79153, "tags": {"name": "Kopiyo", "place": "village"}}, {"type": "node", "id": 9853133432, "lat": -0.3066854, "lon": 34.7940704, "tags": {"name": "KAMUNGO/KOBONGO", "place": "village"}}, {"type": "node", "id": 9853133433, "lat": -0.3081664, "lon": 34.7842949, "tags": {"name": "Kamgan / Kochieng", "place": "village"}}, {"type": "node", "id": 9853133434, "lat": -0.3223657, "lon": 34.7907886, "tags": {"name": "Koloo Nyongonga/ Kamoth", "place": "village"}}, {"type": "node", "id": 9853133435, "lat": -0.3282282, "lon": 34.8027922, "tags": {"name": "Wadanda", "place": "village"}}, {"type": "node", "id": 9853133436, "lat": -0.3227186, "lon": 34.8006379, "tags": {"name": "KAUMA/KAWAMMGAO", "place": "village"}}, {"type": "node", "id": 9853133437, "lat": -0.318395, "lon": 34.8035003, "tags": {"name": "Kamuga/Koiro", "place": "village"}}, {"type": "node", "id": 9853133438, "lat": -0.3140647, "lon": 34.7956765, "tags": {"name": "Kabongo Kamgan", "place": "village"}}, {"type": "node", "id": 9853133439, "lat": -0.3323859, "lon": 34.7957869, "tags": {"name": "Kaloo Nyawaro", "place": "village"}}, {"type": "node", "id": 9853133440, "lat": -0.3473567, "lon": 34.801306, "tags": {"name": "NYAKWERE KAM", "place": "neighbourhood"}}, {"type": "node", "id": 9853133441, "lat": -0.3378509, "lon": 34.7917541, "tags": {"name": "KATOMBO MWALO", "place": "village"}}, {"type": "node", "id": 9853133442, "lat": -0.340843, "lon": 34.7993727, "tags": {"name": "Kajejo", "place": "neighbourhood"}}, {"type": "node", "id": 9853133443, "lat": -0.3369651, "lon": 34.8019271, "tags": {"name": "KWOYO", "place": "neighbourhood"}}, {"type": "node", "id": 9853133444, "lat": -0.3594399, "lon": 34.8339916, "tags": {"name": "Kamthiga", "place": "village"}}, {"type": "node", "id": 9853133445, "lat": -0.3606636, "lon": 34.8216888, "tags": {"name": "APONDO", "place": "village"}}, {"type": "node", "id": 9853133446, "lat": -0.3517298, "lon": 34.8336207, "tags": {"name": "Ombugo", "place": "village"}}, {"type": "node", "id": 9853133447, "lat": -0.369893, "lon": 34.832634, "tags": {"name": "KAWUOR", "place": "village"}}, {"type": "node", "id": 9853133448, "lat": -0.3799246, "lon": 34.8284133, "tags": {"name": "MITHIGA 'B'/KARIANY", "place": "village"}}, {"type": "node", "id": 9853133449, "lat": -0.3825834, "lon": 34.8345071, "tags": {"name": "MITHIGA/KARIANY 'A'", "place": "village"}}, {"type": "node", "id": 9853133450, "lat": -0.3747736, "lon": 34.8621742, "tags": {"name": "Kagwero", "place": "village"}}, {"type": "node", "id": 9914319709, "lat": -0.3224057, "lon": 34.9417574, "tags": {"name": "KASERE 'A'", "place": "village"}}, {"type": "node", "id": 9914323017, "lat": -0.3324064, "lon": 34.9813756, "tags": {"Village": "BUNGU / KOLOO", "name": "Bungu", "place": "village"}}, {"type": "node", "id": 9914323048, "lat": -0.3046339, "lon": 34.8532694, "tags": {"name": "ONGAJO", "place": "village"}}, {"type": "node", "id": 9914323067, "lat": -0.3192958, "lon": 34.9749427, "tags": {"name": "Kokumu East 'B'", "place": "village"}}, {"type": "node", "id": 9914323079, "lat": -0.3394776, "lon": 34.9360599, "tags": {"name": "KANYANGO UPPER", "place": "village"}}, {"type": "node", "id": 9914323084, "lat": -0.3145061, "lon": 34.8449578, "tags": {"name": "OBUGI", "place": "village"}}, {"type": "node", "id": 9968738008, "lat": -0.3088734, "lon": 34.8666466, "tags": {"name": "Wachiegwe/kajowi/kanyang", "place": "village"}}, {"type": "node", "id": 10687219155, "lat": -0.3215844, "lon": 34.9452352, "tags": {"name": "Nyakach", "place": "subcounty"}}, {"type": "node", "id": 10735157477, "lat": -0.3683114, "lon": 34.9843835, "tags": {"name": "NYAMAROKA", "place": "village"}}, {"type": "node", "id": 10747931530, "lat": -0.4046828, "lon": 34.9850729, "tags": {"name": "Dirubi", "place": "village"}}, {"type": "node", "id": 10747984541, "lat": -0.390684, "lon": 34.9804209, "tags": {"name": "Kananda", "place": "village"}}, {"type": "node", "id": 10755640459, "lat": -0.3417919, "lon": 34.9876224, "tags": {"name": "Ongielore", "place": "village"}}, {"type": "node", "id": 10755718998, "lat": -0.4367802, "lon": 34.9538158, "tags": {"name": "Othoro", "place": "village"}}, {"type": "node", "id": 10758164471, "lat": -0.3874113, "lon": 34.9370806, "tags": {"name": "OBOCH", "place": "village"}}, {"type": "node", "id": 10796794999, "lat": -0.4427992, "lon": 34.9137605, "tags": {"name": "Misambi", "place": "village"}}, {"type": "node", "id": 10796797070, "lat": -0.4298172, "lon": 34.9691708, "tags": {"name": "Kodada", "place": "village"}}, {"type": "node", "id": 10811635850, "lat": -0.4090692, "lon": 34.9687785, "tags": {"name": "Radienya", "place": "village"}}, {"type": "node", "id": 10811635851, "lat": -0.3994626, "lon": 34.9599552, "tags": {"name": "RAMULA", "place": "village"}}, {"type": "node", "id": 10860243360, "lat": -0.3602138, "lon": 34.9342668, "tags": {"name": "BODI", "place": "village"}}, {"type": "node", "id": 10864224384, "lat": -0.3159565, "lon": 35.0069707, "tags": {"name": "STORE PAMBA", "place": "village"}}, {"type": "node", "id": 10867211235, "lat": -0.3490696, "lon": 34.7882937, "tags": {"name": "Nyakwere", "place": "village"}}, {"type": "node", "id": 10867211236, "lat": -0.3602208, "lon": 34.7231243, "tags": {"name": "Ochot Odong", "place": "village"}}, {"type": "node", "id": 10883044147, "lat": -0.3500959, "lon": 34.808475, "tags": {"name": "Sang'oro", "place": "village"}}, {"type": "node", "id": 10883044148, "lat": -0.3171561, "lon": 34.8528796, "tags": {"name": "Kusa", "place": "village"}}, {"type": "node", "id": 11215936458, "lat": -0.4084303, "lon": 34.9768207, "tags": {"name": "Akiayi", "place": "village"}}, {"type": "node", "id": 11215936459, "lat": -0.3995414, "lon": 34.977333, "tags": {"name": "Anding'o", "place": "village"}}, {"type": "node", "id": 11231278106, "lat": -0.3841753, "lon": 34.9672508, "tags": {"name": "Kodong'a", "place": "village"}}, {"type": "node", "id": 11361051572, "lat": -0.3535745, "lon": 34.7041969}, {"type": "node", "id": 11361070402, "lat": -0.3537547, "lon": 34.7049172}, {"type": "node", "id": 11373826656, "lat": -0.3591882, "lon": 34.6833966}, {"type": "node", "id": 11373826688, "lat": -0.359163, "lon": 34.6820524}, {"type": "node", "id": 11460256578, "lat": -0.390776, "lon": 34.952504, "tags": {"name": "Ndare", "place": "village"}}, {"type": "node", "id": 11482352409, "lat": -0.3544529, "lon": 34.6870469}, {"type": "node", "id": 11482816546, "lat": -0.3592068, "lon": 34.68406}, {"type": "node", "id": 11659288457, "lat": -0.3567073, "lon": 34.7082026}, {"type": "way", "id": 442014711, "nodes": [4397068789, 4397068848, 11373826688, 11373826656, 11482816546, 4397068849, 4397068788, 11482352409, 4397068789], "tags": {"name": "Seka Kagwa", "place": "village"}}, {"type": "way", "id": 442015384, "nodes": [4397072848, 4397072850, 4397072851, 6610109334, 11659288457, 4397072849, 11361070402, 11361051572, 4397072848], "tags": {"name": "Rambira Border", "place": "village"}}, {"type": "way", "id": 442017643, "nodes": [4397091107, 4397091336, 4397091338, 4397091339, 4397091337, 4397091108, 4397091106, 4695127785, 4397091107], "tags": {"name": "Apida Karabondi", "place": "village"}}, {"type": "way", "id": 795162797, "nodes": [7437151118, 7437151119, 7437151120, 7437151121, 7437151122, 7437151123, 7437151124, 7437151125, 7437151126, 7437151127, 7437151128, 7437151129, 7437151130, 7437151131, 7437151132, 7437151133, 7437151118], "tags": {"name": "Kobuya Nyakwere", "place": "neighbourhood"}}, {"type": "way", "id": 884579908, "nodes": [8226300478, 8226300484, 8226300480, 8226300481, 8226300485, 8226300482, 8226300477, 8226300483, 8604419666, 8604419690, 8604419685, 8226300479, 8226300486, 8226300487, 8226300478], "tags": {"name": "Nyamira", "place": "town"}}]}