{"version": 0.6, "generator": "Overpass API 0.7.62.1 084b4234", "osm3s": {"timestamp_osm_base": "2024-09-30T23:00:39Z", "copyright": "The data included in this document is from www.openstreetmap.org. The data is made available under ODbL."}, "elements": [{"type": "node", "id": 1150881667, "lat": 9.71056, "lon": 42.88278, "tags": {"is_in:country": "Ethiopia", "is_in:country_code": "ET", "name": "Khando-Dirshe", "place": "locality", "source": "GeoDatabase"}}, {"type": "node", "id": 1150881785, "lat": 9.55667, "lon": 42.88333, "tags": {"is_in:country": "Ethiopia", "is_in:country_code": "ET", "name": "K'Ere'Anz", "place": "locality", "source": "GeoDatabase"}}, {"type": "node", "id": 1150882767, "lat": 9.51944, "lon": 42.67833, "tags": {"is_in:country": "Ethiopia", "is_in:country_code": "ET", "name": "Merar", "place": "locality", "source": "GeoDatabase"}}, {"type": "node", "id": 1150884027, "lat": 9.42472, "lon": 42.82222, "tags": {"is_in:country": "Ethiopia", "is_in:country_code": "ET", "name": "Bela Hare", "place": "locality", "source": "GeoDatabase"}}, {"type": "node", "id": 1150884324, "lat": 9.69528, "lon": 42.76417, "tags": {"is_in:country": "Ethiopia", "is_in:country_code": "ET", "name": "Serir Gerad", "place": "locality", "source": "GeoDatabase"}}, {"type": "node", "id": 1150885625, "lat": 9.47, "lon": 42.91556, "tags": {"is_in:country": "Ethiopia", "is_in:country_code": "ET", "name": "Orafadi", "place": "locality", "source": "GeoDatabase"}}, {"type": "node", "id": 1150886139, "lat": 9.51056, "lon": 42.77, "tags": {"is_in:country": "Ethiopia", "is_in:country_code": "ET", "name": "Fede'At", "place": "locality", "source": "GeoDatabase"}}, {"type": "node", "id": 1150886594, "lat": 9.43944, "lon": 42.63472, "tags": {"is_in:country": "Ethiopia", "is_in:country_code": "ET", "name": "Orda", "place": "locality", "source": "GeoDatabase"}}, {"type": "node", "id": 1150886918, "lat": 9.6975, "lon": 42.69278, "tags": {"is_in:country": "Ethiopia", "is_in:country_code": "ET", "name": "Uadzhi", "place": "locality", "source": "GeoDatabase"}}, {"type": "node", "id": 1150887958, "lat": 9.57722, "lon": 42.8075, "tags": {"is_in:country": "Ethiopia", "is_in:country_code": "ET", "name": "Benenisa", "place": "locality", "source": "GeoDatabase"}}, {"type": "node", "id": 1150890435, "lat": 9.49944, "lon": 42.68083, "tags": {"is_in:country": "Ethiopia", "is_in:country_code": "ET", "name": "Jinasenel", "place": "locality", "source": "GeoDatabase"}}, {"type": "node", "id": 1150890629, "lat": 9.63111, "lon": 42.90139, "tags": {"is_in:country": "Ethiopia", "is_in:country_code": "ET", "name": "Bulloynko", "place": "locality", "source": "GeoDatabase", "wikidata": "Q24032487"}}, {"type": "node", "id": 1150892044, "lat": 9.65972, "lon": 42.65417, "tags": {"is_in:country": "Ethiopia", "is_in:country_code": "ET", "name": "Goble Shet'", "place": "locality", "source": "GeoDatabase", "wikidata": "Q23961983"}}, {"type": "node", "id": 1150893662, "lat": 9.41667, "lon": 42.68333, "tags": {"is_in:country": "Ethiopia", "is_in:country_code": "ET", "name": "Khablela", "place": "locality", "source": "GeoDatabase"}}, {"type": "node", "id": 1150893791, "lat": 9.63639, "lon": 42.73389, "tags": {"is_in:country": "Ethiopia", "is_in:country_code": "ET", "name": "Dadale", "place": "locality", "source": "GeoDatabase"}}, {"type": "node", "id": 1150894352, "lat": 9.6150868, "lon": 42.7530108, "tags": {"is_in:country": "Ethiopia", "is_in:country_code": "ET", "name": "Tuli-Guled", "place": "village", "source": "GeoDatabase"}}, {"type": "node", "id": 1150897298, "lat": 9.53806, "lon": 42.95389, "tags": {"is_in:country": "Ethiopia", "is_in:country_code": "ET", "name": "Gelbob", "place": "locality", "source": "GeoDatabase"}}, {"type": "node", "id": 1150897734, "lat": 9.6360036, "lon": 42.8557908, "tags": {"is_in:country": "Ethiopia", "is_in:country_code": "ET", "name": "Dananley", "place": "locality", "source": "GeoDatabase"}}, {"type": "node", "id": 1150898413, "lat": 9.46472, "lon": 42.78278, "tags": {"is_in:country": "Ethiopia", "is_in:country_code": "ET", "name": "K'Ensekeror", "place": "locality", "source": "GeoDatabase"}}, {"type": "node", "id": 1150898539, "lat": 9.76861, "lon": 42.74889, "tags": {"is_in:country": "Ethiopia", "is_in:country_code": "ET", "name": "Giogi", "place": "locality", "source": "GeoDatabase"}}, {"type": "node", "id": 1150899628, "lat": 9.6725, "lon": 42.92333, "tags": {"is_in:country": "Ethiopia", "is_in:country_code": "ET", "name": "Dzhare", "place": "locality", "source": "GeoDatabase"}}, {"type": "node", "id": 1150899866, "lat": 9.57, "lon": 42.89639, "tags": {"is_in:country": "Ethiopia", "is_in:country_code": "ET", "name": "Machannis", "place": "locality", "source": "GeoDatabase"}}, {"type": "node", "id": 1150902111, "lat": 9.52778, "lon": 42.69972, "tags": {"is_in:country": "Ethiopia", "is_in:country_code": "ET", "name": "Rehoble", "place": "locality", "source": "GeoDatabase"}}, {"type": "node", "id": 1150905326, "lat": 9.69111, "lon": 42.80305, "tags": {"is_in:country": "Ethiopia", "is_in:country_code": "ET", "name": "Golorot", "place": "locality", "source": "GeoDatabase"}}, {"type": "node", "id": 1150905836, "lat": 9.63861, "lon": 42.735, "tags": {"is_in:country": "Ethiopia", "is_in:country_code": "ET", "name": "Kulula", "place": "locality", "source": "GeoDatabase"}}, {"type": "node", "id": 1150908170, "lat": 9.72139, "lon": 42.82028, "tags": {"is_in:country": "Ethiopia", "is_in:country_code": "ET", "name": "Godeyti", "place": "locality", "source": "GeoDatabase"}}, {"type": "node", "id": 1150908627, "lat": 9.51667, "lon": 42.85778, "tags": {"is_in:country": "Ethiopia", "is_in:country_code": "ET", "name": "Elahmar", "place": "locality", "source": "GeoDatabase"}}, {"type": "node", "id": 1150909812, "lat": 9.50639, "lon": 42.79666, "tags": {"is_in:country": "Ethiopia", "is_in:country_code": "ET", "name": "Rer Kabilli", "place": "locality", "source": "GeoDatabase"}}, {"type": "node", "id": 1150914414, "lat": 9.62722, "lon": 42.81139, "tags": {"is_in:country": "Ethiopia", "is_in:country_code": "ET", "name": "Haji", "place": "locality", "source": "GeoDatabase"}}, {"type": "node", "id": 1150919079, "lat": 9.49944, "lon": 42.73833, "tags": {"is_in:country": "Ethiopia", "is_in:country_code": "ET", "name": "Khosale", "place": "locality", "source": "GeoDatabase"}}, {"type": "node", "id": 1150920186, "lat": 9.71417, "lon": 42.84056, "tags": {"is_in:country": "Ethiopia", "is_in:country_code": "ET", "name": "Gara Garri", "place": "locality", "source": "GeoDatabase", "wikidata": "Q24030185"}}, {"type": "node", "id": 1150924624, "lat": 9.65333, "lon": 42.74833, "tags": {"is_in:country": "Ethiopia", "is_in:country_code": "ET", "name": "Dzhebsa", "place": "locality", "source": "GeoDatabase"}}, {"type": "node", "id": 1150928205, "lat": 9.56194, "lon": 42.93194, "tags": {"is_in:country": "Ethiopia", "is_in:country_code": "ET", "name": "Beley", "place": "locality", "source": "GeoDatabase"}}, {"type": "node", "id": 1150928766, "lat": 9.61111, "lon": 42.89556, "tags": {"is_in:country": "Ethiopia", "is_in:country_code": "ET", "name": "Bulo", "place": "locality", "source": "GeoDatabase"}}, {"type": "node", "id": 1150931161, "lat": 9.69528, "lon": 42.97389, "tags": {"is_in:country": "Ethiopia", "is_in:country_code": "ET", "name": "Goljini", "place": "locality", "source": "GeoDatabase"}}, {"type": "node", "id": 1150934851, "lat": 9.53583, "lon": 42.76611, "tags": {"is_in:country": "Ethiopia", "is_in:country_code": "ET", "name": "Piana Di Helendera", "place": "locality", "source": "GeoDatabase"}}, {"type": "node", "id": 1150936014, "lat": 9.75111, "lon": 42.8825, "tags": {"is_in:country": "Ethiopia", "is_in:country_code": "ET", "name": "Korolai", "place": "locality", "source": "GeoDatabase"}}, {"type": "node", "id": 1150936023, "lat": 9.46556, "lon": 42.63167, "tags": {"is_in:country": "Ethiopia", "is_in:country_code": "ET", "name": "Gara Goreis", "place": "locality", "source": "GeoDatabase", "wikidata": "Q24028815"}}, {"type": "node", "id": 1150936799, "lat": 9.58861, "lon": 42.72528, "tags": {"is_in:country": "Ethiopia", "is_in:country_code": "ET", "name": "Agagin", "place": "locality", "source": "GeoDatabase"}}, {"type": "node", "id": 1150939269, "lat": 9.47, "lon": 42.7025, "tags": {"is_in:country": "Ethiopia", "is_in:country_code": "ET", "name": "Biyo", "place": "locality", "source": "GeoDatabase"}}, {"type": "node", "id": 1150944177, "lat": 9.71889, "lon": 42.76528, "tags": {"is_in:country": "Ethiopia", "is_in:country_code": "ET", "name": "Valle Gogheita", "place": "locality", "source": "GeoDatabase"}}, {"type": "node", "id": 1150947685, "lat": 9.66972, "lon": 42.89833, "tags": {"is_in:country": "Ethiopia", "is_in:country_code": "ET", "name": "Samaua", "place": "locality", "source": "GeoDatabase"}}, {"type": "node", "id": 1150948465, "lat": 9.55222, "lon": 42.83666, "tags": {"is_in:country": "Ethiopia", "is_in:country_code": "ET", "name": "Turchile", "place": "locality", "source": "GeoDatabase"}}, {"type": "node", "id": 1150957683, "lat": 9.7375, "lon": 42.74167, "tags": {"is_in:country": "Ethiopia", "is_in:country_code": "ET", "name": "Gureholad", "place": "locality", "source": "GeoDatabase"}}, {"type": "node", "id": 1150961476, "lat": 9.49917, "lon": 42.76583, "tags": {"is_in:country": "Ethiopia", "is_in:country_code": "ET", "name": "Mus Der", "place": "locality", "source": "GeoDatabase"}}, {"type": "node", "id": 1150963621, "lat": 9.725, "lon": 42.63111, "tags": {"is_in:country": "Ethiopia", "is_in:country_code": "ET", "name": "Godire", "place": "locality", "source": "GeoDatabase"}}, {"type": "node", "id": 1150968938, "lat": 9.59444, "lon": 42.77528, "tags": {"is_in:country": "Ethiopia", "is_in:country_code": "ET", "name": "Khoreley", "place": "locality", "source": "GeoDatabase"}}, {"type": "node", "id": 1150972699, "lat": 9.53639, "lon": 42.96639, "tags": {"is_in:country": "Ethiopia", "is_in:country_code": "ET", "name": "Marar", "place": "locality", "source": "GeoDatabase"}}, {"type": "node", "id": 1150972728, "lat": 9.57167, "lon": 42.63833, "tags": {"is_in:country": "Ethiopia", "is_in:country_code": "ET", "name": "Ualobu", "place": "locality", "source": "GeoDatabase"}}, {"type": "node", "id": 1150973096, "lat": 9.65222, "lon": 42.87805, "tags": {"is_in:country": "Ethiopia", "is_in:country_code": "ET", "name": "Kheregel'", "place": "locality", "source": "GeoDatabase"}}, {"type": "node", "id": 1150973718, "lat": 9.73583, "lon": 42.93167, "tags": {"is_in:country": "Ethiopia", "is_in:country_code": "ET", "name": "Ag Giogsi", "place": "locality", "source": "GeoDatabase"}}, {"type": "node", "id": 1150975185, "lat": 9.65222, "lon": 42.63389, "tags": {"is_in:country": "Ethiopia", "is_in:country_code": "ET", "name": "Kaligi", "place": "locality", "source": "GeoDatabase"}}, {"type": "node", "id": 1150978090, "lat": 9.55944, "lon": 42.78694, "tags": {"is_in:country": "Ethiopia", "is_in:country_code": "ET", "name": "Duhuleley", "place": "locality", "source": "GeoDatabase"}}, {"type": "node", "id": 1150979954, "lat": 9.65278, "lon": 42.72361, "tags": {"is_in:country": "Ethiopia", "is_in:country_code": "ET", "name": "Serir Gerad (2)", "place": "locality", "source": "GeoDatabase"}}, {"type": "node", "id": 1150980701, "lat": 9.61306, "lon": 42.70722, "tags": {"is_in:country": "Ethiopia", "is_in:country_code": "ET", "name": "Gela", "place": "locality", "source": "GeoDatabase"}}, {"type": "node", "id": 1151002090, "lat": 9.43417, "lon": 42.75833, "tags": {"is_in:country": "Ethiopia", "is_in:country_code": "ET", "name": "Belewule", "place": "locality", "source": "GeoDatabase"}}, {"type": "node", "id": 1151002612, "lat": 9.65222, "lon": 42.71, "tags": {"is_in:country": "Ethiopia", "is_in:country_code": "ET", "name": "Arif-Gerau", "place": "locality", "source": "GeoDatabase"}}, {"type": "node", "id": 1151003102, "lat": 9.49528, "lon": 42.96389, "tags": {"is_in:country": "Ethiopia", "is_in:country_code": "ET", "name": "Welgo", "place": "locality", "source": "GeoDatabase"}}, {"type": "node", "id": 1151003163, "lat": 9.47, "lon": 42.65222, "tags": {"is_in:country": "Ethiopia", "is_in:country_code": "ET", "name": "Gures", "place": "locality", "source": "GeoDatabase"}}, {"type": "node", "id": 3198973103, "lat": 9.4291312, "lon": 42.718376, "tags": {"place": "hamlet"}}, {"type": "node", "id": 3198973104, "lat": 9.4546585, "lon": 42.7098144, "tags": {"place": "hamlet"}}, {"type": "node", "id": 3198973105, "lat": 9.4754008, "lon": 42.6706756, "tags": {"place": "hamlet"}}, {"type": "node", "id": 3198973106, "lat": 9.4961418, "lon": 42.6300563, "tags": {"place": "hamlet"}}]}