{"version": 0.6, "generator": "Overpass API 0.7.62.1 084b4234", "osm3s": {"timestamp_osm_base": "2024-09-30T22:56:34Z", "copyright": "The data included in this document is from www.openstreetmap.org. The data is made available under ODbL."}, "elements": [{"type": "node", "id": 283675670, "lat": 8.5388595, "lon": 37.9761854, "tags": {"alt_name": "Weliso", "name": "Waliso", "place": "town", "wikipedia": "en:Waliso"}}, {"type": "node", "id": 1104349782, "lat": 8.4394733, "lon": 37.9236879, "tags": {"name": "Gurura", "name:am": "\u1309\u1229\u122b", "place": "town", "source": "GPS,Photo"}}, {"type": "node", "id": 1150880782, "lat": 8.58333, "lon": 37.86667, "tags": {"is_in:country": "Ethiopia", "is_in:country_code": "ET", "name": "Dimtu (1)", "place": "locality", "source": "GeoDatabase"}}, {"type": "node", "id": 1150880910, "lat": 8.51667, "lon": 38.08333, "tags": {"is_in:country": "Ethiopia", "is_in:country_code": "ET", "name": "Uarabo", "place": "locality", "source": "GeoDatabase"}}, {"type": "node", "id": 1150881886, "lat": 8.36667, "lon": 38.23333, "tags": {"is_in:country": "Ethiopia", "is_in:country_code": "ET", "name": "Ale", "place": "locality", "source": "GeoDatabase"}}, {"type": "node", "id": 1150882600, "lat": 8.33333, "lon": 38.2, "tags": {"is_in:country": "Ethiopia", "is_in:country_code": "ET", "name": "Gutazer", "place": "locality", "source": "GeoDatabase"}}, {"type": "node", "id": 1150882944, "lat": 8.48333, "lon": 38.18333, "tags": {"is_in:country": "Ethiopia", "is_in:country_code": "ET", "name": "Toli", "place": "locality", "source": "GeoDatabase"}}, {"type": "node", "id": 1150883631, "lat": 8.48333, "lon": 38.11667, "tags": {"is_in:country": "Ethiopia", "is_in:country_code": "ET", "name": "Menisa", "place": "locality", "source": "GeoDatabase"}}, {"type": "node", "id": 1150884880, "lat": 8.4, "lon": 38.1, "tags": {"is_in:country": "Ethiopia", "is_in:country_code": "ET", "name": "Gora", "place": "locality", "source": "GeoDatabase"}}, {"type": "node", "id": 1150884921, "lat": 8.58333, "lon": 37.9, "tags": {"is_in:country": "Ethiopia", "is_in:country_code": "ET", "name": "Kono", "place": "locality", "source": "GeoDatabase"}}, {"type": "node", "id": 1150886879, "lat": 8.36667, "lon": 38.18333, "tags": {"is_in:country": "Ethiopia", "is_in:country_code": "ET", "name": "Egu", "place": "locality", "source": "GeoDatabase", "wikidata": "Q24031052"}}, {"type": "node", "id": 1150886907, "lat": 8.4, "lon": 38.23333, "tags": {"is_in:country": "Ethiopia", "is_in:country_code": "ET", "name": "Kokir", "place": "locality", "source": "GeoDatabase"}}, {"type": "node", "id": 1150887024, "lat": 8.56667, "lon": 37.96667, "tags": {"is_in:country": "Ethiopia", "is_in:country_code": "ET", "name": "Gute", "place": "locality", "source": "GeoDatabase"}}, {"type": "node", "id": 1150887937, "lat": 8.465268, "lon": 38.2538756, "tags": {"name": "Aleltu", "place": "town", "source": "GeoDatabase"}}, {"type": "node", "id": 1150888018, "lat": 8.56667, "lon": 38.23333, "tags": {"is_in:country": "Ethiopia", "is_in:country_code": "ET", "name": "T'Erego Shet'", "place": "locality", "source": "GeoDatabase"}}, {"type": "node", "id": 1150888250, "lat": 8.61667, "lon": 37.96667, "tags": {"is_in:country": "Ethiopia", "is_in:country_code": "ET", "name": "Tchitu", "place": "locality", "source": "GeoDatabase"}}, {"type": "node", "id": 1150892003, "lat": 8.36667, "lon": 38.11667, "tags": {"is_in:country": "Ethiopia", "is_in:country_code": "ET", "name": "Gong Shet'", "place": "locality", "source": "GeoDatabase", "wikidata": "Q23961989"}}, {"type": "node", "id": 1150892194, "lat": 8.4, "lon": 38.01667, "tags": {"is_in:country": "Ethiopia", "is_in:country_code": "ET", "name": "Menisa Shet'", "place": "locality", "source": "GeoDatabase"}}, {"type": "node", "id": 1150898494, "lat": 8.38333, "lon": 38.01667, "tags": {"is_in:country": "Ethiopia", "is_in:country_code": "ET", "name": "Ik'Uba", "place": "locality", "source": "GeoDatabase"}}, {"type": "node", "id": 1150898693, "lat": 8.6400784, "lon": 38.0511296, "tags": {"name": "Dilela", "name:am": "\u12f2\u1208\u120b", "place": "town", "source": "GPS"}}, {"type": "node", "id": 1150901102, "lat": 8.41667, "lon": 38.18333, "tags": {"is_in:country": "Ethiopia", "is_in:country_code": "ET", "name": "Ch'Anch'O", "place": "locality", "source": "GeoDatabase"}}, {"type": "node", "id": 1150902007, "lat": 8.31667, "lon": 38.23333, "tags": {"is_in:country": "Ethiopia", "is_in:country_code": "ET", "name": "Sefato", "place": "locality", "source": "GeoDatabase"}}, {"type": "node", "id": 1150902144, "lat": 8.33333, "lon": 38.25, "tags": {"is_in:country": "Ethiopia", "is_in:country_code": "ET", "name": "Gomra Shet'", "place": "locality", "source": "GeoDatabase", "wikidata": "Q23961999"}}, {"type": "node", "id": 1150902194, "lat": 8.53333, "lon": 38.15, "tags": {"is_in:country": "Ethiopia", "is_in:country_code": "ET", "name": "Garbo", "place": "locality", "source": "GeoDatabase"}}, {"type": "node", "id": 1150903387, "lat": 8.5, "lon": 38.05, "tags": {"is_in:country": "Ethiopia", "is_in:country_code": "ET", "name": "Weliso Bota", "place": "locality", "source": "GeoDatabase"}}, {"type": "node", "id": 1150903947, "lat": 8.31667, "lon": 37.96667, "tags": {"is_in:country": "Ethiopia", "is_in:country_code": "ET", "name": "Demeras", "place": "locality", "source": "GeoDatabase"}}, {"type": "node", "id": 1150904119, "lat": 8.48333, "lon": 37.91667, "tags": {"is_in:country": "Ethiopia", "is_in:country_code": "ET", "name": "Ch'Irecha Medhane `Alem Bete", "place": "locality", "source": "GeoDatabase"}}, {"type": "node", "id": 1150907001, "lat": 8.46667, "lon": 38.05, "tags": {"is_in:country": "Ethiopia", "is_in:country_code": "ET", "name": "Inch'Ini (2)", "place": "locality", "source": "GeoDatabase"}}, {"type": "node", "id": 1150907078, "lat": 8.5, "lon": 37.95, "tags": {"is_in:country": "Ethiopia", "is_in:country_code": "ET", "name": "Baykeda Maryam Bete Kristiyan", "place": "locality", "source": "GeoDatabase"}}, {"type": "node", "id": 1150910523, "lat": 8.53333, "lon": 38.2, "tags": {"is_in:country": "Ethiopia", "is_in:country_code": "ET", "name": "Debisa", "place": "locality", "source": "GeoDatabase"}}, {"type": "node", "id": 1150910667, "lat": 8.33333, "lon": 38.08333, "tags": {"is_in:country": "Ethiopia", "is_in:country_code": "ET", "name": "Agemjay", "place": "locality", "source": "GeoDatabase"}}, {"type": "node", "id": 1150912533, "lat": 8.41667, "lon": 37.96667, "tags": {"is_in:country": "Ethiopia", "is_in:country_code": "ET", "name": "Kilfo", "place": "locality", "source": "GeoDatabase"}}, {"type": "node", "id": 1150914846, "lat": 8.51667, "lon": 38.26667, "tags": {"is_in:country": "Ethiopia", "is_in:country_code": "ET", "name": "Tole (1)", "place": "locality", "source": "GeoDatabase"}}, {"type": "node", "id": 1150915658, "lat": 8.53333, "lon": 38.03333, "tags": {"is_in:country": "Ethiopia", "is_in:country_code": "ET", "name": "Geno", "place": "locality", "source": "GeoDatabase"}}, {"type": "node", "id": 1150918430, "lat": 8.38333, "lon": 37.86667, "tags": {"is_in:country": "Ethiopia", "is_in:country_code": "ET", "name": "Rifench'Ir", "place": "locality", "source": "GeoDatabase"}}, {"type": "node", "id": 1150921576, "lat": 8.38333, "lon": 38.13333, "tags": {"is_in:country": "Ethiopia", "is_in:country_code": "ET", "name": "Omamo Shet'", "place": "locality", "source": "GeoDatabase", "wikidata": "Q23961470"}}, {"type": "node", "id": 1150921929, "lat": 8.35, "lon": 38.2, "tags": {"is_in:country": "Ethiopia", "is_in:country_code": "ET", "name": "Oche", "place": "locality", "source": "GeoDatabase"}}, {"type": "node", "id": 1150922210, "lat": 8.41667, "lon": 38.01667, "tags": {"is_in:country": "Ethiopia", "is_in:country_code": "ET", "name": "Birbirsa", "place": "locality", "source": "GeoDatabase"}}, {"type": "node", "id": 1150924540, "lat": 8.61667, "lon": 38.2, "tags": {"is_in:country": "Ethiopia", "is_in:country_code": "ET", "name": "Alawak Shet'", "place": "locality", "source": "GeoDatabase"}}, {"type": "node", "id": 1150924812, "lat": 8.51667, "lon": 38.23333, "tags": {"is_in:country": "Ethiopia", "is_in:country_code": "ET", "name": "Adadi", "place": "locality", "source": "GeoDatabase"}}, {"type": "node", "id": 1150932270, "lat": 8.36667, "lon": 38.08333, "tags": {"is_in:country": "Ethiopia", "is_in:country_code": "ET", "name": "Gesa Bota", "place": "locality", "source": "GeoDatabase"}}, {"type": "node", "id": 1150933152, "lat": 8.33333, "lon": 38.03333, "tags": {"is_in:country": "Ethiopia", "is_in:country_code": "ET", "name": "Demacac", "place": "locality", "source": "GeoDatabase"}}, {"type": "node", "id": 1150937516, "lat": 8.48333, "lon": 38.15, "tags": {"is_in:country": "Ethiopia", "is_in:country_code": "ET", "name": "Lebu", "place": "locality", "source": "GeoDatabase"}}, {"type": "node", "id": 1150939476, "lat": 8.33333, "lon": 38.26667, "tags": {"is_in:country": "Ethiopia", "is_in:country_code": "ET", "name": "Gomra", "place": "locality", "source": "GeoDatabase"}}, {"type": "node", "id": 1150939806, "lat": 8.63333, "lon": 38.15, "tags": {"is_in:country": "Ethiopia", "is_in:country_code": "ET", "name": "Dese", "place": "locality", "source": "GeoDatabase"}}, {"type": "node", "id": 1150943911, "lat": 8.55, "lon": 38.05, "tags": {"is_in:country": "Ethiopia", "is_in:country_code": "ET", "name": "Monte Kombolata", "place": "locality", "source": "GeoDatabase"}}, {"type": "node", "id": 1150943971, "lat": 8.35, "lon": 37.98333, "tags": {"is_in:country": "Ethiopia", "is_in:country_code": "ET", "name": "Samaro Derek'", "place": "locality", "source": "GeoDatabase"}}, {"type": "node", "id": 1150944054, "lat": 8.38333, "lon": 37.91667, "tags": {"is_in:country": "Ethiopia", "is_in:country_code": "ET", "name": "Werebo", "place": "locality", "source": "GeoDatabase"}}, {"type": "node", "id": 1150944579, "lat": 8.31667, "lon": 38.0, "tags": {"is_in:country": "Ethiopia", "is_in:country_code": "ET", "name": "Ch'Anch'O", "place": "locality", "source": "GeoDatabase"}}, {"type": "node", "id": 1150944809, "lat": 8.51667, "lon": 37.86667, "tags": {"is_in:country": "Ethiopia", "is_in:country_code": "ET", "name": "Ch'Efe Bota", "place": "locality", "source": "GeoDatabase"}}, {"type": "node", "id": 1150954921, "lat": 8.56667, "lon": 37.98333, "tags": {"is_in:country": "Ethiopia", "is_in:country_code": "ET", "name": "Obi", "place": "locality", "source": "GeoDatabase"}}, {"type": "node", "id": 1150956244, "lat": 8.46667, "lon": 38.11667, "tags": {"is_in:country": "Ethiopia", "is_in:country_code": "ET", "name": "Sodo Bota", "place": "locality", "source": "GeoDatabase"}}, {"type": "node", "id": 1150957823, "lat": 8.6, "lon": 38.25, "tags": {"is_in:country": "Ethiopia", "is_in:country_code": "ET", "name": "Urago", "place": "locality", "source": "GeoDatabase"}}, {"type": "node", "id": 1150958252, "lat": 8.4, "lon": 38.05, "tags": {"is_in:country": "Ethiopia", "is_in:country_code": "ET", "name": "Hoho", "place": "locality", "source": "GeoDatabase"}}, {"type": "node", "id": 1150960491, "lat": 8.400467, "lon": 37.8687407, "tags": {"name": "\u130e\u1229 / Goru", "name:am": "\u130e\u1229", "name:en": "Goru", "name:fr": "Goru", "place": "town", "source": "GeoDatabase,GPS,Photo"}}, {"type": "node", "id": 1150962780, "lat": 8.35, "lon": 37.93333, "tags": {"is_in:country": "Ethiopia", "is_in:country_code": "ET", "name": "Goro", "place": "locality", "source": "GeoDatabase"}}, {"type": "node", "id": 1150963491, "lat": 8.36667, "lon": 38.15, "tags": {"is_in:country": "Ethiopia", "is_in:country_code": "ET", "name": "Gazham Shet'", "place": "locality", "source": "GeoDatabase", "wikidata": "Q23962147"}}, {"type": "node", "id": 1150963582, "lat": 8.4, "lon": 38.15, "tags": {"is_in:country": "Ethiopia", "is_in:country_code": "ET", "name": "Desa", "place": "locality", "source": "GeoDatabase"}}, {"type": "node", "id": 1150966109, "lat": 8.46667, "lon": 38.01667, "tags": {"is_in:country": "Ethiopia", "is_in:country_code": "ET", "name": "Shuna", "place": "locality", "source": "GeoDatabase"}}, {"type": "node", "id": 1150968827, "lat": 8.61667, "lon": 38.21667, "tags": {"is_in:country": "Ethiopia", "is_in:country_code": "ET", "name": "Gufti Gebri'El Bete Kristiyan", "place": "locality", "source": "GeoDatabase"}}, {"type": "node", "id": 1150969214, "lat": 8.53333, "lon": 38.23333, "tags": {"is_in:country": "Ethiopia", "is_in:country_code": "ET", "name": "Mudena", "place": "locality", "source": "GeoDatabase"}}, {"type": "node", "id": 1150974527, "lat": 8.36667, "lon": 38.1, "tags": {"is_in:country": "Ethiopia", "is_in:country_code": "ET", "name": "Jima Shet'", "place": "locality", "source": "GeoDatabase", "wikidata": "Q23961831"}}, {"type": "node", "id": 1150976499, "lat": 8.55, "lon": 38.1, "tags": {"is_in:country": "Ethiopia", "is_in:country_code": "ET", "name": "Maru", "place": "locality", "source": "GeoDatabase"}}, {"type": "node", "id": 1150981496, "lat": 8.48333, "lon": 38.16667, "tags": {"is_in:country": "Ethiopia", "is_in:country_code": "ET", "name": "Dobi", "place": "locality", "source": "GeoDatabase"}}, {"type": "node", "id": 1151003074, "lat": 8.46667, "lon": 38.23333, "tags": {"is_in:country": "Ethiopia", "is_in:country_code": "ET", "name": "Usman", "place": "locality", "source": "GeoDatabase"}}, {"type": "node", "id": 1151004901, "lat": 8.35, "lon": 38.05, "tags": {"is_in:country": "Ethiopia", "is_in:country_code": "ET", "name": "Wit'In", "place": "locality", "source": "GeoDatabase"}}, {"type": "node", "id": 1151004975, "lat": 8.4, "lon": 37.95, "tags": {"is_in:country": "Ethiopia", "is_in:country_code": "ET", "name": "Kono Shet'", "place": "locality", "source": "GeoDatabase"}}, {"type": "node", "id": 1415828839, "lat": 8.4924981, "lon": 38.1424005, "tags": {"name": "Gerbo", "place": "town"}}, {"type": "node", "id": 1415829273, "lat": 8.5394191, "lon": 38.2522763, "tags": {"name": "Sumbo", "place": "town"}}, {"type": "node", "id": 1415829395, "lat": 8.457415, "lon": 38.0840686, "tags": {"name": "Gorki", "place": "town"}}, {"type": "node", "id": 1973115079, "lat": 8.607964, "lon": 37.9237838, "tags": {"name": "Chitu", "place": "town"}}]}