{"version": 0.6, "generator": "Overpass API 0.7.62.1 084b4234", "osm3s": {"timestamp_osm_base": "2024-09-30T19:57:44Z", "copyright": "The data included in this document is from www.openstreetmap.org. The data is made available under ODbL."}, "elements": [{"type": "node", "id": 1404222407, "lat": 10.6525947, "lon": 49.7544332, "tags": {"alt_name": "Ufayn", "name": "Ufeyn", "pcode": "NC-3906-J06-001", "place": "village", "source": "UNDP - 2006, UNDP - 1997", "wikidata": "Q2056254"}}, {"type": "node", "id": 1404225390, "lat": 10.49976, "lon": 49.77446, "tags": {"fixme": "Please, check location!", "name": "Dawacaaley", "pcode": "NC-3906-N07-001", "place": "hamlet", "source": "UNDP - 2006"}}, {"type": "node", "id": 1404226453, "lat": 10.42582, "lon": 50.15267, "tags": {"alt_name": "Tulo Ise", "name": "Ciisse", "pcode": "NC-3906-P15-001", "place": "village", "source": "UNDP - 2006, FSAU"}}, {"type": "node", "id": 1404226621, "lat": 10.43477, "lon": 49.808651, "tags": {"name": "Meeladeen", "pcode": "NC-3906-P07-001", "place": "village", "source": "UNDP - 1997"}}, {"type": "node", "id": 1404227281, "lat": 10.474, "lon": 50.02046, "tags": {"alt_name": "Dharjaalle", "name": "Dharjaale", "pcode": "NC-3906-N12-001", "place": "village", "source": "UNDP - 2006, UNDP - 1997, FSAU"}}, {"type": "node", "id": 1404228420, "lat": 10.47836, "lon": 49.92773, "tags": {"fixme": "Please, check location!", "name": "Sheel Muruxle", "pcode": "NC-3906-N10-001", "place": "hamlet", "source": "UNDP - 2006"}}, {"type": "node", "id": 1404231590, "lat": 10.43442, "lon": 49.80895, "tags": {"name": "Dharoor", "pcode": "NC-3906-P07-002", "place": "village", "source": "UNDP - 2006"}}]}