{"version": 0.6, "generator": "Overpass API 0.7.62.1 084b4234", "osm3s": {"timestamp_osm_base": "2024-09-30T21:10:24Z", "copyright": "The data included in this document is from www.openstreetmap.org. The data is made available under ODbL."}, "elements": [{"type": "node", "id": 1404225671, "lat": 1.95085, "lon": 43.19458, "tags": {"alt_name": "Yaaqbaraway;Yakbarawey", "name": "Yaaq Braawe", "pcode": "NA-3809-B27-001", "place": "village", "source": "UNDP - 1997, FSAU"}}, {"type": "node", "id": 1404226038, "lat": 1.57341, "lon": 43.11845, "tags": {"name": "Maalimiinta", "pcode": "NA-3809-L25-002", "place": "hamlet", "source": "UNDP - 2006"}}, {"type": "node", "id": 1404228308, "lat": 1.56974, "lon": 43.11772, "tags": {"name": "Yaaq-Baraway", "pcode": "NA-3809-L25-001", "place": "hamlet", "source": "UNDP - 2006"}}, {"type": "node", "id": 1404228392, "lat": 1.618, "lon": 43.1306, "tags": {"name": "Kut Kapan", "pcode": "NA-3809-K25-001", "place": "hamlet", "source": "UNDP - 1997"}}, {"type": "node", "id": 1404229905, "lat": 1.9297, "lon": 43.301399, "tags": {"name": "Adeile", "pcode": "NA-3809-B29-001", "place": "village", "source": "UNDP - 1997"}}, {"type": "node", "id": 1404230811, "lat": 1.8813, "lon": 43.122299, "tags": {"name": "Hemin Gurei", "pcode": "NA-3809-C25-001", "place": "hamlet", "source": "UNDP - 1997"}}, {"type": "node", "id": 1404231263, "lat": 1.88403, "lon": 43.10757, "tags": {"name": "Omane", "pcode": "NA-3809-C25-002", "place": "hamlet", "source": "FSAU"}}, {"type": "node", "id": 1404232677, "lat": 1.81543, "lon": 43.115589, "tags": {"name": "Kadyow", "pcode": "NA-3809-E25-001", "place": "village", "source": "UNDP - 1997"}}, {"type": "node", "id": 1404233723, "lat": 1.967, "lon": 43.367199, "tags": {"name": "Af Ed", "pcode": "NA-3809-A31-001", "place": "village", "source": "UNDP - 1997"}}]}