{"version": 0.6, "generator": "Overpass API 0.7.62.1 084b4234", "osm3s": {"timestamp_osm_base": "2024-10-01T00:04:01Z", "copyright": "The data included in this document is from www.openstreetmap.org. The data is made available under ODbL."}, "elements": [{"type": "node", "id": 1150880943, "lat": 10.40639, "lon": 41.68305, "tags": {"name": "Habrad Shet'", "place": "locality", "source": "GeoDatabase"}}, {"type": "node", "id": 1150881778, "lat": 10.29111, "lon": 41.87, "tags": {"is_in:country": "Ethiopia", "is_in:country_code": "ET", "name": "Ali Shet'", "place": "locality", "source": "GeoDatabase"}}, {"type": "node", "id": 1150882979, "lat": 10.35, "lon": 41.85, "tags": {"name": "Addagliali", "place": "locality", "source": "GeoDatabase"}}, {"type": "node", "id": 1150885613, "lat": 10.19944, "lon": 41.70194, "tags": {"is_in:country": "Ethiopia", "is_in:country_code": "ET", "name": "Pianura Di Cantur", "place": "locality", "source": "GeoDatabase"}}, {"type": "node", "id": 1150886404, "lat": 10.39278, "lon": 41.9475, "tags": {"name": "Halbor Shet'", "place": "locality", "source": "GeoDatabase"}}, {"type": "node", "id": 1150897171, "lat": 10.60944, "lon": 41.72472, "tags": {"is_in:country": "Ethiopia", "is_in:country_code": "ET", "name": "Gurgur Hayk'", "place": "locality", "source": "GeoDatabase"}}, {"type": "node", "id": 1150902240, "lat": 10.38333, "lon": 41.81666, "tags": {"name": "Monte Kuffal Ali", "place": "locality", "source": "GeoDatabase"}}, {"type": "node", "id": 1150912717, "lat": 10.20389, "lon": 41.93111, "tags": {"is_in:country": "Ethiopia", "is_in:country_code": "ET", "name": "Tug Mille", "place": "locality", "source": "GeoDatabase"}}, {"type": "node", "id": 1150923227, "lat": 10.51361, "lon": 41.6375, "tags": {"name": "Gohad", "place": "locality", "source": "GeoDatabase"}}, {"type": "node", "id": 1150939631, "lat": 10.48694, "lon": 41.72694, "tags": {"is_in:country": "Ethiopia", "is_in:country_code": "ET", "name": "Gobe'A Terara", "place": "locality", "source": "GeoDatabase"}}, {"type": "node", "id": 1150940041, "lat": 10.3925, "lon": 41.90361, "tags": {"name": "Waref Hayk'", "place": "locality", "source": "GeoDatabase"}}, {"type": "node", "id": 1150943712, "lat": 10.58333, "lon": 41.61667, "tags": {"is_in:country": "Ethiopia", "is_in:country_code": "ET", "name": "Fialu", "place": "locality", "source": "GeoDatabase", "wikidata": "Q23962188"}}, {"type": "node", "id": 1150948431, "lat": 10.28333, "lon": 41.8, "tags": {"is_in:country": "Ethiopia", "is_in:country_code": "ET", "name": "Gaartali", "place": "locality", "source": "GeoDatabase"}}, {"type": "node", "id": 1150956445, "lat": 10.2, "lon": 41.93333, "tags": {"is_in:country": "Ethiopia", "is_in:country_code": "ET", "name": "Andobeck", "place": "locality", "source": "GeoDatabase"}}, {"type": "node", "id": 1150956468, "lat": 10.35, "lon": 41.96667, "tags": {"name": "Ben Shet'", "place": "locality", "source": "GeoDatabase", "wikidata": "Q23962740"}}, {"type": "node", "id": 1150967386, "lat": 10.5, "lon": 41.65, "tags": {"name": "Gelewi", "place": "locality", "source": "GeoDatabase"}}, {"type": "node", "id": 1151002869, "lat": 10.58333, "lon": 41.71667, "tags": {"is_in:country": "Ethiopia", "is_in:country_code": "ET", "name": "Dubaccoh", "place": "locality", "source": "GeoDatabase", "wikidata": "Q23962351"}}]}