{"version": 0.6, "generator": "Overpass API 0.7.62.1 084b4234", "osm3s": {"timestamp_osm_base": "2024-09-30T20:16:14Z", "copyright": "The data included in this document is from www.openstreetmap.org. The data is made available under ODbL."}, "elements": [{"type": "node", "id": 43528150, "lat": 9.1706823, "lon": 45.5375166, "tags": {"name": "Togdheer \u062a\u0648\u062c\u062f\u064a\u0631", "name:ar": "\u062a\u0648\u062c\u062f\u064a\u0631", "name:en": "Togdheer", "name:fr": "Togdheer", "name:ru": "\u0422\u043e\u0433\u0434\u0435\u0440", "place": "state", "ref": "TG", "state_code": "TG"}}, {"type": "node", "id": 1404222350, "lat": 8.876295, "lon": 45.576911, "tags": {"alt_name": "Warabeye", "name": "Waraabeeye", "pcode": "NC-3815-C13-001", "place": "village", "source": "UNDP - 2006, GTZ - 2002, UNDP - 1997"}}, {"type": "node", "id": 1404222574, "lat": 9.0262863, "lon": 45.6606665, "tags": {"alt_name": "Qeedi Haan", "name": "Geedi Haan", "pcode": "NC-3811-Z15-001", "place": "village", "source": "UNDP - 2006, GTZ - 2002, UNDP - 1997", "wikidata": "Q7267365"}}, {"type": "node", "id": 1404224148, "lat": 9.092402, "lon": 45.5779783, "tags": {"alt_name": "Lebi Guun;Lebi-Guun", "name": "Lebbi-Guun", "pcode": "NC-3811-X13-001", "place": "village", "source": "UNDP - 2006, GTZ - 2002"}}, {"type": "node", "id": 1404224636, "lat": 9.2116, "lon": 45.89144, "tags": {"name": "Galool Madobe", "name:en": "shyare", "pcode": "NC-3811-U20-002", "place": "hamlet", "source": "UNDP - 2006"}}, {"type": "node", "id": 1404225682, "lat": 8.978194, "lon": 45.782214, "tags": {"name": "Balli Abokor", "pcode": "NC-3815-A18-001", "place": "village", "source": "GTZ - 2002"}}, {"type": "node", "id": 1404226711, "lat": 9.26929, "lon": 45.74323, "tags": {"alt_name": "Kadhadda", "name": "Kadhada", "pcode": "NC-3811-T17-001", "place": "village", "source": "UNDP - 2006, GTZ - 2002"}}, {"type": "node", "id": 1404227391, "lat": 9.179665, "lon": 45.580224, "tags": {"alt_name": "Ballay Hiile", "name": "Balli Hiille", "pcode": "NC-3811-V13-001", "place": "village", "source": "UNDP - 2006, GTZ - 2002, UNDP - 1997"}}, {"type": "node", "id": 1404227435, "lat": 9.082599, "lon": 45.757571, "tags": {"alt_name": "Gumburlibaax", "name": "Gumbur Libaax", "pcode": "NC-3811-Y17-001", "place": "village", "source": "UNDP - 2006, GTZ - 2002, UNDP - 1997"}}, {"type": "node", "id": 1404228503, "lat": 9.2417317, "lon": 45.8540236, "tags": {"name": "Ina Dhakool", "pcode": "NC-3811-U19-001", "place": "village", "source": "UNDP - 2006, GTZ - 2002"}}, {"type": "node", "id": 1404228665, "lat": 9.0329, "lon": 45.552898, "tags": {"name": "Kundulah", "pcode": "NC-3811-Z13-002", "place": "village", "source": "UNDP - 1997"}}, {"type": "node", "id": 1404229171, "lat": 9.0062306, "lon": 45.5851473, "tags": {"name": "Sanyare", "pcode": "NC-3811-Z13-001", "place": "village", "source": "UNDP - 2006, GTZ - 2002, UNDP - 1997"}}, {"type": "node", "id": 1404230007, "lat": 8.9346925, "lon": 45.5789074, "tags": {"alt_name": "Bilcil-Wayso", "name": "Bilcilweyso", "pcode": "NC-3815-B13-001", "place": "village", "source": "UNDP - 2006, GTZ - 2002, UNDP - 1997"}}, {"type": "node", "id": 1404230732, "lat": 9.2674671, "lon": 45.5435217, "tags": {"alt_name": "Iskudhoon", "name": "Isku Dhoonka", "pcode": "NC-3811-T12-001", "place": "village", "source": "UNDP - 2006, GTZ - 2002, UNDP - 1997"}}, {"type": "node", "id": 1404231101, "lat": 9.166018, "lon": 45.729432, "tags": {"alt_name": "Naqdhabijo", "name": "Naqdhibiijo", "pcode": "NC-3811-W17-001", "place": "village", "source": "UNDP - 2006, GTZ - 2002, UNDP - 1997"}}, {"type": "node", "id": 1404231674, "lat": 9.30083, "lon": 45.59684, "tags": {"name": "Godorka", "pcode": "NC-3811-S14-001", "place": "village", "source": "UNDP - 2006, GTZ - 2002"}}, {"type": "node", "id": 1404231815, "lat": 9.2498, "lon": 45.880901, "tags": {"name": "Lebe Rare", "pcode": "NC-3811-U20-001", "place": "hamlet", "source": "UNDP - 1997"}}, {"type": "node", "id": 1404231945, "lat": 8.88481, "lon": 45.77149, "tags": {"name": "Gedihan", "pcode": "NC-3815-C17-002", "place": "village", "source": "FSAU"}}, {"type": "node", "id": 1404233226, "lat": 9.0479646, "lon": 45.8813719, "tags": {"alt_name": "Kal Qudhun", "name": "Kalqudhun", "pcode": "NC-3811-Y20-001", "place": "village", "source": "UNDP - 2006, GTZ - 2002"}}, {"type": "node", "id": 1404233527, "lat": 9.263822, "lon": 45.825652, "tags": {"alt_name": "Ununley", "name": "Unuunley", "pcode": "NC-3811-T19-001", "place": "village", "source": "UNDP - 2006, GTZ - 2002, UNDP - 1997"}}, {"type": "node", "id": 1404233535, "lat": 8.8841957, "lon": 45.7718321, "tags": {"alt_name": "Beelieeday;Beeli Reday", "name": "Beeli Eeday", "pcode": "NC-3815-C17-001", "place": "village", "source": "UNDP - 2006, GTZ - 2002, UNDP - 1997"}}, {"type": "node", "id": 1404233796, "lat": 8.963621, "lon": 45.721119, "tags": {"name": "Jaamac Liibaan", "pcode": "NC-3815-A16-001", "place": "village", "source": "UNDP - 2006, GTZ - 2002, UNDP - 1997"}}, {"type": "node", "id": 8941707327, "lat": 9.3007803, "lon": 45.7210714, "tags": {"place": "isolated_dwelling"}}, {"type": "node", "id": 8941915125, "lat": 9.1855023, "lon": 45.7258214, "tags": {"place": "hamlet"}}, {"type": "node", "id": 8941915477, "lat": 9.1829317, "lon": 45.75557, "tags": {"place": "hamlet"}}, {"type": "node", "id": 8941927472, "lat": 9.0759646, "lon": 45.6494942, "tags": {"place": "isolated_dwelling"}}, {"type": "node", "id": 8941927473, "lat": 9.0730481, "lon": 45.6429437, "tags": {"place": "isolated_dwelling"}}, {"type": "node", "id": 8941931335, "lat": 9.0722265, "lon": 45.6840759, "tags": {"place": "isolated_dwelling"}}, {"type": "node", "id": 8941931374, "lat": 9.0805292, "lon": 45.6943693, "tags": {"place": "isolated_dwelling"}}, {"type": "node", "id": 8942199500, "lat": 9.1114737, "lon": 45.8197057, "tags": {"place": "isolated_dwelling"}}, {"type": "node", "id": 8942253865, "lat": 9.2064467, "lon": 45.8218239, "tags": {"place": "isolated_dwelling"}}, {"type": "node", "id": 8942286219, "lat": 9.079678, "lon": 45.8053654, "tags": {"place": "isolated_dwelling"}}, {"type": "node", "id": 8943635154, "lat": 9.1855643, "lon": 45.7780391, "tags": {"place": "isolated_dwelling"}}, {"type": "node", "id": 8943675707, "lat": 8.9886596, "lon": 45.6960976, "tags": {"place": "isolated_dwelling"}}, {"type": "node", "id": 8943690262, "lat": 8.9793685, "lon": 45.7835497, "tags": {"place": "isolated_dwelling"}}, {"type": "node", "id": 8943692446, "lat": 9.0089465, "lon": 45.7813136, "tags": {"place": "isolated_dwelling"}}, {"type": "node", "id": 8944097503, "lat": 8.9561763, "lon": 45.6927752, "tags": {"place": "isolated_dwelling"}}, {"type": "node", "id": 8944107211, "lat": 8.948424, "lon": 45.6788427, "tags": {"place": "isolated_dwelling"}}, {"type": "node", "id": 8944110724, "lat": 9.0822625, "lon": 45.5874395, "tags": {"place": "isolated_dwelling"}}, {"type": "node", "id": 8944127433, "lat": 8.9659311, "lon": 45.6708684, "tags": {"place": "isolated_dwelling"}}, {"type": "node", "id": 8950783067, "lat": 8.9538161, "lon": 45.8078885, "tags": {"place": "isolated_dwelling"}}, {"type": "node", "id": 8950846616, "lat": 8.9503728, "lon": 45.7988554, "tags": {"place": "isolated_dwelling"}}, {"type": "node", "id": 8950852237, "lat": 8.9488493, "lon": 45.7929313, "tags": {"place": "isolated_dwelling"}}, {"type": "node", "id": 8950852295, "lat": 8.9561733, "lon": 45.7912117, "tags": {"place": "hamlet"}}, {"type": "node", "id": 8950852376, "lat": 8.9566789, "lon": 45.7981637, "tags": {"place": "hamlet"}}, {"type": "node", "id": 8950852465, "lat": 8.9681298, "lon": 45.7798737, "tags": {"place": "isolated_dwelling"}}, {"type": "node", "id": 8950852486, "lat": 8.9714713, "lon": 45.7855132, "tags": {"place": "isolated_dwelling"}}, {"type": "node", "id": 8950879618, "lat": 8.9670651, "lon": 45.7493055, "tags": {"place": "hamlet"}}, {"type": "node", "id": 8951095975, "lat": 8.8765226, "lon": 45.6715286, "tags": {"place": "hamlet"}}, {"type": "node", "id": 8951410086, "lat": 8.9148753, "lon": 45.7214418, "tags": {"place": "isolated_dwelling"}}, {"type": "node", "id": 8951418052, "lat": 8.876118, "lon": 45.6880194, "tags": {"place": "isolated_dwelling"}}, {"type": "node", "id": 8951418109, "lat": 8.8876571, "lon": 45.6951945, "tags": {"place": "hamlet"}}, {"type": "node", "id": 8951418163, "lat": 8.8888572, "lon": 45.7090661, "tags": {"place": "hamlet"}}, {"type": "node", "id": 8951435723, "lat": 8.8946011, "lon": 45.7333076, "tags": {"place": "isolated_dwelling"}}, {"type": "node", "id": 8971390986, "lat": 8.9036926, "lon": 45.8119872, "tags": {"place": "hamlet"}}, {"type": "node", "id": 8972571347, "lat": 8.9053344, "lon": 45.7907673, "tags": {"place": "isolated_dwelling"}}, {"type": "node", "id": 8972571370, "lat": 8.9058636, "lon": 45.82435, "tags": {"place": "isolated_dwelling"}}, {"type": "node", "id": 8972571389, "lat": 8.9059741, "lon": 45.8316293, "tags": {"place": "isolated_dwelling"}}, {"type": "node", "id": 8972571412, "lat": 8.9067215, "lon": 45.8366524, "tags": {"place": "isolated_dwelling"}}, {"type": "node", "id": 8972576753, "lat": 8.9098313, "lon": 45.8392632, "tags": {"place": "isolated_dwelling"}}, {"type": "node", "id": 8972576774, "lat": 8.9115486, "lon": 45.8703316, "tags": {"place": "isolated_dwelling"}}, {"type": "node", "id": 8972576805, "lat": 8.9114312, "lon": 45.8862065, "tags": {"place": "isolated_dwelling"}}, {"type": "node", "id": 8979956105, "lat": 8.9855469, "lon": 45.8167641, "tags": {"place": "isolated_dwelling"}}, {"type": "node", "id": 8979971951, "lat": 8.9202936, "lon": 45.8004128, "tags": {"place": "isolated_dwelling"}}, {"type": "node", "id": 8979989826, "lat": 8.9227301, "lon": 45.7833784, "tags": {"place": "isolated_dwelling"}}, {"type": "node", "id": 8979989926, "lat": 8.9394984, "lon": 45.7787276, "tags": {"place": "isolated_dwelling"}}, {"type": "node", "id": 8979989997, "lat": 8.9520811, "lon": 45.7712644, "tags": {"place": "isolated_dwelling"}}, {"type": "node", "id": 8979990014, "lat": 8.921396, "lon": 45.7888523, "tags": {"place": "hamlet"}}, {"type": "node", "id": 8979990107, "lat": 8.9579076, "lon": 45.7281147, "tags": {"place": "isolated_dwelling"}}, {"type": "node", "id": 8979990123, "lat": 8.9486667, "lon": 45.7353517, "tags": {"place": "isolated_dwelling"}}, {"type": "node", "id": 8979991789, "lat": 8.9610597, "lon": 45.869669, "tags": {"place": "isolated_dwelling"}}, {"type": "node", "id": 8980017593, "lat": 8.9444139, "lon": 45.8768368, "tags": {"place": "isolated_dwelling"}}, {"type": "node", "id": 8980018443, "lat": 8.9390019, "lon": 45.8814925, "tags": {"place": "isolated_dwelling"}}, {"type": "node", "id": 8980043477, "lat": 8.9944685, "lon": 45.8737306, "tags": {"place": "isolated_dwelling"}}, {"type": "node", "id": 8980872901, "lat": 9.0315958, "lon": 45.8641962, "tags": {"place": "isolated_dwelling"}}, {"type": "node", "id": 8983008092, "lat": 9.0001405, "lon": 45.844485, "tags": {"place": "isolated_dwelling"}}]}