{"version": 0.6, "generator": "Overpass API 0.7.62.1 084b4234", "osm3s": {"timestamp_osm_base": "2024-09-30T23:59:05Z", "copyright": "The data included in this document is from www.openstreetmap.org. The data is made available under ODbL."}, "elements": [{"type": "node", "id": 1150880691, "lat": 6.32806, "lon": 42.31666, "tags": {"is_in:country": "Ethiopia", "is_in:country_code": "ET", "name": "Wara Reb", "place": "locality", "source": "GeoDatabase", "wikidata": "Q23963245"}}, {"type": "node", "id": 1150882544, "lat": 6.4662944, "lon": 42.1752739, "tags": {"name": "Iimeey Bari", "name:ar": "\u0625\u064a\u0645\u064a \u0627\u0644\u0634\u0631\u0642\u064a\u0629", "name:en": "East Imi", "name:so": "Iimeey Bari", "place": "town", "source": "GeoDatabase"}}, {"type": "node", "id": 1150883629, "lat": 6.29028, "lon": 42.39278, "tags": {"is_in:country": "Ethiopia", "is_in:country_code": "ET", "name": "Dobi", "place": "locality", "source": "GeoDatabase", "wikidata": "Q23963236"}}, {"type": "node", "id": 1150891242, "lat": 6.49944, "lon": 42.13361, "tags": {"is_in:country": "Ethiopia", "is_in:country_code": "ET", "name": "Buileesh", "place": "locality", "source": "GeoDatabase"}}, {"type": "node", "id": 1150901901, "lat": 6.35917, "lon": 42.29222, "tags": {"is_in:country": "Ethiopia", "is_in:country_code": "ET", "name": "Jelmoy", "place": "locality", "source": "GeoDatabase"}}, {"type": "node", "id": 1150910474, "lat": 6.4385149, "lon": 42.2170204, "tags": {"is_in:country": "Ethiopia", "is_in:country_code": "ET", "name": "Gongo", "place": "locality", "source": "GeoDatabase"}}, {"type": "node", "id": 1150920787, "lat": 6.34889, "lon": 42.26389, "tags": {"is_in:country": "Ethiopia", "is_in:country_code": "ET", "name": "Dibugur", "place": "locality", "source": "GeoDatabase"}}, {"type": "node", "id": 1150938471, "lat": 6.37556, "lon": 42.27944, "tags": {"is_in:country": "Ethiopia", "is_in:country_code": "ET", "name": "Unsili", "place": "locality", "source": "GeoDatabase"}}, {"type": "node", "id": 1150947679, "lat": 6.35278, "lon": 42.33111, "tags": {"is_in:country": "Ethiopia", "is_in:country_code": "ET", "name": "Melka Harrie", "place": "locality", "source": "GeoDatabase"}}, {"type": "node", "id": 1150951295, "lat": 6.457509, "lon": 42.13912, "tags": {"name": "Iimeey Galbeed", "name:ar": "\u0625\u064a\u0645\u064a \u0627\u0644\u063a\u0631\u0628\u064a\u0629", "name:en": "West Imi", "name:so": "Iimeey Galbeed", "place": "town", "source": "GeoDatabase"}}, {"type": "node", "id": 1150951504, "lat": 6.5, "lon": 42.11667, "tags": {"is_in:country": "Ethiopia", "is_in:country_code": "ET", "name": "Malca Cereccio", "place": "locality", "source": "GeoDatabase", "wikidata": "Q24031739"}}, {"type": "node", "id": 1150956225, "lat": 6.15194, "lon": 42.36806, "tags": {"is_in:country": "Ethiopia", "is_in:country_code": "ET", "name": "Lukun", "place": "locality", "source": "GeoDatabase", "wikidata": "Q24032469"}}, {"type": "node", "id": 1150973558, "lat": 6.47139, "lon": 42.13389, "tags": {"is_in:country": "Ethiopia", "is_in:country_code": "ET", "name": "Dauil", "place": "locality", "source": "GeoDatabase", "wikidata": "Q23963265"}}]}