{"version": 0.6, "generator": "Overpass API 0.7.62.1 084b4234", "osm3s": {"timestamp_osm_base": "2024-09-30T23:57:58Z", "copyright": "The data included in this document is from www.openstreetmap.org. The data is made available under ODbL."}, "elements": [{"type": "node", "id": 1150955533, "lat": 6.17556, "lon": 45.64389, "tags": {"is_in:country_code": "ET", "is_in:county": "Ethiopia", "name": "Bali God", "place": "locality", "source": "GeoDatabase"}}, {"type": "node", "id": 10224731545, "lat": 6.2166284, "lon": 45.349012, "tags": {"name": "Kunaso", "place": "village"}}, {"type": "node", "id": 10224731558, "lat": 6.5158298, "lon": 45.6478153, "tags": {"alt_name": "Bali Jibra'il, Bali Jibraa'iil", "name": "Bali Jibrail", "place": "village", "waterway": "water_point"}}, {"type": "node", "id": 10244202769, "lat": 6.1588955, "lon": 45.4808885, "tags": {"name": "Juge", "place": "village"}}, {"type": "node", "id": 10244335701, "lat": 6.4148008, "lon": 45.5115137, "tags": {"alt_name": "Elbahi", "ele": "560", "name": "El Bahay Hill", "natural": "peak", "old_name": "Gureharago", "place": "locality"}}, {"type": "node", "id": 10296264752, "lat": 6.40544, "lon": 45.6283459, "tags": {"alt_name": "Eldibe", "ele": "559", "name": "El Dibir Hill", "natural": "peak", "place": "locality"}}, {"type": "node", "id": 10310207110, "lat": 6.1759053, "lon": 45.2987117, "tags": {"alt_name": "Fadhigaraadle", "name": "Fadhigaradle", "place": "town", "waterway": "water_point"}}, {"type": "node", "id": 10310207113, "lat": 6.3469953, "lon": 45.4780486, "tags": {"alt_name": "Ceel Baxay", "name": "El Bahay", "old_name": "Gurueragu", "place": "village", "waterway": "water_point"}}, {"type": "node", "id": 10310207122, "lat": 6.2555014, "lon": 45.3849761, "tags": {"alt_name": "Laasocaanood;Laasacaano;Laasocaano", "name": "Lasoano", "place": "town", "waterway": "water_point"}}, {"type": "node", "id": 10310207125, "lat": 6.4166029, "lon": 45.5751717, "tags": {"alt_name": "Ceel Dibir;Ceel-Dibir;Eldibir;Eldiber;Eldibe", "name": "El Dibir", "place": "village"}}, {"type": "node", "id": 11261776241, "lat": 6.4048187, "lon": 45.6533744, "tags": {"alt_name": "Dhigdhiko", "name": "Digdiko", "place": "village"}}, {"type": "node", "id": 11612938022, "lat": 6.266226, "lon": 45.6362819, "tags": {"alt_name": "Ina Jaamac Mire", "name": "Ina Jama Mire", "place": "village"}}]}