{"version": 0.6, "generator": "Overpass API 0.7.62.1 084b4234", "osm3s": {"timestamp_osm_base": "2024-09-30T17:42:26Z", "copyright": "The data included in this document is from www.openstreetmap.org. The data is made available under ODbL."}, "elements": [{"type": "node", "id": 44915200, "lat": -0.3889862, "lon": 35.011536, "tags": {"name": "Sondu", "place": "town", "wikidata": "Q7560913", "wikipedia": "en:Sondu"}}, {"type": "node", "id": 45005211, "lat": -0.3333, "lon": 35.0, "tags": {"name": "Assawa", "place": "neighbourhood", "wikidata": "Q4808613"}}, {"type": "node", "id": 1180528044, "lat": -0.3110226, "lon": 34.9353592, "tags": {"name": "Pap Onditi", "place": "town"}}, {"type": "node", "id": 2870116143, "lat": -0.2705825, "lon": 34.9721492, "tags": {"place": "village"}}, {"type": "node", "id": 5107217560, "lat": -0.3272674, "lon": 34.8527612, "tags": {"name": "Kolweny", "place": "village"}}, {"type": "node", "id": 5974702948, "lat": -0.2691645, "lon": 34.9649674}, {"type": "node", "id": 5974702949, "lat": -0.2606888, "lon": 34.9683791}, {"type": "node", "id": 5974702950, "lat": -0.268199, "lon": 34.9820691}, {"type": "node", "id": 5974702951, "lat": -0.2698297, "lon": 34.9857599}, {"type": "node", "id": 5974702952, "lat": -0.2728767, "lon": 34.9906307}, {"type": "node", "id": 5974702953, "lat": -0.2786487, "lon": 34.9860603}, {"type": "node", "id": 5974702954, "lat": -0.284807, "lon": 34.9794942}, {"type": "node", "id": 5974702955, "lat": -0.2832621, "lon": 34.9698168}, {"type": "node", "id": 5974702956, "lat": -0.2762026, "lon": 34.9541098}, {"type": "node", "id": 5974702957, "lat": -0.2753657, "lon": 34.9544317}, {"type": "node", "id": 7437130535, "lat": -0.3030162, "lon": 34.7884803, "tags": {"name": "Obange", "place": "hamlet"}}, {"type": "node", "id": 7437135930, "lat": -0.3110949, "lon": 34.777612, "tags": {"name": "Nyadina", "place": "hamlet"}}, {"type": "node", "id": 7437136165, "lat": -0.3315282, "lon": 34.8179066, "tags": {"name": "Sango Buru", "place": "hamlet"}}, {"type": "node", "id": 7437148491, "lat": -0.3014565, "lon": 34.7941668, "tags": {"name": "Sango Rota", "place": "hamlet"}}, {"type": "node", "id": 7437151118, "lat": -0.3476582, "lon": 34.7851785}, {"type": "node", "id": 7437151119, "lat": -0.3474222, "lon": 34.7868522}, {"type": "node", "id": 7437151120, "lat": -0.3467999, "lon": 34.7881504}, {"type": "node", "id": 7437151121, "lat": -0.3458021, "lon": 34.7894808}, {"type": "node", "id": 7437151122, "lat": -0.3461025, "lon": 34.7905858}, {"type": "node", "id": 7437151123, "lat": -0.3465424, "lon": 34.7911116}, {"type": "node", "id": 7437151124, "lat": -0.3471003, "lon": 34.7910794}, {"type": "node", "id": 7437151125, "lat": -0.3486452, "lon": 34.7911759}, {"type": "node", "id": 7437151126, "lat": -0.3492353, "lon": 34.7913476}, {"type": "node", "id": 7437151127, "lat": -0.3497074, "lon": 34.79153}, {"type": "node", "id": 7437151128, "lat": -0.3505227, "lon": 34.7905751}, {"type": "node", "id": 7437151129, "lat": -0.3523788, "lon": 34.7897168}, {"type": "node", "id": 7437151130, "lat": -0.3525934, "lon": 34.7887512}, {"type": "node", "id": 7437151131, "lat": -0.3527328, "lon": 34.78682}, {"type": "node", "id": 7437151132, "lat": -0.3502974, "lon": 34.7855111}, {"type": "node", "id": 7437151133, "lat": -0.3486989, "lon": 34.7852643}, {"type": "node", "id": 7437153356, "lat": -0.3307927, "lon": 34.7710755, "tags": {"name": "Osodo", "place": "hamlet"}}, {"type": "node", "id": 7437166490, "lat": -0.3510484, "lon": 34.7663762, "tags": {"name": "Kobala", "place": "hamlet"}}, {"type": "node", "id": 8988367510, "lat": -0.3350997, "lon": 34.825304, "tags": {"fixme": "Exact outline unknown.", "name": "Kong'ou", "place": "village"}}, {"type": "node", "id": 9002149058, "lat": -0.3285117, "lon": 34.9027993, "tags": {"name": "Ragen", "place": "village"}}, {"type": "node", "id": 9007609900, "lat": -0.3652685, "lon": 34.9001936, "tags": {"name": "West Kadiang'a", "place": "neighbourhood"}}, {"type": "node", "id": 9852834107, "lat": -0.311608, "lon": 34.9592027, "tags": {"name": "KOSWAGO UPPER", "place": "village"}}, {"type": "node", "id": 9852834108, "lat": -0.3230436, "lon": 34.9518056, "tags": {"name": "CENTRAL KACHAN", "place": "village"}}, {"type": "node", "id": 9852834109, "lat": -0.3179024, "lon": 34.9291177, "tags": {"name": "UPPER KONDITI", "place": "village"}}, {"type": "node", "id": 9852834110, "lat": -0.3112078, "lon": 34.9421115, "tags": {"name": "KOSWAGO LOWER", "place": "village"}}, {"type": "node", "id": 9852834111, "lat": -0.3348582, "lon": 34.9915901, "tags": {"name": "Dol", "place": "village"}}, {"type": "node", "id": 9852834112, "lat": -0.335443, "lon": 35.0000146, "tags": {"Village": "THIM", "name": "Thim", "place": "neighbourhood"}}, {"type": "node", "id": 9852834113, "lat": -0.3327387, "lon": 34.9891202, "tags": {"name": "Achiya", "place": "village"}}, {"type": "node", "id": 9852834115, "lat": -0.3190238, "lon": 34.9544367, "tags": {"name": "LOWER KACHAN", "place": "village"}}, {"type": "node", "id": 9852834116, "lat": -0.3061766, "lon": 34.9455782, "tags": {"name": "KOGOLA KOJOUNDO", "place": "village"}}, {"type": "node", "id": 9852853717, "lat": -0.3024542, "lon": 34.9566667, "tags": {"name": "KOLAL BORDER", "place": "village"}}, {"type": "node", "id": 9852853718, "lat": -0.2988053, "lon": 34.9420639, "tags": {"name": "KOLAL LOWER", "place": "village"}}, {"type": "node", "id": 9852853719, "lat": -0.3047373, "lon": 34.9677491, "tags": {"name": "KOGOLA CENTRAL", "place": "village"}}, {"type": "node", "id": 9852853720, "lat": -0.3111991, "lon": 34.9799291, "tags": {"name": "KOGOLA UPPER", "place": "village"}}, {"type": "node", "id": 9852853721, "lat": -0.3136364, "lon": 34.8584045, "tags": {"name": "Ajore", "place": "village"}}, {"type": "node", "id": 9852853722, "lat": -0.3239697, "lon": 34.9875939, "tags": {"name": "Kogada/Lower Kinda Kabol", "place": "village"}}, {"type": "node", "id": 9852853723, "lat": -0.288738, "lon": 34.8882914, "tags": {"name": "Yano", "place": "village"}}, {"type": "node", "id": 9852853724, "lat": -0.3247319, "lon": 34.8965665, "tags": {"name": "Kameso", "place": "village"}}, {"type": "node", "id": 9852853725, "lat": -0.3262328, "lon": 34.9031007, "tags": {"name": "Widbondo", "place": "village"}}, {"type": "node", "id": 9852853726, "lat": -0.3197966, "lon": 34.8962001, "tags": {"name": "KADIPO 'B'", "place": "village"}}, {"type": "node", "id": 9852853727, "lat": -0.3169538, "lon": 34.9070051, "tags": {"name": "OYAMO LOWER", "place": "village"}}, {"type": "node", "id": 9852853728, "lat": -0.3246281, "lon": 34.892264, "tags": {"name": "Ragen Scheme", "place": "village"}}, {"type": "node", "id": 9852853729, "lat": -0.3157501, "lon": 34.8951589, "tags": {"name": "Kadipo", "place": "village"}}, {"type": "node", "id": 9852853730, "lat": -0.3254463, "lon": 34.9091748, "tags": {"name": "KARABUON", "place": "village"}}, {"type": "node", "id": 9852853731, "lat": -0.3189599, "lon": 34.9167227, "tags": {"name": "KANYANGO LOWER", "place": "village"}}, {"type": "node", "id": 9852853732, "lat": -0.3397404, "lon": 34.9130225, "tags": {"name": "PENDO", "place": "village"}}, {"type": "node", "id": 9852853733, "lat": -0.3354055, "lon": 34.9033085, "tags": {"name": "Kojwondo", "place": "village"}}, {"type": "node", "id": 9852853734, "lat": -0.3390713, "lon": 34.9175916, "tags": {"name": "AWINO OSEDO/NYAILA", "place": "village"}}, {"type": "node", "id": 9852853735, "lat": -0.3301931, "lon": 34.9161038, "tags": {"name": "NYAKECH/AHONO", "place": "village"}}, {"type": "node", "id": 9852853736, "lat": -0.3300458, "lon": 34.910437, "tags": {"name": "KOLOO /OLWALO", "place": "village"}}, {"type": "node", "id": 9852853737, "lat": -0.3321802, "lon": 34.920618, "tags": {"name": "WANDA LOWER/OLWALO 'C'", "place": "village"}}, {"type": "node", "id": 9852853738, "lat": -0.3420985, "lon": 34.9224657, "tags": {"name": "WANDA UPPER/CENTRAL WANDA", "place": "village"}}, {"type": "node", "id": 9852853740, "lat": -0.3106533, "lon": 34.8874523, "tags": {"name": "RAGEN EAST /WEST", "place": "village"}}, {"type": "node", "id": 9852853742, "lat": -0.3081544, "lon": 34.8728241, "tags": {"name": "BUGO-LOWER", "place": "village"}}, {"type": "node", "id": 9852853743, "lat": -0.3020987, "lon": 34.8623996, "tags": {"name": "Withur", "place": "village"}}, {"type": "node", "id": 9852853744, "lat": -0.2989114, "lon": 34.8673692, "tags": {"name": "LAK-ONGIRO", "place": "village"}}, {"type": "node", "id": 9852853745, "lat": -0.3062111, "lon": 34.8535054, "tags": {"name": "Ongajo", "place": "village"}}, {"type": "node", "id": 9852853746, "lat": -0.3198443, "lon": 34.8717696, "tags": {"name": "Radienya", "place": "village"}}, {"type": "node", "id": 9852853747, "lat": -0.3140975, "lon": 34.8688192, "tags": {"name": "Upper Bugo", "place": "village"}}, {"type": "node", "id": 9852853748, "lat": -0.3193804, "lon": 34.8629358, "tags": {"name": "UPPER KUSA", "place": "neighbourhood"}}, {"type": "node", "id": 9852853749, "lat": -0.3251904, "lon": 34.8746351, "tags": {"name": "Bur Kamwana", "place": "village"}}, {"type": "node", "id": 9852853750, "lat": -0.3359942, "lon": 34.9825306, "tags": {"name": "Ligusa", "place": "village"}}, {"type": "node", "id": 9852853751, "lat": -0.3356635, "lon": 34.9752563, "tags": {"name": "Soko", "place": "village"}}, {"type": "node", "id": 9852853752, "lat": -0.3275417, "lon": 34.8848817, "tags": {"name": "Ogilo Komulo", "place": "village"}}, {"type": "node", "id": 9852853753, "lat": -0.3207106, "lon": 34.8881925, "tags": {"name": "KOCHIENG' ODONGO", "place": "village"}}, {"type": "node", "id": 9852853754, "lat": -0.3222216, "lon": 34.8828292, "tags": {"name": "Lumbwa", "place": "village"}}, {"type": "node", "id": 9852853755, "lat": -0.3031972, "lon": 34.9210892, "tags": {"name": "LOWER KONDITI", "place": "village"}}, {"type": "node", "id": 9852853756, "lat": -0.299437, "lon": 34.903794, "tags": {"name": "KINDA CENTRAL / LOWER", "place": "village"}}, {"type": "node", "id": 9852853757, "lat": -0.2997586, "lon": 34.9478827, "tags": {"name": "KOLAL CENTRAL", "place": "village"}}, {"type": "node", "id": 9852853758, "lat": -0.3146084, "lon": 34.9226802, "tags": {"name": "KANYANGO CENTRAL", "place": "village"}}, {"type": "node", "id": 9852853759, "lat": -0.312925, "lon": 34.9687577, "tags": {"name": "KAGUTU/KAJIMBO", "place": "village"}}, {"type": "node", "id": 9852853760, "lat": -0.330313, "lon": 34.9888328, "tags": {"name": "Kogada Central", "place": "village"}}, {"type": "node", "id": 9852853762, "lat": -0.3263673, "lon": 34.9820848, "tags": {"name": "KODUM UPPER", "place": "village"}}, {"type": "node", "id": 9852853763, "lat": -0.3159608, "lon": 34.9546865, "tags": {"name": "KOLAL MANYATTA", "place": "village"}}, {"type": "node", "id": 9852853764, "lat": -0.3192958, "lon": 34.9749427, "tags": {"name": "KOKUMU EAST 'B'", "place": "village"}}, {"type": "node", "id": 9852853765, "lat": -0.3183402, "lon": 34.9819822, "tags": {"name": "KOKUM LOWER", "place": "village"}}, {"type": "node", "id": 9852853766, "lat": -0.3204369, "lon": 34.9669025, "tags": {"name": "KOKUMU CENTRAL", "place": "village"}}, {"type": "node", "id": 9852853767, "lat": -0.3267702, "lon": 34.97305, "tags": {"name": "KOKUMU EAST 'A'", "place": "village"}}, {"type": "node", "id": 9852853768, "lat": -0.323214, "lon": 34.9619906, "tags": {"name": "KOKUMU WEST", "place": "village"}}, {"type": "node", "id": 9852853769, "lat": -0.3349959, "lon": 34.9665849, "tags": {"name": "KOKUMU UPPER A& B", "place": "village"}}, {"type": "node", "id": 9852853770, "lat": -0.3164674, "lon": 34.9439648, "tags": {"name": "KAGUTU ANGIELA", "place": "village"}}, {"type": "node", "id": 9852853771, "lat": -0.3351947, "lon": 34.9511598, "tags": {"name": "UPPER KACHAN/UPPER KATIANG", "place": "village"}}, {"type": "node", "id": 9852853772, "lat": -0.3335648, "lon": 34.9446695, "tags": {"name": "MICHURA", "place": "village"}}, {"type": "node", "id": 9852853773, "lat": -0.3247634, "lon": 34.9352097, "tags": {"name": "KANYAKORE", "place": "village"}}, {"type": "node", "id": 9852853774, "lat": -0.3178527, "lon": 34.9339481, "tags": {"name": "KOLAL /OMONDO/KATIANG", "place": "village"}}, {"type": "node", "id": 9852853775, "lat": -0.3235965, "lon": 34.9403783, "tags": {"name": "KASERE", "place": "village"}}, {"type": "node", "id": 9852853776, "lat": -0.3393784, "lon": 34.9361162, "tags": {"name": "KANYANGO UPPER", "place": "village"}}, {"type": "node", "id": 9852853777, "lat": -0.3260857, "lon": 34.9268236, "tags": {"name": "OYAMO UPPER", "place": "village"}}, {"type": "node", "id": 9852853778, "lat": -0.3390515, "lon": 34.9284301, "tags": {"name": "KOKUMU/KINDA/UPPER KAUGWA", "place": "village"}}, {"type": "node", "id": 9852853779, "lat": -0.3262007, "lon": 34.9219582, "tags": {"name": "KOLAL", "place": "village"}}, {"type": "node", "id": 9852853780, "lat": -0.3144391, "lon": 34.8489641, "tags": {"name": "LUSA LOWER/BUGO CENTRAL", "place": "neighbourhood"}}, {"type": "node", "id": 9852853781, "lat": -0.3178535, "lon": 34.8428121, "tags": {"name": "Obugi", "place": "neighbourhood"}}, {"type": "node", "id": 9852990437, "lat": -0.2905861, "lon": 34.9435072, "tags": {"name": "KOCHOLA WEST", "place": "village"}}, {"type": "node", "id": 9852990438, "lat": -0.2920268, "lon": 34.9506722, "tags": {"name": "KOWINYO NORTH", "place": "village"}}, {"type": "node", "id": 9852990439, "lat": -0.2859092, "lon": 34.9606803, "tags": {"name": "KANYAGO NORTH/CENTRAL", "place": "village"}}, {"type": "node", "id": 9852990440, "lat": -0.2827292, "lon": 34.967438, "tags": {"name": "KANYAGO EAST", "place": "village"}}, {"type": "node", "id": 9852990441, "lat": -0.2891076, "lon": 34.9592165, "tags": {"name": "KANYAGO WEST", "place": "village"}}, {"type": "node", "id": 9852990442, "lat": -0.2938225, "lon": 34.9581691, "tags": {"name": "KACHOLA CENTRAL", "place": "village"}}, {"type": "node", "id": 9852990443, "lat": -0.2733885, "lon": 34.9691344, "tags": {"name": "KANYIBANA KOWIRE V", "place": "village"}}, {"type": "node", "id": 9852990444, "lat": -0.272652, "lon": 34.9707526, "tags": {"name": "KANYIBANA KOWIRE IV", "place": "village"}}, {"type": "node", "id": 9852990445, "lat": -0.2653094, "lon": 34.9687556, "tags": {"name": "KANYIBANA KATITO 'A'II", "place": "village"}}, {"type": "node", "id": 9852990446, "lat": -0.2727578, "lon": 34.9718191, "tags": {"name": "KANYIBANA KOWIRE III", "place": "village"}}, {"type": "node", "id": 9852990447, "lat": -0.2724738, "lon": 34.9724694, "tags": {"name": "KANYIBANA KOWIRE II", "place": "village"}}, {"type": "node", "id": 9852990448, "lat": -0.27219, "lon": 34.9734852, "tags": {"name": "KANYIBANA KOWIRE I", "place": "village"}}, {"type": "node", "id": 9852990449, "lat": -0.2685596, "lon": 34.9735241, "tags": {"name": "KANYIBANA KATITO 'C'I", "place": "village"}}, {"type": "node", "id": 9852990450, "lat": -0.2697721, "lon": 34.9759404, "tags": {"name": "KANYIBANA KATITO 'C'II", "place": "village"}}, {"type": "node", "id": 9852990451, "lat": -0.2628633, "lon": 34.9699362, "tags": {"name": "KANYIBANA KATITO 'B'I", "place": "village"}}, {"type": "node", "id": 9852990452, "lat": -0.2633471, "lon": 34.9730464, "tags": {"name": "KANYIBANA KATITO 'B'II", "place": "village"}}, {"type": "node", "id": 9852990453, "lat": -0.2672639, "lon": 34.9665106, "tags": {"name": "KANYIBANA KATITO 'A'I", "place": "village"}}, {"type": "node", "id": 9852990454, "lat": -0.2702144, "lon": 34.979062, "tags": {"name": "KANYAGOL UPPER", "place": "village"}}, {"type": "node", "id": 9852990455, "lat": -0.2770593, "lon": 34.9725115, "tags": {"name": "KANYAGOL LOWER", "place": "village"}}, {"type": "node", "id": 9852990456, "lat": -0.309005, "lon": 35.0188034, "tags": {"name": "KAGAYA/ KOCHUKA", "place": "village"}}, {"type": "node", "id": 9852990457, "lat": -0.3122679, "lon": 34.9902398, "tags": {"name": "KOKUMU/ KAMULA/LOWER KAGURE", "place": "village"}}, {"type": "node", "id": 9852990458, "lat": -0.3220321, "lon": 35.0116617, "tags": {"name": "KASAE ASAWO", "place": "neighbourhood"}}, {"type": "node", "id": 9852990459, "lat": -0.3180497, "lon": 35.0234629, "tags": {"name": "Kasaye Cherwa", "place": "village"}}, {"type": "node", "id": 9852990460, "lat": -0.3232438, "lon": 35.0044408, "tags": {"name": "KASAE ONYUONGO", "place": "neighbourhood"}}, {"type": "node", "id": 9852990461, "lat": -0.3039707, "lon": 35.0120369, "tags": {"name": "KOGOL", "place": "village"}}, {"type": "node", "id": 9852990462, "lat": -0.2952966, "lon": 34.938177, "tags": {"name": "KOUWOR /KOYOLA LOWER", "place": "village"}}, {"type": "node", "id": 9852990463, "lat": -0.2826072, "lon": 34.9448875, "tags": {"name": "KOBUNDE/KOWINY WEST", "place": "village"}}, {"type": "node", "id": 9852990464, "lat": -0.30135, "lon": 34.9779678, "tags": {"name": "KOTIANG /KOLAL EAST", "place": "village"}}, {"type": "node", "id": 9852990465, "lat": -0.2975393, "lon": 34.9275011, "tags": {"name": "Koloo", "place": "village"}}, {"type": "node", "id": 9852990466, "lat": -0.2501259, "lon": 34.9754488, "tags": {"name": "KOTIEKAKI", "place": "village"}}, {"type": "node", "id": 9852990467, "lat": -0.2367173, "lon": 34.9533991, "tags": {"name": "KOSANO A", "place": "village"}}, {"type": "node", "id": 9852990468, "lat": -0.2452698, "lon": 34.9628343, "tags": {"name": "Kamudho/Ogelo Rayo", "place": "village"}}, {"type": "node", "id": 9852990469, "lat": -0.2582894, "lon": 34.9725686, "tags": {"name": "KOLOO", "place": "village"}}, {"type": "node", "id": 9852990471, "lat": -0.254864, "lon": 34.9542221, "tags": {"name": "KOSANO B", "place": "village"}}, {"type": "node", "id": 9852990472, "lat": -0.25512, "lon": 34.9831549, "tags": {"name": "KARABOK", "place": "village"}}, {"type": "node", "id": 9852990473, "lat": -0.264538, "lon": 34.9892456, "tags": {"name": "KANYABANA", "place": "village"}}, {"type": "node", "id": 9852990474, "lat": -0.2322115, "lon": 34.9470737, "tags": {"name": "Koloo", "place": "village"}}, {"type": "node", "id": 9852990476, "lat": -0.2439585, "lon": 34.9431637, "tags": {"name": "Kanyikwa", "place": "village"}}, {"type": "node", "id": 9852990477, "lat": -0.2419908, "lon": 34.9289796, "tags": {"name": "Kanyagol", "place": "village"}}, {"type": "node", "id": 9852990478, "lat": -0.2560127, "lon": 34.928074, "tags": {"name": "Kamgombe", "place": "village"}}, {"type": "node", "id": 9852990479, "lat": -0.2347748, "lon": 34.927866, "tags": {"name": "KARABOK A", "place": "village"}}, {"type": "node", "id": 9852990480, "lat": -0.2502798, "lon": 34.9432479, "tags": {"name": "Karabok", "place": "village"}}, {"type": "node", "id": 9852990481, "lat": -0.2558209, "lon": 34.936969, "tags": {"name": "Kawakungu", "place": "village"}}, {"type": "node", "id": 9852990482, "lat": -0.2619051, "lon": 34.9610349, "tags": {"name": "KABUDHO", "place": "village"}}, {"type": "node", "id": 9852990483, "lat": -0.268599, "lon": 34.9593459, "tags": {"name": "KAMAINA", "place": "village"}}, {"type": "node", "id": 9852990484, "lat": -0.2763999, "lon": 34.9404061, "tags": {"name": "KOMEN", "place": "village"}}, {"type": "node", "id": 9852990487, "lat": -0.2948452, "lon": 34.9255541, "tags": {"name": "JIMO /NYATARI/KOSIRIDANA", "place": "village"}}, {"type": "node", "id": 9852990488, "lat": -0.2828382, "lon": 34.9189569, "tags": {"name": "KAGONDI MEINE", "place": "village"}}, {"type": "node", "id": 9852990489, "lat": -0.2741591, "lon": 34.9512507, "tags": {"name": "KOGONDI/KUSENYA", "place": "village"}}, {"type": "node", "id": 9852990490, "lat": -0.276102, "lon": 34.9680737, "tags": {"name": "KANYIBANO KOWIRO", "place": "village"}}, {"type": "node", "id": 9852990491, "lat": -0.2766855, "lon": 34.962292, "tags": {"name": "KOWUOR UPPER/RABUOR UPPER", "place": "village"}}, {"type": "node", "id": 9852990492, "lat": -0.2813368, "lon": 34.9515766, "tags": {"name": "KOBONG'O", "place": "village"}}, {"type": "node", "id": 9852990493, "lat": -0.2898133, "lon": 34.9668573, "tags": {"name": "KARADIGA / KOCHOGA EAST 'B'", "place": "village"}}, {"type": "node", "id": 9852990494, "lat": -0.2969444, "lon": 34.9681264, "tags": {"name": "KOLAL WEST /CENTRAL", "place": "village"}}, {"type": "node", "id": 9852990495, "lat": -0.2879073, "lon": 34.9732979, "tags": {"name": "KOCHOLA EAST 'A'", "place": "village"}}, {"type": "node", "id": 9852990496, "lat": -0.2833417, "lon": 34.9771554, "tags": {"name": "KOKAL UPPER", "place": "village"}}, {"type": "node", "id": 9852990497, "lat": -0.2935711, "lon": 34.9835678, "tags": {"name": "KAWITI WEST /EAST", "place": "village"}}, {"type": "node", "id": 9852990498, "lat": -0.2779111, "lon": 34.9795681, "tags": {"name": "KOKAL MAGUNGA", "place": "village"}}, {"type": "node", "id": 9852990500, "lat": -0.2876345, "lon": 34.9896515, "tags": {"name": "Kanyibana /Pawtenge", "place": "neighbourhood"}}, {"type": "node", "id": 9852990501, "lat": -0.2720966, "lon": 34.9837009, "tags": {"name": "KONUONGA", "place": "village"}}, {"type": "node", "id": 9852990502, "lat": -0.2761102, "lon": 34.9895926, "tags": {"name": "KOKAL LOWER", "place": "village"}}, {"type": "node", "id": 9852990503, "lat": -0.2923588, "lon": 34.9953993, "tags": {"name": "KANYIBANA SOUTH", "place": "neighbourhood"}}, {"type": "node", "id": 9852990504, "lat": -0.2999393, "lon": 34.9876646, "tags": {"name": "KOTULA WEST/ KOLAL EAST", "place": "village"}}, {"type": "node", "id": 9852990505, "lat": -0.3064083, "lon": 34.9981744, "tags": {"name": "KOWALA/KABOUR/ACHEGO", "place": "village"}}, {"type": "node", "id": 9852990506, "lat": -0.3165466, "lon": 34.9980848, "tags": {"name": "KABUOR SAYE", "place": "village"}}, {"type": "node", "id": 9852990508, "lat": -0.292862, "lon": 35.0010252, "tags": {"name": "Waingu", "place": "neighbourhood"}}, {"type": "node", "id": 9852990510, "lat": -0.2804097, "lon": 35.0108122, "tags": {"name": "KASRUNDA", "place": "neighbourhood"}}, {"type": "node", "id": 9852990511, "lat": -0.2940587, "lon": 35.0145482, "tags": {"name": "Kamloma East", "place": "village"}}, {"type": "node", "id": 9852990512, "lat": -0.2941073, "lon": 35.0078331, "tags": {"name": "Katuk/Kamloma West", "place": "village"}}, {"type": "node", "id": 9852990513, "lat": -0.3017769, "lon": 35.0026233, "tags": {"name": "KAKELO/KANJIRA/KABURA", "place": "village"}}, {"type": "node", "id": 9852990514, "lat": -0.2758059, "lon": 34.99808, "tags": {"name": "KASRUNDA", "place": "neighbourhood"}}, {"type": "node", "id": 9852990515, "lat": -0.2960307, "lon": 35.0201506, "tags": {"name": "KODUOR 'B'", "place": "village"}}, {"type": "node", "id": 9852990516, "lat": -0.2831093, "lon": 35.0188778, "tags": {"name": "KODUOR 'A'", "place": "neighbourhood"}}, {"type": "node", "id": 9852999217, "lat": -0.3114689, "lon": 35.0094903, "tags": {"name": "Kamwana", "place": "neighbourhood"}}, {"type": "node", "id": 9852999218, "lat": -0.3071853, "lon": 35.0303582, "tags": {"name": "MARABA 'B'", "place": "village"}}, {"type": "node", "id": 9852999219, "lat": -0.3142869, "lon": 35.0186708, "tags": {"name": "Kauko-ola", "place": "village"}}, {"type": "node", "id": 9852999220, "lat": -0.2967648, "lon": 35.0285917, "tags": {"name": "MARABA 'A'", "place": "village"}}, {"type": "node", "id": 9852999222, "lat": -0.2898395, "lon": 35.0301669, "tags": {"name": "OBINJU", "place": "village"}}, {"type": "node", "id": 9853020821, "lat": -0.3870104, "lon": 35.0061307, "tags": {"name": "Kariobangi", "place": "village"}}, {"type": "node", "id": 9853020826, "lat": -0.3911758, "lon": 35.0041989, "tags": {"name": "Agai", "place": "village"}}, {"type": "node", "id": 9853020827, "lat": -0.3635017, "lon": 34.9783242, "tags": {"name": "Kadero", "place": "village"}}, {"type": "node", "id": 9853020829, "lat": -0.357609, "lon": 34.9921484, "tags": {"name": "KN Gege", "place": "village"}}, {"type": "node", "id": 9853020830, "lat": -0.3550771, "lon": 34.9824993, "tags": {"name": "Kamuga/Kobala", "place": "village"}}, {"type": "node", "id": 9853020833, "lat": -0.3522436, "lon": 34.9596231, "tags": {"name": "KATOMBO 'B'", "place": "village"}}, {"type": "node", "id": 9853020834, "lat": -0.374204, "lon": 34.995585, "tags": {"name": "Kamgan Guda", "place": "village"}}, {"type": "node", "id": 9853020835, "lat": -0.3678625, "lon": 35.0038327, "tags": {"name": "Kabongo Kamuoso", "place": "village"}}, {"type": "node", "id": 9853020836, "lat": -0.3461743, "lon": 34.9972504, "tags": {"name": "Holo", "place": "village"}}, {"type": "node", "id": 9853020838, "lat": -0.3440381, "lon": 34.9577617, "tags": {"name": "ANGOGOREMO", "place": "village"}}, {"type": "node", "id": 9853020839, "lat": -0.3622366, "lon": 34.9979556, "tags": {"name": "Kotieno Ngege", "place": "village"}}, {"type": "node", "id": 9853020841, "lat": -0.3587283, "lon": 34.967552, "tags": {"name": "KOMORO /RARIEDA", "place": "village"}}, {"type": "node", "id": 9853020842, "lat": -0.352389, "lon": 34.9370889, "tags": {"name": "NAKI GOT 'A'", "place": "village"}}, {"type": "node", "id": 9853020843, "lat": -0.3855027, "lon": 34.9617948, "tags": {"name": "KABETE", "place": "village"}}, {"type": "node", "id": 9853020845, "lat": -0.3925935, "lon": 34.965495, "tags": {"name": "KAMNWA BANG'A", "place": "village"}}, {"type": "node", "id": 9853020847, "lat": -0.3475242, "lon": 34.9834728, "tags": {"name": "Soi", "place": "village"}}, {"type": "node", "id": 9853020850, "lat": -0.3494756, "lon": 34.9701533, "tags": {"name": "Sigoti", "place": "village"}}, {"type": "node", "id": 9853020851, "lat": -0.3717543, "lon": 34.967905, "tags": {"name": "KAMGAN KOJWANG' B", "place": "village"}}, {"type": "node", "id": 9853020852, "lat": -0.3496272, "lon": 34.9449736, "tags": {"name": "NAKI GOT 'B'", "place": "village"}}, {"type": "node", "id": 9853020853, "lat": -0.3549786, "lon": 34.9538382, "tags": {"name": "KATOMBO 'A'", "place": "village"}}, {"type": "node", "id": 9853020855, "lat": -0.361581, "lon": 34.9556228, "tags": {"name": "NDORO 'B'", "place": "village"}}, {"type": "node", "id": 9853020859, "lat": -0.373147, "lon": 34.9824852, "tags": {"name": "KAMGAN", "place": "village"}}, {"type": "node", "id": 9853020861, "lat": -0.3806882, "lon": 34.9800375, "tags": {"name": "NYABONDO COMPLEX", "place": "village"}}, {"type": "node", "id": 9853020862, "lat": -0.383886, "lon": 34.9744989, "tags": {"name": "NYABONDO", "place": "village"}}, {"type": "node", "id": 9853020863, "lat": -0.3776134, "lon": 35.0017266, "tags": {"name": "Wahanda", "place": "village"}}, {"type": "node", "id": 9853020866, "lat": -0.3928718, "lon": 34.9902739, "tags": {"name": "Ochol", "place": "village"}}, {"type": "node", "id": 9853020868, "lat": -0.3864226, "lon": 34.9958017, "tags": {"name": "Kabongo", "place": "village"}}, {"type": "node", "id": 9853020869, "lat": -0.3865115, "lon": 34.9877261, "tags": {"name": "Kabongo Achego", "place": "village"}}, {"type": "node", "id": 9853020870, "lat": -0.3999757, "lon": 34.984411, "tags": {"name": "Kamna Kamoth", "place": "village"}}, {"type": "node", "id": 9853020871, "lat": -0.3984694, "lon": 35.0011331, "tags": {"name": "Kamana Olwa", "place": "village"}}, {"type": "node", "id": 9853020872, "lat": -0.3943918, "lon": 34.9777796, "tags": {"name": "KAMOTH", "place": "village"}}, {"type": "node", "id": 9853020876, "lat": -0.3751318, "lon": 34.9523203, "tags": {"name": "KODUL", "place": "village"}}, {"type": "node", "id": 9853020877, "lat": -0.3668755, "lon": 34.9376828, "tags": {"name": "KEYO NYADUNDO", "place": "village"}}, {"type": "node", "id": 9853082473, "lat": -0.3505543, "lon": 34.9256473, "tags": {"name": "BUNGUMERI/OSOUME", "place": "village"}}, {"type": "node", "id": 9853082475, "lat": -0.3586914, "lon": 34.9197425, "tags": {"name": "BAR-KAWARINDA", "place": "village"}}, {"type": "node", "id": 9853082476, "lat": -0.351506, "lon": 34.9144265, "tags": {"name": "RAKWARO B", "place": "village"}}, {"type": "node", "id": 9853082477, "lat": -0.3513614, "lon": 34.90447, "tags": {"name": "RAKWARO A", "place": "village"}}, {"type": "node", "id": 9853082480, "lat": -0.3846133, "lon": 34.9453636, "tags": {"name": "OLUTI A", "place": "village"}}, {"type": "node", "id": 9853082481, "lat": -0.3913409, "lon": 34.9479154, "tags": {"name": "OLUTI B", "place": "village"}}, {"type": "node", "id": 9853082482, "lat": -0.380206, "lon": 34.9369439, "tags": {"name": "SIANY'", "place": "village"}}, {"type": "node", "id": 9853082484, "lat": -0.3584692, "lon": 34.8958884, "tags": {"name": "BURKAMACH", "place": "village"}}, {"type": "node", "id": 9853082485, "lat": -0.3727122, "lon": 34.9231467, "tags": {"name": "NDORI", "place": "village"}}, {"type": "node", "id": 9853082486, "lat": -0.3786687, "lon": 34.9250143, "tags": {"name": "OTHITH", "place": "village"}}, {"type": "node", "id": 9853082487, "lat": -0.3655808, "lon": 34.9181362, "tags": {"name": "ACHINGURE 'A'", "place": "village"}}, {"type": "node", "id": 9853082488, "lat": -0.3688344, "lon": 34.9069303, "tags": {"name": "ACHINGURE 'B'", "place": "village"}}, {"type": "node", "id": 9853082489, "lat": -0.3728765, "lon": 34.894079, "tags": {"name": "NYAMARIMBA 'B'", "place": "village"}}, {"type": "node", "id": 9853082490, "lat": -0.3669137, "lon": 34.8942559, "tags": {"name": "NYAMARIMBA 'A'", "place": "village"}}, {"type": "node", "id": 9853082491, "lat": -0.3627291, "lon": 34.8809597, "tags": {"name": "NGOPE", "place": "village"}}, {"type": "node", "id": 9853082492, "lat": -0.3864226, "lon": 34.8472409, "tags": {"name": "APONDE", "place": "village"}}, {"type": "node", "id": 9853082493, "lat": -0.3900918, "lon": 34.8611267, "tags": {"name": "Gul-Maembe", "place": "village"}}, {"type": "node", "id": 9853082494, "lat": -0.3776721, "lon": 34.8712468, "tags": {"name": "Andingo Bware", "place": "village"}}, {"type": "node", "id": 9853082495, "lat": -0.3885022, "lon": 34.8756326, "tags": {"name": "Orobi", "place": "village"}}, {"type": "node", "id": 9853082496, "lat": -0.3853415, "lon": 34.8849299, "tags": {"name": "OGEKA", "place": "village"}}, {"type": "node", "id": 9853082497, "lat": -0.37939, "lon": 34.8920893, "tags": {"name": "APOKO 'A'", "place": "village"}}, {"type": "node", "id": 9853082498, "lat": -0.3880678, "lon": 34.8925153, "tags": {"name": "APOKO 'B'", "place": "village"}}, {"type": "node", "id": 9853082499, "lat": -0.3815328, "lon": 34.9058813, "tags": {"name": "Kalwande / Gari", "place": "village"}}, {"type": "node", "id": 9853082500, "lat": -0.3857879, "lon": 34.9198641, "tags": {"name": "Chachi", "place": "village"}}, {"type": "node", "id": 9853082501, "lat": -0.3892681, "lon": 34.9238655, "tags": {"name": "Alara", "place": "village"}}, {"type": "node", "id": 9853082502, "lat": -0.3963563, "lon": 34.9203877, "tags": {"name": "MOSOGO B", "place": "village"}}, {"type": "node", "id": 9853082503, "lat": -0.4038764, "lon": 34.9452143, "tags": {"name": "Saema-Kwoyo", "place": "village"}}, {"type": "node", "id": 9853082505, "lat": -0.3943499, "lon": 34.9296198, "tags": {"name": "Mosogo", "place": "village"}}, {"type": "node", "id": 9853082506, "lat": -0.3972821, "lon": 34.9377445, "tags": {"name": "Anyuang", "place": "village"}}, {"type": "node", "id": 9853082507, "lat": -0.4053091, "lon": 34.9346604, "tags": {"name": "SAEMA -LWANDA", "place": "village"}}, {"type": "node", "id": 9853082508, "lat": -0.4054527, "lon": 34.9535443, "tags": {"name": "Luala", "place": "village"}}, {"type": "node", "id": 9853117093, "lat": -0.2990615, "lon": 34.7799399, "tags": {"name": "Kamgan/Jimo", "place": "village"}}, {"type": "node", "id": 9853117094, "lat": -0.3211129, "lon": 34.8484017, "tags": {"name": "Saema Kakun", "place": "village"}}, {"type": "node", "id": 9853117095, "lat": -0.3287782, "lon": 34.8578986, "tags": {"name": "Kanyapong", "place": "village"}}, {"type": "node", "id": 9853117097, "lat": -0.3361715, "lon": 34.8618366, "tags": {"name": "Kawanda Kawe 'C'", "place": "neighbourhood"}}, {"type": "node", "id": 9853117098, "lat": -0.3391704, "lon": 34.8736021, "tags": {"name": "Warewe", "place": "village"}}, {"type": "node", "id": 9853117099, "lat": -0.3536063, "lon": 34.8750504, "tags": {"name": "KABONGO 'A' UPPER", "place": "village"}}, {"type": "node", "id": 9853117103, "lat": -0.3426297, "lon": 34.9001241, "tags": {"name": "KAMGAN/ODIO WANGE", "place": "village"}}, {"type": "node", "id": 9853117106, "lat": -0.3621411, "lon": 34.8637585, "tags": {"name": "Madida East", "place": "village"}}, {"type": "node", "id": 9853117107, "lat": -0.3485941, "lon": 34.8668252, "tags": {"name": "UPPER KORIEDO", "place": "village"}}, {"type": "node", "id": 9853117108, "lat": -0.3537336, "lon": 34.8506777, "tags": {"name": "Onono", "place": "village"}}, {"type": "node", "id": 9853117109, "lat": -0.3715682, "lon": 34.8453802, "tags": {"name": "MILANDO", "place": "village"}}, {"type": "node", "id": 9853117110, "lat": -0.369616, "lon": 34.8529407, "tags": {"name": "Madida West", "place": "village"}}, {"type": "node", "id": 9853117111, "lat": -0.3428341, "lon": 34.8483738, "tags": {"name": "Koriedo/Diere/Abwao", "place": "village"}}, {"type": "node", "id": 9853117112, "lat": -0.3336695, "lon": 34.8659974, "tags": {"name": "Wadanda A", "place": "village"}}, {"type": "node", "id": 9853117113, "lat": -0.3312638, "lon": 34.8482768, "tags": {"name": "Kamwana Nyade", "place": "village"}}, {"type": "node", "id": 9853117116, "lat": -0.3390134, "lon": 34.8560743, "tags": {"name": "Koriedo Diere", "place": "village"}}, {"type": "node", "id": 9853133417, "lat": -0.3311926, "lon": 34.842028, "tags": {"name": "Kamwana Nyadero", "place": "neighbourhood"}}, {"type": "node", "id": 9853133419, "lat": -0.3415692, "lon": 34.8362043, "tags": {"name": "Oriedo Odeng'a", "place": "village"}}, {"type": "node", "id": 9853133421, "lat": -0.3321235, "lon": 34.835062, "tags": {"name": "ORIEDO DENG'", "place": "neighbourhood"}}, {"type": "node", "id": 9853133422, "lat": -0.3419375, "lon": 34.8305408, "tags": {"name": "KAROGO", "place": "neighbourhood"}}, {"type": "node", "id": 9853133423, "lat": -0.3326219, "lon": 34.8231803, "tags": {"name": "KOWUOR", "place": "neighbourhood"}}, {"type": "node", "id": 9853133424, "lat": -0.3272778, "lon": 34.8299669, "tags": {"name": "KAPILA", "place": "neighbourhood"}}, {"type": "node", "id": 9853133425, "lat": -0.3295834, "lon": 34.8154873, "tags": {"name": "Andingo/Kajimbo", "place": "village"}}, {"type": "node", "id": 9853133426, "lat": -0.3390131, "lon": 34.8107146, "tags": {"name": "KOMORO", "place": "neighbourhood"}}, {"type": "node", "id": 9853133427, "lat": -0.3459795, "lon": 34.8190982, "tags": {"name": "Katombo Mwalo", "place": "village"}}, {"type": "node", "id": 9853133428, "lat": -0.3086374, "lon": 34.7738599, "tags": {"name": "Koloo/Kandaria", "place": "village"}}, {"type": "node", "id": 9853133429, "lat": -0.2971581, "lon": 34.7844272, "tags": {"name": "Kabongo/Kamoth/Kamuga", "place": "village"}}, {"type": "node", "id": 9853133430, "lat": -0.3018564, "lon": 34.79153, "tags": {"name": "Kopiyo", "place": "village"}}, {"type": "node", "id": 9853133431, "lat": -0.290636, "lon": 34.7884239, "tags": {"name": "Warewe/Wadanda", "place": "village"}}, {"type": "node", "id": 9853133432, "lat": -0.3066854, "lon": 34.7940704, "tags": {"name": "KAMUNGO/KOBONGO", "place": "village"}}, {"type": "node", "id": 9853133433, "lat": -0.3081664, "lon": 34.7842949, "tags": {"name": "Kamgan / Kochieng", "place": "village"}}, {"type": "node", "id": 9853133434, "lat": -0.3223657, "lon": 34.7907886, "tags": {"name": "Koloo Nyongonga/ Kamoth", "place": "village"}}, {"type": "node", "id": 9853133435, "lat": -0.3282282, "lon": 34.8027922, "tags": {"name": "Wadanda", "place": "village"}}, {"type": "node", "id": 9853133436, "lat": -0.3227186, "lon": 34.8006379, "tags": {"name": "KAUMA/KAWAMMGAO", "place": "village"}}, {"type": "node", "id": 9853133437, "lat": -0.318395, "lon": 34.8035003, "tags": {"name": "Kamuga/Koiro", "place": "village"}}, {"type": "node", "id": 9853133438, "lat": -0.3140647, "lon": 34.7956765, "tags": {"name": "Kabongo Kamgan", "place": "village"}}, {"type": "node", "id": 9853133439, "lat": -0.3323859, "lon": 34.7957869, "tags": {"name": "Kaloo Nyawaro", "place": "village"}}, {"type": "node", "id": 9853133440, "lat": -0.3473567, "lon": 34.801306, "tags": {"name": "NYAKWERE KAM", "place": "neighbourhood"}}, {"type": "node", "id": 9853133441, "lat": -0.3378509, "lon": 34.7917541, "tags": {"name": "KATOMBO MWALO", "place": "village"}}, {"type": "node", "id": 9853133442, "lat": -0.340843, "lon": 34.7993727, "tags": {"name": "Kajejo", "place": "neighbourhood"}}, {"type": "node", "id": 9853133443, "lat": -0.3369651, "lon": 34.8019271, "tags": {"name": "KWOYO", "place": "neighbourhood"}}, {"type": "node", "id": 9853133444, "lat": -0.3594399, "lon": 34.8339916, "tags": {"name": "Kamthiga", "place": "village"}}, {"type": "node", "id": 9853133445, "lat": -0.3606636, "lon": 34.8216888, "tags": {"name": "APONDO", "place": "village"}}, {"type": "node", "id": 9853133446, "lat": -0.3517298, "lon": 34.8336207, "tags": {"name": "Ombugo", "place": "village"}}, {"type": "node", "id": 9853133447, "lat": -0.369893, "lon": 34.832634, "tags": {"name": "KAWUOR", "place": "village"}}, {"type": "node", "id": 9853133448, "lat": -0.3799246, "lon": 34.8284133, "tags": {"name": "MITHIGA 'B'/KARIANY", "place": "village"}}, {"type": "node", "id": 9853133449, "lat": -0.3825834, "lon": 34.8345071, "tags": {"name": "MITHIGA/KARIANY 'A'", "place": "village"}}, {"type": "node", "id": 9853133450, "lat": -0.3747736, "lon": 34.8621742, "tags": {"name": "Kagwero", "place": "village"}}, {"type": "node", "id": 9914319709, "lat": -0.3224057, "lon": 34.9417574, "tags": {"name": "KASERE 'A'", "place": "village"}}, {"type": "node", "id": 9914323017, "lat": -0.3324064, "lon": 34.9813756, "tags": {"Village": "BUNGU / KOLOO", "name": "Bungu", "place": "village"}}, {"type": "node", "id": 9914323048, "lat": -0.3046339, "lon": 34.8532694, "tags": {"name": "ONGAJO", "place": "village"}}, {"type": "node", "id": 9914323067, "lat": -0.3192958, "lon": 34.9749427, "tags": {"name": "Kokumu East 'B'", "place": "village"}}, {"type": "node", "id": 9914323079, "lat": -0.3394776, "lon": 34.9360599, "tags": {"name": "KANYANGO UPPER", "place": "village"}}, {"type": "node", "id": 9914323084, "lat": -0.3145061, "lon": 34.8449578, "tags": {"name": "OBUGI", "place": "village"}}, {"type": "node", "id": 9944613561, "lat": -0.2038231, "lon": 34.8887832, "tags": {"name": "Kabuto East", "place": "village"}}, {"type": "node", "id": 9944613562, "lat": -0.197694, "lon": 34.8794731, "tags": {"name": "Kabuto West", "place": "village"}}, {"type": "node", "id": 9944613563, "lat": -0.1975997, "lon": 34.869224, "tags": {"name": "Barmanyala/kanyakraro", "place": "village"}}, {"type": "node", "id": 9946065047, "lat": -0.198115, "lon": 34.8886838, "tags": {"name": "Kogendo West/kauma", "place": "village"}}, {"type": "node", "id": 9953464192, "lat": -0.2180933, "lon": 34.896468, "tags": {"name": "Kabonyo / Kasiwidi", "place": "village"}}, {"type": "node", "id": 9953464193, "lat": -0.2255962, "lon": 34.8964418, "tags": {"name": "Kabonyo North", "place": "village"}}, {"type": "node", "id": 9953464194, "lat": -0.2485932, "lon": 34.8769573, "tags": {"name": "Kaloo / Kasamba", "place": "village"}}, {"type": "node", "id": 9953464195, "lat": -0.2444438, "lon": 34.89678, "tags": {"name": "Kagola East", "place": "village"}}, {"type": "node", "id": 9953464196, "lat": -0.2476714, "lon": 34.890085, "tags": {"name": "Kagola West", "place": "village"}}, {"type": "node", "id": 9953464199, "lat": -0.2148491, "lon": 34.9215524, "tags": {"name": "Kachola", "place": "village"}}, {"type": "node", "id": 9953464200, "lat": -0.2180468, "lon": 34.9136331, "tags": {"name": "Kalwande", "place": "village"}}, {"type": "node", "id": 9956540124, "lat": -0.2113965, "lon": 34.8975877, "tags": {"name": "Karateng", "place": "village"}}, {"type": "node", "id": 9956540125, "lat": -0.2063413, "lon": 34.9043045, "tags": {"name": "Kanyithuondo", "place": "village"}}, {"type": "node", "id": 9956540126, "lat": -0.2054007, "lon": 34.8990086, "tags": {"name": "Kanyaktumo", "place": "village"}}, {"type": "node", "id": 9956540127, "lat": -0.2290154, "lon": 34.8954106, "tags": {"name": "Kokul", "place": "village"}}, {"type": "node", "id": 9956540128, "lat": -0.2226147, "lon": 34.9077297, "tags": {"name": "Kokech", "place": "village"}}, {"type": "node", "id": 9956540129, "lat": -0.2429701, "lon": 34.9003886, "tags": {"name": "Kobiero", "place": "village"}}, {"type": "node", "id": 9956540130, "lat": -0.2498511, "lon": 34.8828358, "tags": {"name": "Kanyipola", "place": "village"}}, {"type": "node", "id": 9956540131, "lat": -0.2486503, "lon": 34.8879023, "tags": {"name": "Kaswa / Border", "place": "village"}}, {"type": "node", "id": 9956540132, "lat": -0.2645811, "lon": 34.8777811, "tags": {"name": "Kamuga /kasambura", "place": "village"}}, {"type": "node", "id": 9956540137, "lat": -0.2129901, "lon": 34.9138191, "tags": {"name": "Kobondo", "place": "village"}}, {"type": "node", "id": 9956540138, "lat": -0.2066813, "lon": 34.9134229, "tags": {"name": "Kodhiambo", "place": "village"}}, {"type": "node", "id": 9960133177, "lat": -0.2293695, "lon": 34.9056652, "tags": {"name": "Koyoo", "place": "village"}}, {"type": "node", "id": 9960133178, "lat": -0.2417596, "lon": 34.8830177, "tags": {"name": "Tura /wangawa", "place": "village"}}, {"type": "node", "id": 9960133185, "lat": -0.203138, "lon": 34.9200808, "tags": {"name": "Kowiti 'b'", "place": "village"}}, {"type": "node", "id": 9960133186, "lat": -0.19843, "lon": 34.9191774, "tags": {"name": "Kowiti 'a'", "place": "village"}}, {"type": "node", "id": 9960133187, "lat": -0.2018476, "lon": 34.935743, "tags": {"name": "Lower Kowuor 'b'", "place": "village"}}, {"type": "node", "id": 9964403746, "lat": -0.2288072, "lon": 34.9143775, "tags": {"name": "Kochiewo", "place": "village"}}, {"type": "node", "id": 9964403749, "lat": -0.2014306, "lon": 34.9720853, "tags": {"name": "Masune", "place": "village"}}, {"type": "node", "id": 9964403750, "lat": -0.2084709, "lon": 34.9998857, "tags": {"name": "Kuth Awendo", "place": "village"}}, {"type": "node", "id": 9964403751, "lat": -0.2033219, "lon": 34.9906011, "tags": {"name": "Ayweyo Upper", "place": "village"}}, {"type": "node", "id": 9964403752, "lat": -0.217837, "lon": 34.9732812, "tags": {"name": "Nyachoda", "place": "village"}}, {"type": "node", "id": 9964403753, "lat": -0.2120936, "lon": 34.9846585, "tags": {"name": "Ayweyo Central", "place": "village"}}, {"type": "node", "id": 9964403754, "lat": -0.2098921, "lon": 34.9711425, "tags": {"name": "Chamrogi", "place": "village"}}, {"type": "node", "id": 9964403755, "lat": -0.2259352, "lon": 34.9841447, "tags": {"name": "Ogongo / Oganga", "place": "village"}}, {"type": "node", "id": 9964403756, "lat": -0.2346233, "lon": 34.982985, "tags": {"name": "Kanyangoro", "place": "village"}}, {"type": "node", "id": 9964403757, "lat": -0.2284001, "lon": 34.9657621, "tags": {"name": "Awach / Scheme", "place": "village"}}, {"type": "node", "id": 9964403758, "lat": -0.2417754, "lon": 34.9655426, "tags": {"name": "Lwala / Kamudhoe", "place": "village"}}, {"type": "node", "id": 9964403759, "lat": -0.250582, "lon": 35.0122078, "tags": {"name": "Kinasia Lower", "place": "village"}}, {"type": "node", "id": 9964403760, "lat": -0.2378083, "lon": 35.0090386, "tags": {"name": "Yogo 'a'", "place": "village"}}, {"type": "node", "id": 9964403761, "lat": -0.2300072, "lon": 35.0205643, "tags": {"name": "Yogo 'b'", "place": "village"}}, {"type": "node", "id": 9964403762, "lat": -0.2270915, "lon": 35.0071533, "tags": {"name": "Yogo", "place": "village"}}, {"type": "node", "id": 9964403763, "lat": -0.256474, "lon": 34.9985384, "tags": {"name": "Nyarombe Lower", "place": "village"}}, {"type": "node", "id": 9964403764, "lat": -0.2484085, "lon": 34.9896703, "tags": {"name": "Achego 'a'", "place": "village"}}, {"type": "node", "id": 9964403765, "lat": -0.2426633, "lon": 34.9944099, "tags": {"name": "Achego 'b'", "place": "village"}}, {"type": "node", "id": 9964403766, "lat": -0.2505535, "lon": 35.0274547, "tags": {"name": "Kinasia Upper", "place": "village"}}, {"type": "node", "id": 9964403767, "lat": -0.2631657, "lon": 35.0045648, "tags": {"name": "Nyarombe Upper", "place": "village"}}, {"type": "node", "id": 9964403768, "lat": -0.2174392, "lon": 34.9353701, "tags": {"name": "Kadika", "place": "village"}}, {"type": "node", "id": 9964403769, "lat": -0.2113885, "lon": 34.9332126, "tags": {"name": "Kanyalim", "place": "village"}}, {"type": "node", "id": 9964403770, "lat": -0.2144466, "lon": 34.9564344, "tags": {"name": "Ayweyo Canteen", "place": "village"}}, {"type": "node", "id": 9964403771, "lat": -0.2245182, "lon": 34.9226569, "tags": {"name": "Kokul 'a'", "place": "village"}}, {"type": "node", "id": 9964403772, "lat": -0.2234478, "lon": 34.9319521, "tags": {"name": "Kokul 'b'", "place": "village"}}, {"type": "node", "id": 9964403773, "lat": -0.2210167, "lon": 34.9165629, "tags": {"name": "Katieno", "place": "village"}}, {"type": "node", "id": 9964403774, "lat": -0.2063214, "lon": 34.9430354, "tags": {"name": "Kojiem", "place": "village"}}, {"type": "node", "id": 9964403776, "lat": -0.2747694, "lon": 35.0331333, "tags": {"name": "Sare Upper", "place": "village"}}, {"type": "node", "id": 9964403778, "lat": -0.269485, "lon": 35.0200067, "tags": {"name": "Sare Lower", "place": "village"}}, {"type": "node", "id": 9964403782, "lat": -0.2215853, "lon": 35.0325303, "tags": {"name": "Holo Lower", "place": "village"}}, {"type": "node", "id": 9964403784, "lat": -0.2110413, "lon": 35.0200376, "tags": {"name": "Onera", "place": "village"}}, {"type": "node", "id": 9964403785, "lat": -0.1992304, "lon": 35.0176357, "tags": {"name": "Waradho", "place": "village"}}, {"type": "node", "id": 9966634929, "lat": -0.2347189, "lon": 34.8846861, "tags": {"name": "Kabonyo South", "place": "village"}}, {"type": "node", "id": 9966634930, "lat": -0.2210826, "lon": 34.8512241, "tags": {"name": "Kachola", "place": "village"}}, {"type": "node", "id": 9966634931, "lat": -0.2107216, "lon": 34.8612423, "tags": {"name": "Karacher \"b\"", "place": "village"}}, {"type": "node", "id": 9966634932, "lat": -0.2045096, "lon": 34.8599573, "tags": {"name": "Kamagoma", "place": "village"}}, {"type": "node", "id": 9966634933, "lat": -0.1990729, "lon": 34.8378101, "tags": {"name": "Kajwang/korwa", "place": "village"}}, {"type": "node", "id": 9966634934, "lat": -0.2017152, "lon": 34.8619979, "tags": {"name": "Karacher \"a\"", "place": "village"}}, {"type": "node", "id": 9966634935, "lat": -0.2127886, "lon": 34.8363523, "tags": {"name": "Kanyachura/kobiero", "place": "village"}}, {"type": "node", "id": 9966634936, "lat": -0.2062312, "lon": 34.8547162, "tags": {"name": "Kakoth", "place": "village"}}, {"type": "node", "id": 9966634937, "lat": -0.250984, "lon": 34.8445204, "tags": {"name": "Kahoo/kodumo", "place": "village"}}, {"type": "node", "id": 9966634938, "lat": -0.2367221, "lon": 34.850929, "tags": {"name": "Kadinda", "place": "village"}}, {"type": "node", "id": 9966634939, "lat": -0.2289572, "lon": 34.8434108, "tags": {"name": "Kamira/kadede", "place": "village"}}, {"type": "node", "id": 9966634940, "lat": -0.248062, "lon": 34.8536378, "tags": {"name": "Kajulu/kalando Uwe", "place": "village"}}, {"type": "node", "id": 9966634941, "lat": -0.2335789, "lon": 34.857136, "tags": {"name": "Kabuto", "place": "village"}}, {"type": "node", "id": 9966634942, "lat": -0.1995009, "lon": 34.8262527, "tags": {"name": "Kalaji", "place": "village"}}, {"type": "node", "id": 9966634943, "lat": -0.2072849, "lon": 34.8674199, "tags": {"name": "Kalando Miriu", "place": "village"}}, {"type": "node", "id": 9966634944, "lat": -0.1979233, "lon": 34.8624633, "tags": {"name": "Kajulu Urocha", "place": "village"}}, {"type": "node", "id": 9966634945, "lat": -0.1992445, "lon": 34.8567018, "tags": {"name": "Kajulu Rakwaro", "place": "village"}}, {"type": "node", "id": 9966634946, "lat": -0.218018, "lon": 34.8457788, "tags": {"name": "Kamonde", "place": "village"}}, {"type": "node", "id": 9966634947, "lat": -0.2436644, "lon": 34.8477439, "tags": {"name": "Kamonde", "place": "village"}}, {"type": "node", "id": 9966634948, "lat": -0.2068155, "lon": 34.8273144, "tags": {"name": "Kanyakangu/kayondi", "place": "village"}}, {"type": "node", "id": 9966634949, "lat": -0.2321693, "lon": 34.8490367, "tags": {"name": "Kamira", "place": "village"}}, {"type": "node", "id": 9966634950, "lat": -0.2674887, "lon": 34.8765883, "tags": {"name": "Kanduru", "place": "village"}}, {"type": "node", "id": 9966634951, "lat": -0.2478921, "lon": 34.8857443, "tags": {"name": "Kanyamwuok", "place": "village"}}, {"type": "node", "id": 9966634952, "lat": -0.2554561, "lon": 34.8728998, "tags": {"name": "Kanyiamo", "place": "village"}}, {"type": "node", "id": 9966634953, "lat": -0.2403974, "lon": 34.8744592, "tags": {"name": "Kachacha B", "place": "village"}}, {"type": "node", "id": 9966634954, "lat": -0.2408429, "lon": 34.8604904, "tags": {"name": "Kambata", "place": "village"}}, {"type": "node", "id": 9968737994, "lat": -0.2107225, "lon": 34.8439119, "tags": {"name": "Komoro", "place": "village"}}, {"type": "node", "id": 9968737995, "lat": -0.2177214, "lon": 34.854025, "tags": {"name": "Ngutu", "place": "village"}}, {"type": "node", "id": 9968737996, "lat": -0.2101738, "lon": 34.8599652, "tags": {"name": "Kasinogo", "place": "village"}}, {"type": "node", "id": 9968737997, "lat": -0.2028782, "lon": 34.8446624, "tags": {"name": "Kowiti", "place": "village"}}, {"type": "node", "id": 9968737998, "lat": -0.2052225, "lon": 34.8343818, "tags": {"name": "Kogondo/kanyul", "place": "village"}}, {"type": "node", "id": 9968737999, "lat": -0.2161927, "lon": 34.8433512, "tags": {"name": "Kodanga/kanyakindi", "place": "village"}}, {"type": "node", "id": 9968738000, "lat": -0.2055743, "lon": 34.8497515, "tags": {"name": "Konyango", "place": "village"}}, {"type": "node", "id": 9968738001, "lat": -0.202231, "lon": 34.8545238, "tags": {"name": "Kowour", "place": "village"}}, {"type": "node", "id": 9968738003, "lat": -0.2325688, "lon": 34.8453776, "tags": {"name": "Kohoo/kanyagilo", "place": "village"}}, {"type": "node", "id": 9968738004, "lat": -0.2354833, "lon": 34.8574622, "tags": {"name": "Kokwaro", "place": "village"}}, {"type": "node", "id": 9968738006, "lat": -0.2369744, "lon": 34.8152018, "tags": {"name": "Kayondi/kanyakangu", "place": "village"}}, {"type": "node", "id": 9968738007, "lat": -0.2285233, "lon": 34.8159994, "tags": {"name": "Wagunga", "place": "village"}}, {"type": "node", "id": 9968738008, "lat": -0.3088734, "lon": 34.8666466, "tags": {"name": "Wachiegwe/kajowi/kanyang", "place": "village"}}, {"type": "node", "id": 9968738009, "lat": -0.2689484, "lon": 34.8595967, "tags": {"name": "Konyango Adiel", "place": "village"}}, {"type": "node", "id": 9968738010, "lat": -0.2576435, "lon": 34.869196, "tags": {"name": "Karagwel", "place": "village"}}, {"type": "node", "id": 9968738011, "lat": -0.2228156, "lon": 34.8818971, "tags": {"name": "Kawalare", "place": "village"}}, {"type": "node", "id": 9968738012, "lat": -0.2205219, "lon": 34.8692085, "tags": {"name": "Kasangany/kachacha", "place": "village"}}, {"type": "node", "id": 9968738013, "lat": -0.2077344, "lon": 34.8776507, "tags": {"name": "Kopudo A", "place": "village"}}, {"type": "node", "id": 9968738014, "lat": -0.2122231, "lon": 34.8873196, "tags": {"name": "Kopudo B", "place": "village"}}, {"type": "node", "id": 9968757919, "lat": -0.2002048, "lon": 34.8280254, "tags": {"name": "Komoro/karamoth", "place": "village"}}, {"type": "node", "id": 9968757925, "lat": -0.2194203, "lon": 34.837803, "tags": {"name": "Village Ii", "place": "village"}}, {"type": "node", "id": 9968757926, "lat": -0.2241212, "lon": 34.831806, "tags": {"name": "Village I", "place": "village"}}, {"type": "node", "id": 9968757927, "lat": -0.2124773, "lon": 34.835051, "tags": {"name": "Village Iii B", "place": "village"}}, {"type": "node", "id": 9968757928, "lat": -0.2086206, "lon": 34.8245638, "tags": {"name": "Village Iii A", "place": "village"}}, {"type": "node", "id": 10651317810, "lat": -0.2742141, "lon": 34.9732495, "tags": {"name": "Katito", "place": "town"}}, {"type": "node", "id": 10687219155, "lat": -0.3215844, "lon": 34.9452352, "tags": {"name": "Nyakach", "place": "subcounty"}}, {"type": "node", "id": 10735157477, "lat": -0.3683114, "lon": 34.9843835, "tags": {"name": "NYAMAROKA", "place": "village"}}, {"type": "node", "id": 10747931530, "lat": -0.4046828, "lon": 34.9850729, "tags": {"name": "Dirubi", "place": "village"}}, {"type": "node", "id": 10747984541, "lat": -0.390684, "lon": 34.9804209, "tags": {"name": "Kananda", "place": "village"}}, {"type": "node", "id": 10755640459, "lat": -0.3417919, "lon": 34.9876224, "tags": {"name": "Ongielore", "place": "village"}}, {"type": "node", "id": 10758164471, "lat": -0.3874113, "lon": 34.9370806, "tags": {"name": "OBOCH", "place": "village"}}, {"type": "node", "id": 10811635850, "lat": -0.4090692, "lon": 34.9687785, "tags": {"name": "Radienya", "place": "village"}}, {"type": "node", "id": 10811635851, "lat": -0.3994626, "lon": 34.9599552, "tags": {"name": "RAMULA", "place": "village"}}, {"type": "node", "id": 10860243360, "lat": -0.3602138, "lon": 34.9342668, "tags": {"name": "BODI", "place": "village"}}, {"type": "node", "id": 10864224384, "lat": -0.3159565, "lon": 35.0069707, "tags": {"name": "STORE PAMBA", "place": "village"}}, {"type": "node", "id": 10867211235, "lat": -0.3490696, "lon": 34.7882937, "tags": {"name": "Nyakwere", "place": "village"}}, {"type": "node", "id": 10867211236, "lat": -0.3602208, "lon": 34.7231243, "tags": {"name": "Ochot Odong", "place": "village"}}, {"type": "node", "id": 10883044147, "lat": -0.3500959, "lon": 34.808475, "tags": {"name": "Sang'oro", "place": "village"}}, {"type": "node", "id": 10883044148, "lat": -0.3171561, "lon": 34.8528796, "tags": {"name": "Kusa", "place": "village"}}, {"type": "node", "id": 11215936458, "lat": -0.4084303, "lon": 34.9768207, "tags": {"name": "Akiayi", "place": "village"}}, {"type": "node", "id": 11215936459, "lat": -0.3995414, "lon": 34.977333, "tags": {"name": "Anding'o", "place": "village"}}, {"type": "node", "id": 11231278106, "lat": -0.3841753, "lon": 34.9672508, "tags": {"name": "Kodong'a", "place": "village"}}, {"type": "node", "id": 11460256578, "lat": -0.390776, "lon": 34.952504, "tags": {"name": "Ndare", "place": "village"}}, {"type": "way", "id": 632842755, "nodes": [5974702948, 5974702949, 5974702950, 5974702951, 5974702952, 5974702953, 5974702954, 5974702955, 5974702956, 5974702957, 5974702948], "tags": {"name": "Katito", "place": "town", "population": "5000"}}, {"type": "way", "id": 795162797, "nodes": [7437151118, 7437151119, 7437151120, 7437151121, 7437151122, 7437151123, 7437151124, 7437151125, 7437151126, 7437151127, 7437151128, 7437151129, 7437151130, 7437151131, 7437151132, 7437151133, 7437151118], "tags": {"name": "Kobuya Nyakwere", "place": "neighbourhood"}}]}