{"version": 0.6, "generator": "Overpass API 0.7.62.1 084b4234", "osm3s": {"timestamp_osm_base": "2024-09-30T22:03:35Z", "copyright": "The data included in this document is from www.openstreetmap.org. The data is made available under ODbL."}, "elements": [{"type": "node", "id": 1150883205, "lat": 9.7, "lon": 40.76667, "tags": {"is_in:country": "Ethiopia", "is_in:country_code": "ET", "name": "Silaloli", "place": "locality", "source": "GeoDatabase"}}, {"type": "node", "id": 1150886439, "lat": 9.83333, "lon": 40.51667, "tags": {"is_in:country": "Ethiopia", "is_in:country_code": "ET", "name": "Madderala-Dala", "place": "locality", "source": "GeoDatabase"}}, {"type": "node", "id": 1150886517, "lat": 9.85, "lon": 40.7, "tags": {"is_in:country": "Ethiopia", "is_in:country_code": "ET", "name": "Mulho", "place": "locality", "source": "GeoDatabase"}}, {"type": "node", "id": 1150887675, "lat": 9.66667, "lon": 40.65, "tags": {"is_in:country": "Ethiopia", "is_in:country_code": "ET", "name": "Duncaga", "place": "locality", "source": "GeoDatabase"}}, {"type": "node", "id": 1150910228, "lat": 9.91667, "lon": 40.58333, "tags": {"is_in:country": "Ethiopia", "is_in:country_code": "ET", "name": "Bahdu", "place": "locality", "source": "GeoDatabase"}}, {"type": "node", "id": 1150910503, "lat": 9.86667, "lon": 40.51667, "tags": {"is_in:country": "Ethiopia", "is_in:country_code": "ET", "name": "Meteka", "place": "locality", "source": "GeoDatabase", "wikidata": "Q3307324", "wikipedia": "en:Meteka"}}, {"type": "node", "id": 1150913024, "lat": 9.75, "lon": 40.58333, "tags": {"is_in:country": "Ethiopia", "is_in:country_code": "ET", "name": "Pianura Galalu", "place": "locality", "source": "GeoDatabase"}}, {"type": "node", "id": 1150943533, "lat": 9.63333, "lon": 40.8, "tags": {"is_in:country": "Ethiopia", "is_in:country_code": "ET", "name": "Mullu", "place": "locality", "source": "GeoDatabase"}}, {"type": "node", "id": 1150950471, "lat": 9.95, "lon": 40.58333, "tags": {"is_in:country": "Ethiopia", "is_in:country_code": "ET", "name": "Mutaka", "place": "locality", "source": "GeoDatabase"}}, {"type": "node", "id": 1150954368, "lat": 9.68333, "lon": 40.76667, "tags": {"is_in:country": "Ethiopia", "is_in:country_code": "ET", "name": "Ehnforo", "place": "locality", "source": "GeoDatabase"}}, {"type": "node", "id": 1150956635, "lat": 9.71667, "lon": 40.63333, "tags": {"is_in:country": "Ethiopia", "is_in:country_code": "ET", "name": "Duncaga", "place": "locality", "source": "GeoDatabase"}}, {"type": "node", "id": 1150962644, "lat": 9.78333, "lon": 40.7, "tags": {"is_in:country": "Ethiopia", "is_in:country_code": "ET", "name": "Ghegalu", "place": "locality", "source": "GeoDatabase"}}, {"type": "node", "id": 1150968185, "lat": 9.63333, "lon": 40.58333, "tags": {"is_in:country": "Ethiopia", "is_in:country_code": "ET", "name": "Adeyuto Bota", "place": "locality", "source": "GeoDatabase"}}, {"type": "node", "id": 1150977224, "lat": 9.78333, "lon": 40.63333, "tags": {"is_in:country": "Ethiopia", "is_in:country_code": "ET", "name": "Galalu", "place": "locality", "source": "GeoDatabase"}}, {"type": "node", "id": 2152989002, "lat": 9.9779658, "lon": 40.5171617, "tags": {"place": "village"}}, {"type": "node", "id": 2152989138, "lat": 9.9671143, "lon": 40.5382224, "tags": {"place": "village"}}, {"type": "node", "id": 8394721158, "lat": 9.9712017, "lon": 40.4680163, "tags": {"place": "village"}}]}