{"version": 0.6, "generator": "Overpass API 0.7.62.1 084b4234", "osm3s": {"timestamp_osm_base": "2024-09-30T18:14:26Z", "copyright": "The data included in this document is from www.openstreetmap.org. The data is made available under ODbL."}, "elements": [{"type": "node", "id": 1150882277, "lat": 3.66667, "lon": 38.81666, "tags": {"is_in:country": "Ethiopia", "is_in:country_code": "ET", "name": "Ooddessi", "place": "locality", "source": "GeoDatabase"}}, {"type": "node", "id": 1150898378, "lat": 3.7, "lon": 38.83333, "tags": {"is_in:country": "Ethiopia", "is_in:country_code": "ET", "name": "Gara Garsa", "place": "locality", "source": "GeoDatabase"}}, {"type": "node", "id": 1150898490, "lat": 3.76667, "lon": 38.76667, "tags": {"is_in:country": "Ethiopia", "is_in:country_code": "ET", "name": "Budda", "place": "locality", "source": "GeoDatabase"}}, {"type": "node", "id": 1150902053, "lat": 3.86667, "lon": 38.91667, "tags": {"is_in:country": "Ethiopia", "is_in:country_code": "ET", "name": "Fulte", "place": "locality", "source": "GeoDatabase"}}, {"type": "node", "id": 1150902808, "lat": 3.88333, "lon": 38.86667, "tags": {"is_in:country": "Ethiopia", "is_in:country_code": "ET", "name": "Labom", "place": "locality", "source": "GeoDatabase"}}, {"type": "node", "id": 1150903252, "lat": 3.88333, "lon": 38.56666, "tags": {"is_in:country": "Ethiopia", "is_in:country_code": "ET", "name": "Selala", "place": "locality", "source": "GeoDatabase"}}, {"type": "node", "id": 1150903425, "lat": 3.78333, "lon": 38.7, "tags": {"is_in:country": "Ethiopia", "is_in:country_code": "ET", "name": "Hara Bor", "place": "locality", "source": "GeoDatabase"}}, {"type": "node", "id": 1150905616, "lat": 3.66667, "lon": 38.56666, "tags": {"is_in:country": "Ethiopia", "is_in:country_code": "ET", "name": "Gomo", "place": "locality", "source": "GeoDatabase"}}, {"type": "node", "id": 1150926732, "lat": 3.73333, "lon": 38.68333, "tags": {"is_in:country": "Ethiopia", "is_in:country_code": "ET", "name": "Gurbi Sugi", "place": "locality", "source": "GeoDatabase"}}, {"type": "node", "id": 1150932256, "lat": 3.86667, "lon": 38.8, "tags": {"is_in:country": "Ethiopia", "is_in:country_code": "ET", "name": "Egder", "place": "locality", "source": "GeoDatabase"}}, {"type": "node", "id": 1150934683, "lat": 3.96667, "lon": 38.68333, "tags": {"is_in:country": "Ethiopia", "is_in:country_code": "ET", "name": "Irbi Kuna", "place": "locality", "source": "GeoDatabase"}}, {"type": "node", "id": 1150938886, "lat": 3.91667, "lon": 38.86667, "tags": {"is_in:country": "Ethiopia", "is_in:country_code": "ET", "name": "Egder Yech'Ew Ma`Idin", "place": "locality", "source": "GeoDatabase"}}, {"type": "node", "id": 1150943244, "lat": 3.8, "lon": 38.63333, "tags": {"is_in:country": "Ethiopia", "is_in:country_code": "ET", "name": "Taccaroba", "place": "locality", "source": "GeoDatabase"}}, {"type": "node", "id": 1150943968, "lat": 3.81667, "lon": 38.7, "tags": {"is_in:country": "Ethiopia", "is_in:country_code": "ET", "name": "Barocho", "place": "locality", "source": "GeoDatabase"}}, {"type": "node", "id": 1150956349, "lat": 3.95, "lon": 38.58333, "tags": {"is_in:country": "Ethiopia", "is_in:country_code": "ET", "name": "Donono", "place": "locality", "source": "GeoDatabase"}}, {"type": "node", "id": 1150971232, "lat": 3.68333, "lon": 38.73333, "tags": {"is_in:country": "Ethiopia", "is_in:country_code": "ET", "name": "Boa", "place": "locality", "source": "GeoDatabase"}}, {"type": "node", "id": 1150977715, "lat": 3.95, "lon": 38.73333, "tags": {"is_in:country": "Ethiopia", "is_in:country_code": "ET", "name": "Boran", "place": "locality", "source": "GeoDatabase"}}, {"type": "node", "id": 1150981683, "lat": 3.85, "lon": 38.65, "tags": {"is_in:country": "Ethiopia", "is_in:country_code": "ET", "name": "Unnaika", "place": "locality", "source": "GeoDatabase"}}, {"type": "node", "id": 1150982067, "lat": 3.7417867, "lon": 38.5788132, "tags": {"name": "Hidilola", "place": "town"}}, {"type": "node", "id": 1150982956, "lat": 3.9, "lon": 38.88333, "tags": {"is_in:country": "Ethiopia", "is_in:country_code": "ET", "name": "El Egder", "place": "locality", "source": "GeoDatabase"}}, {"type": "node", "id": 1151004552, "lat": 3.68333, "lon": 38.83333, "tags": {"is_in:country": "Ethiopia", "is_in:country_code": "ET", "name": "Tuk'A", "place": "locality", "source": "GeoDatabase"}}, {"type": "node", "id": 1151004885, "lat": 3.81667, "lon": 38.71667, "tags": {"is_in:country": "Ethiopia", "is_in:country_code": "ET", "name": "Daluch", "place": "locality", "source": "GeoDatabase"}}]}