{"version": 0.6, "generator": "Overpass API 0.7.62.1 084b4234", "osm3s": {"timestamp_osm_base": "2024-09-30T21:10:24Z", "copyright": "The data included in this document is from www.openstreetmap.org. The data is made available under ODbL."}, "elements": [{"type": "node", "id": 1404221363, "lat": 2.9381215, "lon": 44.1926672, "tags": {"name": "Banyale Yarow", "pcode": "NA-3806-B16-006", "place": "hamlet", "source": "UNDP - 2006"}}, {"type": "node", "id": 1404221372, "lat": 2.95788, "lon": 44.23391, "tags": {"name": "Biyooley", "pcode": "NA-3806-A17-001", "place": "locality", "source": "UNDP - 1997", "source:name": "UNSOA field mission and SPOT5 images data capture", "source:ref": "UNSOA field mission and SPOT5 images data capture"}}, {"type": "node", "id": 1404221623, "lat": 2.8966446, "lon": 44.3089304, "tags": {"alt_name": "Moro-Golole", "name": "Moorqoloole", "pcode": "NA-3806-C18-001", "place": "hamlet", "source:ref": "UNSOA II: E044N02_02, SPOT5 image based data capture using different Ancillary Sources coming from UNSOA field mission."}}, {"type": "node", "id": 1404221720, "lat": 2.898696, "lon": 44.2044036, "tags": {"alt_name": "Warfa", "name": "Warfaa", "pcode": "NA-3806-C16-006", "place": "hamlet", "source": "UNDP - 2006, UNDP - 1997", "source:name": "UNSOA field mission and SPOT5 images data capture"}}, {"type": "node", "id": 1404221727, "lat": 2.85721, "lon": 44.206921, "tags": {"name": "Doog Yarey", "pcode": "NA-3806-D16-005", "place": "village", "source": "UNDP - 1997"}}, {"type": "node", "id": 1404222046, "lat": 2.8504441, "lon": 44.2668764, "tags": {"name": "Kurteeley", "pcode": "NA-3806-D17-002", "place": "hamlet", "source": "UNDP - 2006"}}, {"type": "node", "id": 1404222109, "lat": 2.99114, "lon": 44.30619, "tags": {"alt_name": "Buur-Heybo;Buur Heybe;Buur Haybe", "name": "Bur-Heybe (Main Village)", "pcode": "NA-3806-A18-004", "place": "village", "source": "UNDP - 2006, UNDP - 1997, FSAU"}}, {"type": "node", "id": 1404222194, "lat": 2.9793, "lon": 44.28073, "tags": {"alt_name": "Dhal-Badane", "name": "Berdaale", "pcode": "NA-3806-A18-001", "place": "village", "source:ref": "UNSOA II: E044N02_02, SPOT5 image based data capture using different Ancillary Sources coming from UNSOA field mission."}}, {"type": "node", "id": 1404222531, "lat": 2.97894, "lon": 44.20002, "tags": {"name": "Iskiri", "pcode": "NA-3806-A16-003", "place": "hamlet", "source": "UNDP - 2006"}}, {"type": "node", "id": 1404222676, "lat": 2.8567018, "lon": 44.2381367, "tags": {"name": "Aw Yeroow", "pcode": "NA-3806-D17-004", "place": "locality", "source": "UNDP - 2006, UNDP - 1997", "source:name": "UNSOA field mission and SPOT5 images data capture"}}, {"type": "node", "id": 1404223106, "lat": 2.8536843, "lon": 44.263489, "tags": {"alt_name": "Aw-Yaale", "name": "Aw Yaale", "pcode": "NA-3806-D17-003", "place": "hamlet", "source:ref": "UNSOA II: E044N02_02, SPOT5 image based data capture using different Ancillary Sources coming from UNSOA field mission."}}, {"type": "node", "id": 1404223114, "lat": 2.84419, "lon": 44.216221, "tags": {"name": "Mahadoy", "pcode": "NA-3806-D16-002", "place": "village", "source": "UNDP - 1997"}}, {"type": "node", "id": 1404223163, "lat": 2.9400275, "lon": 44.1898389, "tags": {"alt_name": "Banyale-Wiine", "name": "Banyaal", "pcode": "NA-3806-B16-007", "place": "hamlet", "source": "UNDP - 2006, UNDP - 1997", "source:name": "UNSOA field mission and SPOT5 images data capture"}}, {"type": "node", "id": 1404223238, "lat": 2.99447, "lon": 44.29279, "tags": {"name": "Towfiq", "pcode": "NA-3806-A18-006", "place": "village", "source": "UNDP - 2006"}}, {"type": "node", "id": 1404223447, "lat": 3.0013, "lon": 44.251301, "tags": {"name": "Buulo Bullow", "pcode": "NA-3802-Z17-001", "place": "village", "source": "UNDP - 1997"}}, {"type": "node", "id": 1404223780, "lat": 2.9, "lon": 44.2, "tags": {"name": "Aifodo", "pcode": "NA-3806-C16-008", "place": "locality", "source": "UNDP - 1997", "source:name": "UNSOA field mission and SPOT5 images data capture", "source:ref": "UNSOA field mission and SPOT5 images data capture"}}, {"type": "node", "id": 1404223860, "lat": 2.87237, "lon": 44.18852, "tags": {"alt_name": "Ugarow", "name": "Ugaarow", "pcode": "NA-3806-D16-006", "place": "locality", "source": "UNDP - 1997", "source:name": "UNSOA field mission and SPOT5 images data capture", "source:ref": "UNSOA field mission and SPOT5 images data capture"}}, {"type": "node", "id": 1404223891, "lat": 2.98335, "lon": 44.32523, "tags": {"alt_name": "Xasan Daa'Uud", "name": "Xassan Daa'Ud", "pcode": "NA-3806-A19-004", "place": "village", "source": "UNDP - 2006, UNDP - 1997"}}, {"type": "node", "id": 1404223927, "lat": 2.97908, "lon": 44.31939, "tags": {"alt_name": "Gawaanka", "name": "Qawanka", "pcode": "NA-3806-A19-003", "place": "hamlet", "source": "UNDP - 2006, UNDP - 1997"}}, {"type": "node", "id": 1404224117, "lat": 3.01896, "lon": 44.30061, "tags": {"name": "Xawaal Dhere", "pcode": "NA-3802-Z18-001", "place": "village", "source": "UNDP - 2006"}}, {"type": "node", "id": 1404224207, "lat": 2.9782427, "lon": 44.1901707, "tags": {"name": "Goof", "pcode": "NA-3806-A16-002", "place": "village", "source": "UNDP - 2006, UNDP - 1997", "source:name": "UNSOA field mission and SPOT5 images data capture"}}, {"type": "node", "id": 1404224607, "lat": 2.8807, "lon": 44.2042, "tags": {"alt_name": "Daarow", "name": "Aw Daarow", "pcode": "NA-3806-C16-002", "place": "locality", "source": "UNDP - 1997", "source:name": "UNSOA field mission and SPOT5 images data capture", "source:ref": "UNSOA field mission and SPOT5 images data capture"}}, {"type": "node", "id": 1404224758, "lat": 2.87971, "lon": 44.272469, "tags": {"name": "Aw Misigey", "pcode": "NA-3806-C17-001", "place": "isolated_dwelling", "source": "UNDP - 1997"}}, {"type": "node", "id": 1404224827, "lat": 3.2683, "lon": 44.370499, "tags": {"name": "Karre", "pcode": "NA-3802-T20-001", "place": "hamlet", "source": "UNDP - 1997"}}, {"type": "node", "id": 1404224991, "lat": 3.0285, "lon": 44.27482, "tags": {"name": "Gallol Dheere", "pcode": "NA-3802-Z18-002", "place": "village", "source": "UNDP - 2006"}}, {"type": "node", "id": 1404225034, "lat": 2.8870689, "lon": 44.2719286, "tags": {"name": "Heer Aw Eeden", "pcode": "NA-3806-C17-003", "place": "hamlet", "source:ref": "UNSOA II: E044N02_02, SPOT5 image based data capture using different Ancillary Sources coming from UNSOA field mission."}}, {"type": "node", "id": 1404225464, "lat": 2.99548, "lon": 44.27644, "tags": {"name": "Boholay", "pcode": "NA-3806-A18-007", "place": "village", "source": "UNDP - 2006"}}, {"type": "node", "id": 1404225511, "lat": 3.01828, "lon": 44.191212, "tags": {"name": "Buur Dhajis", "pcode": "NA-3802-Z16-001", "place": "village", "source": "UNDP - 1997"}}, {"type": "node", "id": 1404225809, "lat": 3.04088, "lon": 44.26622, "tags": {"name": "Asaa-Kaay", "pcode": "NA-3802-Z17-003", "place": "village", "source": "UNDP - 2006"}}, {"type": "node", "id": 1404225927, "lat": 2.99201, "lon": 44.29898, "tags": {"name": "Moonay", "pcode": "NA-3806-A18-005", "place": "village", "source": "UNDP - 2006"}}, {"type": "node", "id": 1404226055, "lat": 2.9275339, "lon": 44.2257754, "tags": {"name": "Kuunyo", "pcode": "NA-3806-B16-005", "place": "isolated_dwelling", "source": "UNDP - 1997"}}, {"type": "node", "id": 1404226066, "lat": 2.8617113, "lon": 44.2332192, "tags": {"alt_name": "Reer-Mantaan", "name": "Heer Mataan", "pcode": "NA-3806-D17-005", "place": "hamlet", "source": "UNDP - 2006, UNDP - 1997", "source:name": "UNSOA field mission and SPOT5 images data capture"}}, {"type": "node", "id": 1404226121, "lat": 3.02923, "lon": 44.190449, "tags": {"name": "Aw Mordi", "pcode": "NA-3802-Z16-002", "place": "village", "source": "UNDP - 1997"}}, {"type": "node", "id": 1404226140, "lat": 2.9265389, "lon": 44.1997311, "tags": {"fixme": "is in the right position??", "name": "Bullaawfoqe", "pcode": "NA-3806-B16-003", "place": "village", "source": "FSAU"}}, {"type": "node", "id": 1404226596, "lat": 2.89811, "lon": 44.21994, "tags": {"alt_name": "Ay-Dooye", "name": "Ay Dooya", "pcode": "NA-3806-C16-005", "place": "hamlet", "source": "UNDP - 2006, UNDP - 1997", "source:name": "UNSOA field mission and SPOT5 images data capture"}}, {"type": "node", "id": 1404226774, "lat": 2.8449, "lon": 44.2478, "tags": {"name": "Aw Yarow Maroodlyoow", "pcode": "NA-3806-D17-001", "place": "locality", "source": "UNDP - 1997", "source:name": "UNSOA field mission and SPOT5 images data capture", "source:ref": "UNSOA field mission and SPOT5 images data capture"}}, {"type": "node", "id": 1404226900, "lat": 2.9046, "lon": 44.1855, "tags": {"name": "Aw Kuulaw", "pcode": "NA-3806-C16-007", "place": "locality", "source": "UNDP - 1997", "source:name": "UNSOA field mission and SPOT5 images data capture", "source:ref": "UNSOA field mission and SPOT5 images data capture"}}, {"type": "node", "id": 1404227788, "lat": 2.9271493, "lon": 44.2061334, "tags": {"name": "Galool Dheere", "pcode": "NA-3806-B16-004", "place": "hamlet", "source": "UNDP - 2006, UNDP - 1997", "source:name": "UNSOA field mission and SPOT5 images data capture"}}, {"type": "node", "id": 1404229358, "lat": 2.8856163, "lon": 44.268651, "tags": {"alt_name": "Shiidaalow", "name": "Shidaloow", "pcode": "NA-3806-C17-002", "place": "hamlet", "source": "UNDP - 2006, UNDP - 1997"}}, {"type": "node", "id": 1404229470, "lat": 2.92646, "lon": 44.31226, "tags": {"name": "Shirfoole", "pcode": "NA-3806-B18-002", "place": "village", "source": "UNDP - 2006"}}, {"type": "node", "id": 1404229838, "lat": 2.8903169, "lon": 44.2471275, "tags": {"alt_name": "Rebooy", "name": "Heebooy", "pcode": "NA-3806-C17-004", "place": "hamlet", "source": "UNDP - 2006, UNDP - 1997", "source:name": "UNSOA field mission and SPOT5 images data capture"}}, {"type": "node", "id": 1404229921, "lat": 3.01396, "lon": 44.250542, "tags": {"name": "Harganta Enow", "pcode": "NA-3802-Z17-002", "place": "village", "source": "UNDP - 1997"}}, {"type": "node", "id": 1404229964, "lat": 2.9846, "lon": 44.28502, "tags": {"name": "Maayko Fuuri", "pcode": "NA-3806-A18-003", "place": "village", "source": "UNDP - 2006"}}, {"type": "node", "id": 1404230004, "lat": 2.97474, "lon": 44.33575, "tags": {"alt_name": "Heudooliyow", "name": "Hondoliyow", "pcode": "NA-3806-A19-002", "place": "village", "source": "UNDP - 2006, UNDP - 1997"}}, {"type": "node", "id": 1404230660, "lat": 2.88207, "lon": 44.188141, "tags": {"name": "Degdaa", "pcode": "NA-3806-C16-003", "place": "hamlet", "source": "UNDP - 1997"}}, {"type": "node", "id": 1404231173, "lat": 2.90061, "lon": 44.26088, "tags": {"alt_name": "Raaro", "name": "Haarow", "pcode": "NA-3806-C17-005", "place": "village", "source:ref": "UNSOA II: E044N02_02, SPOT5 image based data capture using different Ancillary Sources coming from UNSOA field mission."}}, {"type": "node", "id": 1404231207, "lat": 2.89858, "lon": 44.300549, "tags": {"name": "Moorqoloole", "pcode": "NA-3806-C18-002", "place": "hamlet", "source": "UNDP - 1997"}}, {"type": "node", "id": 1404231238, "lat": 2.91728, "lon": 44.20126, "tags": {"fixme": "is in the right position??", "name": "Kunyoo", "pcode": "NA-3806-B16-001", "place": "village", "source": "UNDP - 2006"}}, {"type": "node", "id": 1404231385, "lat": 2.92177, "lon": 44.31316, "tags": {"name": "Buulo-Baloow", "pcode": "NA-3806-B18-001", "place": "village", "source": "UNDP - 2006"}}, {"type": "node", "id": 1404231428, "lat": 2.85588, "lon": 44.2082, "tags": {"name": "Galool-Oomani", "pcode": "NA-3806-D16-004", "place": "village", "source": "UNDP - 2006"}}, {"type": "node", "id": 1404231618, "lat": 2.91684, "lon": 44.20113, "tags": {"name": "Heer Isaaq", "pcode": "NA-3806-C16-009", "place": "locality", "source": "UNDP - 1997", "source:name": "UNSOA field mission and SPOT5 images data capture", "source:ref": "UNSOA field mission and SPOT5 images data capture"}}, {"type": "node", "id": 1404231734, "lat": 2.9562, "lon": 44.28604, "tags": {"alt_name": "Galool Oomane", "name": "Golool-Oomane", "pcode": "NA-3806-B18-004", "place": "village", "source": "UNDP - 2006, UNDP - 1997"}}, {"type": "node", "id": 1404231741, "lat": 2.9686, "lon": 44.34083, "tags": {"name": "Buulo Mariin", "pcode": "NA-3806-A19-001", "place": "village", "source": "UNDP - 2006"}}, {"type": "node", "id": 1404231843, "lat": 2.96346, "lon": 44.25978, "tags": {"name": "Eeyta", "pcode": "NA-3806-A17-002", "place": "village", "source": "UNDP - 2006"}}, {"type": "node", "id": 1404231939, "lat": 2.8540038, "lon": 44.1847551, "tags": {"name": "Balaaw", "pcode": "NA-3806-D16-003", "place": "hamlet", "source": "UNDP - 1997"}}, {"type": "node", "id": 1404232381, "lat": 2.9274, "lon": 44.250599, "tags": {"name": "Mahamudo", "pcode": "NA-3806-B17-001", "place": "village", "source": "UNDP - 1997"}}, {"type": "node", "id": 1404233208, "lat": 2.98286, "lon": 44.28184, "tags": {"name": "Buulo Doonka", "pcode": "NA-3806-A18-002", "place": "village", "source": "UNDP - 2006"}}, {"type": "node", "id": 1404233289, "lat": 2.95083, "lon": 44.297291, "tags": {"name": "Waagle", "pcode": "NA-3806-B18-003", "place": "village", "source": "UNDP - 1997"}}, {"type": "node", "id": 1404233300, "lat": 2.9524461, "lon": 44.1905505, "tags": {"name": "Riinow", "pcode": "NA-3806-B16-008", "place": "isolated_dwelling", "source": "UNDP - 2006"}}, {"type": "node", "id": 1404233480, "lat": 2.9269225, "lon": 44.201421, "tags": {"name": "Heer Eaqi", "pcode": "NA-3806-B16-002", "place": "hamlet", "source": "UNDP - 1997", "source:name": "UNSOA field mission and SPOT5 images data capture"}}, {"type": "node", "id": 1404233484, "lat": 2.93734, "lon": 44.3505, "tags": {"name": "Madoweey", "pcode": "NA-3806-B19-001", "place": "village", "source": "UNDP - 2006"}}, {"type": "node", "id": 1404233628, "lat": 2.9595639, "lon": 44.209048, "tags": {"name": "Madow Burre", "pcode": "NA-3806-A16-001", "place": "hamlet", "source": "UNDP - 1997", "source:name": "UNSOA field mission and SPOT5 images data capture"}}, {"type": "node", "id": 1404233668, "lat": 2.86314, "lon": 44.24755, "tags": {"alt_name": "Ebdiyoow Gedow", "name": "Cabdiyow Geedow", "pcode": "NA-3806-D17-006", "place": "hamlet", "source": "UNDP - 2006, UNDP - 1997", "source:name": "UNSOA field mission and SPOT5 images data capture"}}, {"type": "node", "id": 1404233741, "lat": 2.90895, "lon": 44.28507, "tags": {"name": "Wanaay", "pcode": "NA-3806-C18-003", "place": "hamlet", "source": "UNDP - 2006"}}, {"type": "node", "id": 6119393120, "lat": 2.9, "lon": 44.23333, "tags": {"name": "Curcurta", "place": "locality", "source:name": "UNSOA field mission and SPOT5 images data capture", "source:ref": "UNSOA field mission and SPOT5 images data capture"}}, {"type": "node", "id": 6119393121, "lat": 2.93703, "lon": 44.22407, "tags": {"name": "Kuunyo", "place": "locality", "source:name": "UNSOA field mission and SPOT5 images data capture", "source:ref": "UNSOA field mission and SPOT5 images data capture"}}, {"type": "node", "id": 6119393124, "lat": 2.9137, "lon": 44.2493, "tags": {"name": "Gurgurta", "place": "locality", "source:name": "UNSOA field mission and SPOT5 images data capture", "source:ref": "UNSOA field mission and SPOT5 images data capture"}}, {"type": "node", "id": 6119393125, "lat": 2.86128, "lon": 44.23984, "tags": {"name": "Galool Dheere", "place": "locality", "source:name": "UNSOA field mission and SPOT5 images data capture", "source:ref": "UNSOA field mission and SPOT5 images data capture"}}, {"type": "node", "id": 6121178448, "lat": 2.9743287, "lon": 44.1847948, "tags": {"place": "hamlet", "source:ref": "UNSOA field mission and SPOT5 images data capture"}}, {"type": "node", "id": 6121178601, "lat": 2.8410616, "lon": 44.2416745, "tags": {"place": "isolated_dwelling", "source:ref": "UNSOA field mission and SPOT5 images data capture"}}, {"type": "node", "id": 6121178651, "lat": 2.8693298, "lon": 44.2042199, "tags": {"name": "Kuunyo", "place": "hamlet", "source:name": "UNSOA field mission and SPOT5 images data capture", "source:ref": "UNSOA field mission and SPOT5 images data capture"}}, {"type": "node", "id": 6121178696, "lat": 2.8434331, "lon": 44.2246349, "tags": {"name": "Mahadoy", "place": "hamlet", "source:name": "UNSOA field mission and SPOT5 images data capture", "source:ref": "UNSOA field mission and SPOT5 images data capture"}}, {"type": "node", "id": 6121178704, "lat": 2.8519332, "lon": 44.2118517, "tags": {"name": "Doog Yarey", "place": "isolated_dwelling", "source:name": "UNSOA field mission and SPOT5 images data capture", "source:ref": "UNSOA field mission and SPOT5 images data capture"}}, {"type": "node", "id": 6121178738, "lat": 2.8844154, "lon": 44.1886176, "tags": {"name": "Degdaa", "place": "isolated_dwelling", "source:name": "UNSOA field mission and SPOT5 images data capture", "source:ref": "UNSOA field mission and SPOT5 images data capture"}}, {"type": "node", "id": 6121178788, "lat": 2.9088223, "lon": 44.2309932, "tags": {"name": "Hoogey", "place": "locality", "source:name": "UNSOA field mission and SPOT5 images data capture", "source:ref": "UNSOA field mission and SPOT5 images data capture"}}, {"type": "node", "id": 6137505375, "lat": 2.8762925, "lon": 44.2066509, "tags": {"name": "Uqoonta", "pcode": "NA-3806-C16-001", "place": "hamlet", "source": "UNDP - 1997", "source:name": "UNSOA field mission and SPOT5 images data capture", "source:ref": "UNSOA field mission and SPOT5 images data capture"}}, {"type": "node", "id": 6241338358, "lat": 3.1858915, "lon": 44.2321774, "tags": {"place": "isolated_dwelling"}}, {"type": "node", "id": 6276737247, "lat": 2.8840041, "lon": 44.2715093, "tags": {"name": "Aw Misigey", "place": "hamlet", "source:ref": "UNSOA II: E044N02_02, SPOT5 image based data capture using different Ancillary Sources coming from UNSOA field mission."}}, {"type": "node", "id": 6276737250, "lat": 2.8895117, "lon": 44.2683551, "tags": {"name": "Shiidaalow", "place": "hamlet", "source:ref": "UNSOA II: E044N02_02, SPOT5 image based data capture using different Ancillary Sources coming from UNSOA field mission."}}, {"type": "node", "id": 6278736061, "lat": 2.9899863, "lon": 44.2836222, "tags": {"place": "hamlet"}}, {"type": "node", "id": 6278736550, "lat": 2.9926595, "lon": 44.2856754, "tags": {"place": "hamlet"}}, {"type": "node", "id": 6362671367, "lat": 2.9792506, "lon": 44.3109083, "tags": {"place": "isolated_dwelling"}}, {"type": "node", "id": 6362671368, "lat": 2.9821703, "lon": 44.3018746, "tags": {"place": "isolated_dwelling"}}, {"type": "node", "id": 6362671369, "lat": 2.9804828, "lon": 44.306606, "tags": {"place": "isolated_dwelling"}}, {"type": "node", "id": 7687531644, "lat": 2.9017993, "lon": 44.2577898, "tags": {"place": "hamlet"}}, {"type": "node", "id": 7687982109, "lat": 2.982272, "lon": 44.3130058, "tags": {"place": "hamlet"}}, {"type": "node", "id": 7711005924, "lat": 2.9675451, "lon": 44.2674136, "tags": {"place": "hamlet"}}, {"type": "node", "id": 7714011395, "lat": 2.8644339, "lon": 44.4518316, "tags": {"place": "hamlet"}}, {"type": "node", "id": 7714011397, "lat": 2.851065, "lon": 44.4189262, "tags": {"place": "hamlet"}}, {"type": "node", "id": 7715937952, "lat": 2.8443945, "lon": 44.2403662, "tags": {"place": "isolated_dwelling"}}, {"type": "node", "id": 7715937984, "lat": 2.8471324, "lon": 44.2149898, "tags": {"place": "hamlet"}}, {"type": "node", "id": 7716023844, "lat": 2.8979392, "lon": 44.2090836, "tags": {"place": "hamlet"}}, {"type": "node", "id": 7716070321, "lat": 2.8738755, "lon": 44.1845012, "tags": {"place": "hamlet"}}, {"type": "node", "id": 7717098747, "lat": 2.9244401, "lon": 44.2112079, "tags": {"place": "hamlet"}}, {"type": "node", "id": 7719458108, "lat": 2.9685684, "lon": 44.2219394, "tags": {"place": "isolated_dwelling"}}, {"type": "node", "id": 7719466254, "lat": 3.2381821, "lon": 44.2241442, "tags": {"place": "hamlet"}}, {"type": "node", "id": 7719466255, "lat": 3.2464595, "lon": 44.1923466, "tags": {"place": "hamlet"}}, {"type": "node", "id": 7719466276, "lat": 3.2134592, "lon": 44.2329124, "tags": {"place": "hamlet"}}, {"type": "node", "id": 7719765304, "lat": 2.9360764, "lon": 44.1972363, "tags": {"place": "hamlet"}}, {"type": "node", "id": 7720127352, "lat": 3.0431812, "lon": 44.2481996, "tags": {"place": "isolated_dwelling"}}, {"type": "node", "id": 7720127354, "lat": 3.2179475, "lon": 44.1850108, "tags": {"place": "hamlet"}}, {"type": "node", "id": 7720688464, "lat": 2.9624558, "lon": 44.2093491, "tags": {"place": "hamlet"}}]}