{"version": 0.6, "generator": "Overpass API 0.7.62.1 084b4234", "osm3s": {"timestamp_osm_base": "2024-09-30T22:26:08Z", "copyright": "The data included in this document is from www.openstreetmap.org. The data is made available under ODbL."}, "elements": [{"type": "node", "id": 1150881161, "lat": 7.5, "lon": 39.5, "tags": {"is_in:country": "Ethiopia", "is_in:country_code": "ET", "name": "Arssi Administrative Region", "place": "locality", "source": "GeoDatabase"}}, {"type": "node", "id": 1150881979, "lat": 7.71667, "lon": 39.63333, "tags": {"is_in:country": "Ethiopia", "is_in:country_code": "ET", "name": "Angadicciu", "place": "locality", "source": "GeoDatabase"}}, {"type": "node", "id": 1150882681, "lat": 7.4079469, "lon": 39.2417452, "tags": {"name": "\u1218\u122b\u122e / Meraro", "name:am": "\u1218\u122b\u122e", "name:en": "Meraro", "name:fr": "Meraro", "note": "Translation source: http://translator.abyssinica.com/.", "place": "town", "source": "GeoDatabase", "wikidata": "Q3306256", "wikipedia": "en:Meraro"}}, {"type": "node", "id": 1150883269, "lat": 7.68333, "lon": 39.25, "tags": {"is_in:country": "Ethiopia", "is_in:country_code": "ET", "name": "Negele", "place": "locality", "source": "GeoDatabase"}}, {"type": "node", "id": 1150883586, "lat": 7.65, "lon": 39.46667, "tags": {"is_in:country": "Ethiopia", "is_in:country_code": "ET", "name": "T'Icho Bota", "place": "locality", "source": "GeoDatabase"}}, {"type": "node", "id": 1150884828, "lat": 7.53333, "lon": 39.5, "tags": {"is_in:country": "Ethiopia", "is_in:country_code": "ET", "name": "Ido", "place": "locality", "source": "GeoDatabase"}}, {"type": "node", "id": 1150887009, "lat": 7.66667, "lon": 39.25, "tags": {"is_in:country": "Ethiopia", "is_in:country_code": "ET", "name": "T'Ijo Bota", "place": "locality", "source": "GeoDatabase"}}, {"type": "node", "id": 1150887371, "lat": 7.7326889, "lon": 39.572246, "tags": {"name": "Kela", "place": "town", "source": "GeoDatabase"}}, {"type": "node", "id": 1150888218, "lat": 7.6211, "lon": 39.494949, "tags": {"name": "Gobesa", "name:zh": "\u6208\u8c9d\u85a9", "place": "town", "wikidata": "Q3109609", "wikipedia": "en:Gobesa"}}, {"type": "node", "id": 1150889190, "lat": 7.46667, "lon": 39.51667, "tags": {"is_in:country": "Ethiopia", "is_in:country_code": "ET", "name": "Gemoji", "place": "locality", "source": "GeoDatabase"}}, {"type": "node", "id": 1150889194, "lat": 7.45, "lon": 39.5, "tags": {"is_in:country": "Ethiopia", "is_in:country_code": "ET", "name": "Memunye Shet'", "place": "locality", "source": "GeoDatabase"}}, {"type": "node", "id": 1150902190, "lat": 7.4, "lon": 39.28333, "tags": {"is_in:country": "Ethiopia", "is_in:country_code": "ET", "name": "Meranyo", "place": "locality", "source": "GeoDatabase"}}, {"type": "node", "id": 1150903251, "lat": 7.36667, "lon": 39.23333, "tags": {"is_in:country": "Ethiopia", "is_in:country_code": "ET", "name": "Marcos", "place": "locality", "source": "GeoDatabase"}}, {"type": "node", "id": 1150908821, "lat": 7.63333, "lon": 39.61667, "tags": {"is_in:country": "Ethiopia", "is_in:country_code": "ET", "name": "Were Bota", "place": "locality", "source": "GeoDatabase"}}, {"type": "node", "id": 1150917051, "lat": 7.41667, "lon": 39.45, "tags": {"is_in:country": "Ethiopia", "is_in:country_code": "ET", "name": "Halela Aulia", "place": "locality", "source": "GeoDatabase"}}, {"type": "node", "id": 1150921791, "lat": 7.5, "lon": 39.3, "tags": {"is_in:country": "Ethiopia", "is_in:country_code": "ET", "name": "Hululle", "place": "locality", "source": "GeoDatabase"}}, {"type": "node", "id": 1150923352, "lat": 7.71667, "lon": 39.55, "tags": {"is_in:country": "Ethiopia", "is_in:country_code": "ET", "name": "Moschea Osman", "place": "locality", "source": "GeoDatabase"}}, {"type": "node", "id": 1150924327, "lat": 7.53333, "lon": 39.25, "tags": {"name": "\u1260\u1246\u1302 / Bekoji", "name:am": "\u1260\u1246\u1302", "name:en": "Bekoji", "name:fr": "Bekoji", "note": "Translation source: http://translator.abyssinica.com/.", "place": "town", "wikidata": "Q815044", "wikipedia": "en:Bekoji"}}, {"type": "node", "id": 1150936352, "lat": 7.68333, "lon": 39.63333, "tags": {"is_in:country": "Ethiopia", "is_in:country_code": "ET", "name": "Baddesa", "place": "locality", "source": "GeoDatabase"}}, {"type": "node", "id": 1150947596, "lat": 7.3971731, "lon": 39.3944789, "tags": {"name": "Siltana", "place": "village", "source": "GeoDatabase"}}, {"type": "node", "id": 1150953227, "lat": 7.36667, "lon": 39.31666, "tags": {"is_in:country": "Ethiopia", "is_in:country_code": "ET", "name": "Farichu", "place": "locality", "source": "GeoDatabase"}}, {"type": "node", "id": 1150955774, "lat": 7.4, "lon": 39.25, "tags": {"is_in:country": "Ethiopia", "is_in:country_code": "ET", "name": "Sella Di Carra", "place": "locality", "source": "GeoDatabase"}}, {"type": "node", "id": 1150967123, "lat": 7.51667, "lon": 39.43333, "tags": {"is_in:country": "Ethiopia", "is_in:country_code": "ET", "name": "Guna", "place": "locality", "source": "GeoDatabase"}}, {"type": "node", "id": 1151002513, "lat": 7.63333, "lon": 39.26667, "tags": {"is_in:country": "Ethiopia", "is_in:country_code": "ET", "name": "Santa Maria Di Liemu", "place": "locality", "source": "GeoDatabase"}}, {"type": "node", "id": 1900553723, "lat": 7.6906214, "lon": 39.247839, "tags": {"name": "Tiyo", "name:en": "Tijo", "place": "town", "wikidata": "Q3528386", "wikipedia": "en:Tijo"}}, {"type": "node", "id": 1911713870, "lat": 7.5288413, "lon": 39.4737367, "tags": {"name": "Gado Dona", "place": "town"}}, {"type": "node", "id": 1911743899, "lat": 7.5472497, "lon": 39.6143901, "tags": {"name": "Chole", "place": "village"}}, {"type": "node", "id": 1953127867, "lat": 7.437069, "lon": 39.4779267, "tags": {"name": "Mechitu", "place": "town"}}, {"type": "node", "id": 10154977836, "lat": 7.6701418, "lon": 39.4892844, "tags": {"place": "village"}}]}