{"version": 0.6, "generator": "Overpass API 0.7.62.1 084b4234", "osm3s": {"timestamp_osm_base": "2024-09-30T23:57:58Z", "copyright": "The data included in this document is from www.openstreetmap.org. The data is made available under ODbL."}, "elements": [{"type": "node", "id": 1150921885, "lat": 6.50139, "lon": 44.90528, "tags": {"is_in:country_code": "ET", "is_in:county": "Ethiopia", "name": "Uafdug", "place": "locality", "source": "GeoDatabase"}}, {"type": "node", "id": 1150927965, "lat": 6.39417, "lon": 44.86111, "tags": {"is_in:country_code": "ET", "is_in:county": "Ethiopia", "name": "Garmuda", "place": "locality", "source": "GeoDatabase"}}, {"type": "node", "id": 3129385919, "lat": 6.4333946, "lon": 45.0164347, "tags": {"name": "Jaleelo", "place": "village"}}, {"type": "node", "id": 3129390057, "lat": 6.3397374, "lon": 44.9623185, "tags": {"name": "Bali Wariri", "place": "village"}}, {"type": "node", "id": 10034980524, "lat": 6.3608224, "lon": 45.0451015, "tags": {"name": "Bali Midgan", "place": "locality"}}, {"type": "node", "id": 10034980535, "lat": 6.2740582, "lon": 45.138995, "tags": {"alt_name": "Caleen", "name": "Aleen", "place": "village"}}, {"type": "node", "id": 10034980543, "lat": 6.388943, "lon": 44.9454871, "tags": {"name": "Xodole", "place": "village"}}, {"type": "node", "id": 10224731554, "lat": 6.2569499, "lon": 45.2445796, "tags": {"name": "Higlowayn", "place": "locality"}}]}