{"version": 0.6, "generator": "Overpass API 0.7.62.1 084b4234", "osm3s": {"timestamp_osm_base": "2024-09-30T21:10:24Z", "copyright": "The data included in this document is from www.openstreetmap.org. The data is made available under ODbL."}, "elements": [{"type": "node", "id": 36305949, "lat": 2.794785, "lon": 44.0784549, "tags": {"alt_name": "Bur Hakkaba;Buur-Hakba;Bur Acaba", "name": "Buurhakaba \u0628\u0648\u0631\u062d\u0643\u0628", "name:ar": "\u0628\u0648\u0631\u062d\u0643\u0628", "name:de": "Buurhakaba", "name:en": "Buurhakaba", "name:es": "Buurhakaba", "name:fr": "Buur Hakaba", "name:it": "Bur Acaba", "name:pl": "Buur Gaabo", "name:ro": "Buurhakaba", "name:so": "Buurhakaba", "name:sw": "Buurhakaba", "name:ur": "\u0628\u0631\u06c1\u0627\u06a9\u0627\u0628\u0627", "name:zu": "Burhakaba", "place": "city", "wikidata": "Q1018270", "wikipedia": "en:Burhakaba"}}, {"type": "node", "id": 1401889320, "lat": 2.64608, "lon": 43.83562, "tags": {"alt_name": "Buur Geydinie", "ele": "265", "gns:modify_date": "2011-06-30", "gns:name:generic": "Buur", "gns:name:variants": "Bur Gheiden;Buur Geydinie", "gns:type": "HLL", "gns:ufi": "11235255", "name": "Buur Geydinle", "place": "locality", "source": "GNS"}}, {"type": "node", "id": 1404221329, "lat": 2.8072867, "lon": 44.1303991, "tags": {"alt_name": "Ban-Buraale", "name": "Bamburaale", "pcode": "NA-3806-E14-008", "place": "village", "source": "UNDP - 2006, UNDP - 1997", "source:name": "UNSOA field mission and SPOT5 images data capture"}}, {"type": "node", "id": 1404221337, "lat": 2.67253, "lon": 44.14489, "tags": {"alt_name": "Kunyo Rooble", "name": "Guunyo Rooble", "pcode": "NA-3806-H15-001", "place": "hamlet", "source": "UNDP - 2006, UNDP - 1997", "source:ref": "UNSOA I: E044N02_05, SPOT5 image based data capture using different Ancillary Sources coming from UNSOA field mission."}}, {"type": "node", "id": 1404221487, "lat": 2.66674, "lon": 43.970451, "tags": {"name": "Galoollo", "pcode": "NA-3806-H11-001", "place": "village", "source": "UNDP - 1997"}}, {"type": "node", "id": 1404221569, "lat": 2.60483, "lon": 44.01952, "tags": {"alt_name": "Garba Dheer", "name": "Aw-Maari", "pcode": "NA-3806-K12-004", "place": "hamlet", "source": "UNDP - 2006, UNDP - 1997", "source:ref": "UNSOA I: E044N02_05, SPOT5 image based data capture using different Ancillary Sources coming from UNSOA field mission."}}, {"type": "node", "id": 1404221629, "lat": 2.52419, "lon": 44.09402, "tags": {"name": "Gel-Gelow Wiin", "pcode": "NA-3806-M14-007", "place": "isolated_dwelling", "source": "UNDP - 2006"}}, {"type": "node", "id": 1404221677, "lat": 2.76575, "lon": 43.785931, "tags": {"name": "Macalim Midan", "pcode": "NA-3806-F07-002", "place": "locality", "source": "UNDP - 1997"}}, {"type": "node", "id": 1404221827, "lat": 2.546238, "lon": 43.989898, "tags": {"name": "Moori-Boor", "pcode": "NA-3806-L11-002", "place": "isolated_dwelling", "source": "UNDP - 2006"}}, {"type": "node", "id": 1404221897, "lat": 2.77681, "lon": 44.04582, "tags": {"name": "Watariiriya", "pcode": "NA-3806-F12-003", "place": "locality", "source": "UNDP - 1997", "source:name": "UNSOA field mission and SPOT5 images data capture", "source:ref": "UNSOA field mission and SPOT5 images data capture"}}, {"type": "node", "id": 1404221998, "lat": 2.8338592, "lon": 44.1287415, "tags": {"alt_name": "Macruuf", "name": "Macaruufa", "pcode": "NA-3806-D14-001", "place": "hamlet", "source": "UNDP - 2006, UNDP - 1997", "source:name": "UNSOA field mission and SPOT5 images data capture"}}, {"type": "node", "id": 1404222098, "lat": 2.50982, "lon": 44.10745, "tags": {"name": "Balow Yari", "pcode": "NA-3806-M14-004", "place": "isolated_dwelling", "source": "UNDP - 2006"}}, {"type": "node", "id": 1404222300, "lat": 2.804729, "lon": 44.1539711, "tags": {"alt_name": "Salmisga", "name": "Sal Misge", "pcode": "NA-3806-E15-002", "place": "hamlet", "source": "UNDP - 2006, UNDP - 1997", "source:name": "UNSOA field mission and SPOT5 images data capture"}}, {"type": "node", "id": 1404222348, "lat": 2.7101, "lon": 44.08121, "tags": {"alt_name": "Dhuubow;Aw-Dhhubow", "name": "Aw Dhuubow", "pcode": "NA-3806-G13-001", "place": "hamlet", "source": "UNDP - 2006, UNDP - 1997", "source:ref": "UNSOA I: E044N02_05, SPOT5 image based data capture using different Ancillary Sources coming from UNSOA field mission."}}, {"type": "node", "id": 1404222519, "lat": 2.69551, "lon": 44.178982, "tags": {"name": "Dhaayow", "pcode": "NA-3806-H15-002", "place": "locality", "source": "UNDP - 1997", "source:ref": "UNSOA I: E044N02_05, SPOT5 image based data capture using different Ancillary Sources coming from UNSOA field mission."}}, {"type": "node", "id": 1404222552, "lat": 2.5733354, "lon": 43.9729552, "tags": {"name": "Sodoori", "pcode": "NA-3806-L11-005", "place": "village", "source": "UNDP - 2006"}}, {"type": "node", "id": 1404222660, "lat": 2.6358857, "lon": 44.0595614, "tags": {"SRC_INFO": "UNSOA I: E044N02_05, SPOT5 image based data capture using different Ancillary Sources coming from UNSOA field mission.", "name": "Madige Madishe", "pcode": "NA-3806-J13-001", "place": "hamlet", "source": "UNDP - 1997", "source:ref": "Madije Madishe"}}, {"type": "node", "id": 1404222735, "lat": 2.72375, "lon": 44.03466, "tags": {"name": "Dooye Shiidle", "pcode": "NA-3806-G12-001", "place": "hamlet", "source": "UNDP - 1997"}}, {"type": "node", "id": 1404222797, "lat": 2.56002, "lon": 44.12487, "tags": {"name": "Waririya", "pcode": "NA-3806-L14-003", "place": "hamlet", "source": "UNDP - 2006"}}, {"type": "node", "id": 1404222804, "lat": 2.8042373, "lon": 43.9247793, "tags": {"alt_name": "Kuunya Korey", "name": "Kuunya", "pcode": "NA-3806-E10-001", "place": "hamlet", "source": "UNDP - 2006, UNDP - 1997, FSAU", "source:name": "UNSOA field mission and SPOT5 images data capture"}}, {"type": "node", "id": 1404222888, "lat": 2.4985464, "lon": 44.1033401, "tags": {"name": "Aw-Mayow", "pcode": "NA-3806-M14-001", "place": "hamlet", "source": "UNDP - 2006"}}, {"type": "node", "id": 1404222924, "lat": 2.8224201, "lon": 44.0639794, "tags": {"name": "Reebey", "pcode": "NA-3806-E13-011", "place": "isolated_dwelling", "source": "UNDP - 2006"}}, {"type": "node", "id": 1404223115, "lat": 2.7623995, "lon": 44.0976747, "tags": {"alt_name": "Abaawle (2)", "name": "Abaawle", "pcode": "NA-3806-F14-003", "place": "hamlet", "source": "UNDP - 2006", "source:ref": "UNSOA field mission and SPOT5 images data capture"}}, {"type": "node", "id": 1404223317, "lat": 2.81127, "lon": 44.10975, "tags": {"alt_name": "Aw-Basoow", "name": "Aw Baasow", "pcode": "NA-3806-E14-009", "place": "hamlet", "source": "UNDP - 2006, UNDP - 1997", "source:name": "UNSOA field mission and SPOT5 images data capture"}}, {"type": "node", "id": 1404223346, "lat": 2.51793, "lon": 44.09383, "tags": {"name": "Gelelow-Yarey", "pcode": "NA-3806-M14-006", "place": "isolated_dwelling", "source": "UNDP - 2006"}}, {"type": "node", "id": 1404223366, "lat": 2.74615, "lon": 44.10859, "tags": {"alt_name": "Meheey", "name": "Mehey", "pcode": "NA-3806-G14-008", "place": "hamlet", "source": "UNDP - 2006", "source:ref": "UNSOA I: E044N02_05, SPOT5 image based data capture using different Ancillary Sources coming from UNSOA field mission."}}, {"type": "node", "id": 1404223497, "lat": 2.6234962, "lon": 44.0648281, "tags": {"name": "Dooday", "pcode": "NA-3806-K13-001", "place": "hamlet", "source": "UNDP - 1997"}}, {"type": "node", "id": 1404223544, "lat": 2.79307, "lon": 44.02839, "tags": {"name": "Wadag (Town", "pcode": "NA-3806-E12-001", "place": "hamlet", "source": "UNDP - 2006"}}, {"type": "node", "id": 1404223607, "lat": 2.64538, "lon": 44.16506, "tags": {"alt_name": "Dowaay", "name": "Dhawey", "pcode": "NA-3806-J15-001", "place": "village", "source": "UNDP - 2006, UNDP - 1997", "source:ref": "UNSOA I: E044N02_05, SPOT5 image based data capture using different Ancillary Sources coming from UNSOA field mission."}}, {"type": "node", "id": 1404223635, "lat": 2.5833896, "lon": 43.9651632, "tags": {"name": "Han Farow", "pcode": "NA-3806-L11-006", "place": "village", "source": "UNDP - 2006"}}, {"type": "node", "id": 1404223655, "lat": 2.81494, "lon": 44.047932, "tags": {"name": "Aw Yaay", "pcode": "NA-3806-E13-009", "place": "village", "source": "UNDP - 1997"}}, {"type": "node", "id": 1404223658, "lat": 2.5603095, "lon": 44.1516373, "tags": {"name": "Weel-Lawi", "pcode": "NA-3806-L15-003", "place": "hamlet", "source": "UNDP - 2006"}}, {"type": "node", "id": 1404223715, "lat": 2.59711, "lon": 43.95937, "tags": {"alt_name": "Baloole", "name": "Bulul Yare", "pcode": "NA-3806-K11-001", "place": "village", "source": "UNDP - 2006, UNDP - 1997"}}, {"type": "node", "id": 1404223771, "lat": 2.49438, "lon": 44.09219, "tags": {"name": "Banyari", "pcode": "NA-3806-N14-002", "place": "hamlet", "source": "UNDP - 2006"}}, {"type": "node", "id": 1404223776, "lat": 2.52503, "lon": 44.01094, "tags": {"alt_name": "Dhagardheere", "name": "Dagardhere", "pcode": "NA-3806-M12-001", "place": "hamlet", "source": "UNDP - 2006, UNDP - 1997", "source:ref": "UNSOA I: E044N02_05, SPOT5 image based data capture using different Ancillary Sources coming from UNSOA field mission."}}, {"type": "node", "id": 1404223831, "lat": 2.8124063, "lon": 44.0932388, "tags": {"name": "Dacarre Yarey", "pcode": "NA-3806-E14-011", "place": "hamlet", "source": "UNDP - 1997", "source:name": "UNSOA field mission and SPOT5 images data capture"}}, {"type": "node", "id": 1404223850, "lat": 2.709494, "lon": 44.1035052, "tags": {"name": "Fiinka", "pcode": "NA-3806-G14-001", "place": "hamlet", "source": "UNDP - 2006, UNDP - 1997", "source:ref": "UNSOA I: E044N02_05, SPOT5 image based data capture using different Ancillary Sources coming from UNSOA field mission."}}, {"type": "node", "id": 1404223922, "lat": 2.78045, "lon": 43.95959, "tags": {"name": "Galool-Tuur", "pcode": "NA-3806-F11-002", "place": "locality", "source": "UNDP - 2006"}}, {"type": "node", "id": 1404223925, "lat": 2.5993034, "lon": 44.0235211, "tags": {"name": "Libayle", "pcode": "NA-3806-K12-003", "place": "village", "source": "UNDP - 1997"}}, {"type": "node", "id": 1404224074, "lat": 2.66217, "lon": 44.15751, "tags": {"alt_name": "Banbesla", "name": "Benbesle", "pcode": "NA-3806-J15-003", "place": "hamlet", "source": "UNDP - 2006, UNDP - 1997", "source:ref": "UNSOA I: E044N02_05, SPOT5 image based data capture using different Ancillary Sources coming from UNSOA field mission."}}, {"type": "node", "id": 1404224410, "lat": 2.78752, "lon": 44.02655, "tags": {"name": "Hubsaay", "pcode": "NA-3806-F12-004", "place": "hamlet", "source": "UNDP - 1997", "source:name": "UNSOA field mission and SPOT5 images data capture"}}, {"type": "node", "id": 1404224431, "lat": 2.7952, "lon": 44.09506, "tags": {"name": "Ediin Lidoow", "pcode": "NA-3806-E14-002", "place": "village", "source": "UNDP - 2006"}}, {"type": "node", "id": 1404224467, "lat": 2.74089, "lon": 44.10074, "tags": {"alt_name": "Oodin", "name": "Oodan", "pcode": "NA-3806-G14-007", "place": "hamlet", "source": "UNDP - 2006, UNDP - 1997", "source:ref": "UNSOA I: E044N02_05, SPOT5 image based data capture using different Ancillary Sources coming from UNSOA field mission."}}, {"type": "node", "id": 1404224492, "lat": 2.83307, "lon": 44.0614867, "tags": {"alt_name": "Araay", "name": "Caraay", "pcode": "NA-3806-E13-012", "place": "hamlet", "source": "UNDP - 2006, UNDP - 1997", "source:name": "UNSOA field mission and SPOT5 images data capture"}}, {"type": "node", "id": 1404224584, "lat": 2.7346237, "lon": 44.1086785, "tags": {"alt_name": "Hagarow", "name": "Hagarrow", "pcode": "NA-3806-G14-006", "place": "hamlet", "source": "UNDP - 2006, UNDP - 1997", "source:ref": "UNSOA I: E044N02_05, SPOT5 image based data capture using different Ancillary Sources coming from UNSOA field mission."}}, {"type": "node", "id": 1404224729, "lat": 2.63377, "lon": 44.13008, "tags": {"alt_name": "Geran-Gerow", "name": "Waraabo Dodow", "pcode": "NA-3806-J14-002", "place": "hamlet", "source": "UNDP - 2006", "source:ref": "UNSOA I: E044N02_05, SPOT5 image based data capture using different Ancillary Sources coming from UNSOA field mission."}}, {"type": "node", "id": 1404224756, "lat": 2.8059588, "lon": 44.0947334, "tags": {"alt_name": "Qardale", "name": "Qardhaalo", "pcode": "NA-3806-E14-007", "place": "isolated_dwelling", "source": "UNDP - 2006, UNDP - 1997", "source:name": "UNSOA field mission and SPOT5 images data capture", "source:ref": "UNSOA field mission and SPOT5 images data capture"}}, {"type": "node", "id": 1404225037, "lat": 2.57362, "lon": 44.12324, "tags": {"name": "Madow-Buure", "pcode": "NA-3806-L14-004", "place": "village", "source": "UNDP - 2006"}}, {"type": "node", "id": 1404225044, "lat": 2.53325, "lon": 44.16837, "tags": {"name": "Aminey", "pcode": "NA-3806-M15-001", "place": "hamlet", "source": "UNDP - 2006"}}, {"type": "node", "id": 1404225140, "lat": 2.5219, "lon": 44.07051, "tags": {"name": "Waaf-Dhaay-Wiin", "pcode": "NA-3806-M13-001", "place": "isolated_dwelling", "source": "UNDP - 2006"}}, {"type": "node", "id": 1404225231, "lat": 2.7024702, "lon": 44.1381748, "tags": {"alt_name": "Ambul", "name": "Cambuul Weyne", "pcode": "NA-3806-H15-003", "place": "village", "source": "UNDP - 2006, UNDP - 1997", "source:ref": "UNSOA I: E044N02_05, SPOT5 image based data capture using different Ancillary Sources coming from UNSOA field mission."}}, {"type": "node", "id": 1404225250, "lat": 2.82984, "lon": 44.110882, "tags": {"name": "Buulo Amiin", "pcode": "NA-3806-E14-012", "place": "hamlet", "source": "UNDP - 1997"}}, {"type": "node", "id": 1404225264, "lat": 2.50777, "lon": 44.129, "tags": {"name": "Kodoloob", "pcode": "NA-3806-M14-003", "place": "isolated_dwelling", "source": "UNDP - 2006"}}, {"type": "node", "id": 1404225265, "lat": 2.5706149, "lon": 44.1715474, "tags": {"alt_name": "Barariya", "name": "Barey", "pcode": "NA-3806-L15-004", "place": "village", "source": "UNDP - 2006", "source:ref": "UNSOA I: E044N02_05, SPOT5 image based data capture using different Ancillary Sources coming from UNSOA field mission."}}, {"type": "node", "id": 1404225279, "lat": 2.79516, "lon": 44.08169, "tags": {"name": "Waaberi", "pcode": "NA-3806-E13-001", "place": "suburb", "source": "UNDP - 2006"}}, {"type": "node", "id": 1404225309, "lat": 2.6926506, "lon": 44.1297522, "tags": {"alt_name": "Cambuul Madhabey; Madhawey", "name": "Cambuul Madhabey", "pcode": "NA-3806-H14-004", "place": "village", "source": "UNDP - 2006, UNDP - 1997", "source:ref": "UNSOA I: E044N02_05, SPOT5 image based data capture using different Ancillary Sources coming from UNSOA field mission."}}, {"type": "node", "id": 1404225366, "lat": 2.57793, "lon": 44.061901, "tags": {"alt_name": "Hambawe", "name": "Humbawe", "pcode": "NA-3806-L13-003", "place": "hamlet", "source": "UNDP - 1997", "source:ref": "UNSOA I: E044N02_05, SPOT5 image based data capture using different Ancillary Sources coming from UNSOA field mission."}}, {"type": "node", "id": 1404225412, "lat": 2.7955, "lon": 44.10209, "tags": {"name": "Uurweyne", "pcode": "NA-3806-E14-003", "place": "village", "source": "UNDP - 2006"}}, {"type": "node", "id": 1404225428, "lat": 2.7916505, "lon": 44.130642, "tags": {"name": "Maakay Yeele", "pcode": "NA-3806-F14-009", "place": "hamlet", "source": "UNDP - 2006"}}, {"type": "node", "id": 1404225449, "lat": 2.58598, "lon": 44.16255, "tags": {"name": "Gooybir", "pcode": "NA-3806-K15-001", "place": "village", "source": "UNDP - 2006", "source:ref": "UNSOA I: E044N02_05, SPOT5 image based data capture using different Ancillary Sources coming from UNSOA field mission."}}, {"type": "node", "id": 1404225453, "lat": 2.7684, "lon": 44.09598, "tags": {"alt_name": "Abaawle", "name": "Abawle", "pcode": "NA-3806-F14-007", "place": "hamlet", "source": "UNDP - 2006, UNDP - 1997", "source:name": "UNSOA field mission and SPOT5 images data capture"}}, {"type": "node", "id": 1404225458, "lat": 2.7523, "lon": 43.8325, "tags": {"name": "Bulo Tugar", "pcode": "NA-3806-F08-001", "place": "locality", "source": "UNDP - 1997"}}, {"type": "node", "id": 1404225504, "lat": 2.6297237, "lon": 44.1317369, "tags": {"name": "Waraba Dadow", "pcode": "NA-3806-J14-001", "place": "hamlet", "source": "UNDP - 2006", "source:ref": "UNSOA I: E044N02_05, SPOT5 image based data capture using different Ancillary Sources coming from UNSOA field mission."}}, {"type": "node", "id": 1404225545, "lat": 2.8166197, "lon": 43.9591091, "tags": {"name": "Garriida", "pcode": "NA-3806-E11-002", "place": "hamlet", "source": "UNDP - 1997", "source:name": "UNSOA field mission and SPOT5 images data capture"}}, {"type": "node", "id": 1404225561, "lat": 2.761434, "lon": 44.1243445, "tags": {"name": "Godka", "pcode": "NA-3806-F14-002", "place": "hamlet", "source": "UNDP - 2006"}}, {"type": "node", "id": 1404225746, "lat": 2.76249, "lon": 44.156559, "tags": {"alt_name": "Maroodey", "name": "Moro-Thiley", "pcode": "NA-3806-F15-001", "place": "locality", "source": "UNDP - 2006, UNDP - 1997"}}, {"type": "node", "id": 1404225766, "lat": 2.7698516, "lon": 44.1613483, "tags": {"name": "Idaada", "pcode": "NA-3806-F15-002", "place": "hamlet", "source": "UNDP - 2006, UNDP - 1997", "source:name": "UNSOA field mission and SPOT5 images data capture"}}, {"type": "node", "id": 1404225793, "lat": 2.70193, "lon": 43.925091, "tags": {"name": "Darabqooy", "pcode": "NA-3806-H10-005", "place": "isolated_dwelling", "source": "UNDP - 1997"}}, {"type": "node", "id": 1404225877, "lat": 2.7507875, "lon": 43.8049897, "tags": {"name": "Heydabta", "pcode": "NA-3806-F07-001", "place": "hamlet", "source": "UNDP - 1997"}}, {"type": "node", "id": 1404225996, "lat": 2.803923, "lon": 44.048378, "tags": {"alt_name": "\u0633\u0648\u0644 Sool", "name": "Sool", "pcode": "NA-3806-E13-006", "place": "hamlet", "source": "UNDP - 1997", "source:name": "UNSOA field mission and SPOT5 images data capture"}}, {"type": "node", "id": 1404226010, "lat": 2.82972, "lon": 43.9548, "tags": {"name": "Jemeecada", "pcode": "NA-3806-E11-005", "place": "locality", "source": "UNDP - 1997"}}, {"type": "node", "id": 1404226096, "lat": 2.55547, "lon": 44.11219, "tags": {"name": "Ou Jesow", "pcode": "NA-3806-L14-002", "place": "isolated_dwelling", "source": "UNDP - 1997"}}, {"type": "node", "id": 1404226100, "lat": 2.82177, "lon": 44.14638, "tags": {"alt_name": "Idaadlow", "name": "Idaaloow", "pcode": "NA-3806-E15-004", "place": "hamlet", "source": "UNDP - 2006, UNDP - 1997", "source:name": "UNSOA field mission and SPOT5 images data capture"}}, {"type": "node", "id": 1404226263, "lat": 2.79348, "lon": 44.09485, "tags": {"alt_name": "Isneeb", "name": "Sneeb", "pcode": "NA-3806-E14-001", "place": "hamlet", "source": "UNDP - 2006, UNDP - 1997", "source:name": "UNSOA field mission and SPOT5 images data capture"}}, {"type": "node", "id": 1404226464, "lat": 2.7823219, "lon": 43.9963159, "tags": {"alt_name": "Korow Shiida", "name": "Korrow Shidleey", "pcode": "NA-3806-F11-003", "place": "village", "source": "UNDP - 2006, UNDP - 1997", "source:name": "UNSOA field mission and SPOT5 images data capture"}}, {"type": "node", "id": 1404226664, "lat": 2.6796, "lon": 43.9715, "tags": {"name": "Bulo Cugno", "pcode": "NA-3806-H11-003", "place": "isolated_dwelling", "source": "UNDP - 1997"}}, {"type": "node", "id": 1404226680, "lat": 2.6764188, "lon": 44.0793793, "tags": {"name": "Kuun Shabeelle", "pcode": "NA-3806-H13-001", "place": "hamlet", "source": "UNDP - 1997", "source:ref": "UNSOA I: E044N02_05, SPOT5 image based data capture using different Ancillary Sources coming from UNSOA field mission."}}, {"type": "node", "id": 1404226748, "lat": 2.7956883, "lon": 44.1070744, "tags": {"name": "Kuurow Aw Riko", "pcode": "NA-3806-E14-004", "place": "hamlet", "source": "UNDP - 2006"}}, {"type": "node", "id": 1404226753, "lat": 2.79652, "lon": 44.06619, "tags": {"alt_name": "Buulo Massib", "name": "Buulo Nasib", "pcode": "NA-3806-E13-002", "place": "locality", "source": "UNDP - 1997", "source:name": "UNSOA field mission and SPOT5 images data capture", "source:ref": "UNSOA field mission and SPOT5 images data capture"}}, {"type": "node", "id": 1404226781, "lat": 2.6925182, "lon": 44.104921, "tags": {"alt_name": "Abaar Yoma", "name": "Aboor Yoome", "pcode": "NA-3806-H14-003", "place": "hamlet", "source": "UNDP - 2006, UNDP - 1997", "source:ref": "UNSOA I: E044N02_05, SPOT5 image based data capture using different Ancillary Sources coming from UNSOA field mission."}}, {"type": "node", "id": 1404226790, "lat": 2.5577592, "lon": 44.1727242, "tags": {"name": "Mansur", "pcode": "NA-3806-L15-001", "place": "hamlet", "source": "UNDP - 2006", "source:ref": "UNSOA I: E044N02_05, SPOT5 image based data capture using different Ancillary Sources coming from UNSOA field mission."}}, {"type": "node", "id": 1404227460, "lat": 2.70095, "lon": 44.06823, "tags": {"alt_name": "Dooy Ruq", "name": "Dooyuruk", "pcode": "NA-3806-H13-002", "place": "hamlet", "source": "UNDP - 2006, UNDP - 1997"}}, {"type": "node", "id": 1404227711, "lat": 2.7377338, "lon": 44.1373291, "tags": {"alt_name": "Gogolis", "name": "Bocole", "pcode": "NA-3806-G15-005", "place": "hamlet", "source": "UNDP - 2006, UNDP - 1997", "source:ref": "UNSOA I: E044N02_05, SPOT5 image based data capture using different Ancillary Sources coming from UNSOA field mission."}}, {"type": "node", "id": 1404227770, "lat": 2.63601, "lon": 44.13018, "tags": {"name": "Waraabo Bedow", "pcode": "NA-3806-J14-003", "place": "village", "source": "UNDP - 1997"}}, {"type": "node", "id": 1404227853, "lat": 2.64415, "lon": 44.11533, "tags": {"name": "Garaagarow", "pcode": "NA-3806-J14-005", "place": "hamlet", "source": "UNDP - 1997"}}, {"type": "node", "id": 1404228490, "lat": 2.7965846, "lon": 44.1548173, "tags": {"alt_name": "Moq-Dor", "name": "Moq Dor", "pcode": "NA-3806-E15-001", "place": "hamlet", "source": "UNDP - 2006, UNDP - 1997", "source:name": "UNSOA field mission and SPOT5 images data capture"}}, {"type": "node", "id": 1404228655, "lat": 2.7988451, "lon": 44.102136, "tags": {"name": "Krow", "pcode": "NA-3806-E14-005", "place": "isolated_dwelling", "source": "UNDP - 1997", "source:ref": "UNSOA field mission and SPOT5 images data capture"}}, {"type": "node", "id": 1404228716, "lat": 2.8160779, "lon": 44.0895728, "tags": {"alt_name": "Dacarta", "name": "Dacarre", "pcode": "NA-3806-E13-010", "place": "hamlet", "source": "UNDP - 2006, UNDP - 1997, FSAU", "source:name": "UNSOA field mission and SPOT5 images data capture"}}, {"type": "node", "id": 1404228736, "lat": 2.72459, "lon": 43.93158, "tags": {"name": "Danab Qoy", "pcode": "NA-3806-G10-002", "place": "village", "source": "UNDP - 1997"}}, {"type": "node", "id": 1404228839, "lat": 2.55319, "lon": 44.12043, "tags": {"name": "Buulo-Rer Aw-Foge", "pcode": "NA-3806-L14-001", "place": "hamlet", "source": "UNDP - 2006"}}, {"type": "node", "id": 1404228876, "lat": 2.5356, "lon": 44.073528, "tags": {"name": "Surkun", "pcode": "NA-3806-M13-003", "place": "village", "source": "UNDP - 1997"}}, {"type": "node", "id": 1404228890, "lat": 2.7467801, "lon": 44.0789065, "tags": {"alt_name": "Godka-Aw-Iidow", "name": "Godka", "pcode": "NA-3806-G13-002", "place": "hamlet", "source": "UNDP - 2006, UNDP - 1997", "source:ref": "UNSOA I: E044N02_05, SPOT5 image based data capture using different Ancillary Sources coming from UNSOA field mission."}}, {"type": "node", "id": 1404228972, "lat": 2.811612, "lon": 44.093894, "tags": {"name": "Aw-Ooyoow", "pcode": "NA-3806-E14-010", "place": "village", "source": "UNDP - 2006"}}, {"type": "node", "id": 1404229008, "lat": 2.80168, "lon": 44.08159, "tags": {"name": "Dubai", "pcode": "NA-3806-E13-005", "place": "suburb", "source": "UNDP - 2006"}}, {"type": "node", "id": 1404229132, "lat": 2.77574, "lon": 44.12574, "tags": {"alt_name": "Galool Yere", "name": "Galool Yar", "pcode": "NA-3806-F14-008", "place": "hamlet", "source": "UNDP - 2006, UNDP - 1997", "source:name": "UNSOA field mission and SPOT5 images data capture"}}, {"type": "node", "id": 1404229212, "lat": 2.64878, "lon": 44.17371, "tags": {"name": "Ashka", "pcode": "NA-3806-J15-002", "place": "village", "source": "UNDP - 2006"}}, {"type": "node", "id": 1404229583, "lat": 2.6806, "lon": 44.119301, "tags": {"name": "Hararec", "pcode": "NA-3806-H14-002", "place": "village", "source": "UNDP - 1997"}}, {"type": "node", "id": 1404229729, "lat": 2.7675089, "lon": 43.8111623, "tags": {"name": "Shawgah", "pcode": "NA-3806-F07-003", "place": "isolated_dwelling", "source": "UNDP - 1997", "source:name": "UNSOA field mission and SPOT5 images data capture", "source:ref": "UNSOA field mission and SPOT5 images data capture"}}, {"type": "node", "id": 1404229766, "lat": 2.7801728, "lon": 44.0851846, "tags": {"name": "Balaaw", "pcode": "NA-3806-F13-001", "place": "hamlet", "source": "UNDP - 1997", "source:name": "UNSOA field mission and SPOT5 images data capture"}}, {"type": "node", "id": 1404229797, "lat": 2.8144172, "lon": 43.9118751, "tags": {"alt_name": "Kerrow Deqa; Keerow Diiga", "name": "Jemeecada Kerrow Deqa", "pcode": "NA-3806-E10-002", "place": "hamlet", "source": "UNDP - 2006, UNDP - 1997", "source:name": "UNSOA field mission and SPOT5 images data capture"}}, {"type": "node", "id": 1404229861, "lat": 2.6288716, "lon": 44.0387913, "tags": {"name": "Aabaan Yare", "pcode": "NA-3806-J12-002", "place": "hamlet", "source": "UNDP - 1997"}}, {"type": "node", "id": 1404230005, "lat": 2.83773, "lon": 43.78529, "tags": {"name": "Xanyayi", "pcode": "NA-3806-D07-001", "place": "locality", "source": "UNDP - 1997"}}, {"type": "node", "id": 1404230051, "lat": 2.60823, "lon": 44.01882, "tags": {"alt_name": "Gowan", "name": "Garba Dheer", "pcode": "NA-3806-K12-005", "place": "village", "source": "UNDP - 2006", "source:ref": "UNSOA I: E044N02_05, SPOT5 image based data capture using different Ancillary Sources coming from UNSOA field mission."}}, {"type": "node", "id": 1404230138, "lat": 2.57455, "lon": 44.04523, "tags": {"alt_name": "Golooley", "name": "Shaamburow", "pcode": "NA-3806-L12-001", "place": "village", "source": "UNDP - 2006, UNDP - 1997", "source:ref": "UNSOA I: E044N02_05, SPOT5 image based data capture using different Ancillary Sources coming from UNSOA field mission."}}, {"type": "node", "id": 1404230196, "lat": 2.83516, "lon": 43.95232, "tags": {"alt_name": "Qalanol; Kalaq", "name": "Qalaqol", "pcode": "NA-3806-D10-001", "place": "hamlet", "source": "UNDP - 2006", "source:name": "UNSOA field mission and SPOT5 images data capture"}}, {"type": "node", "id": 1404230200, "lat": 2.7555579, "lon": 44.0374931, "tags": {"name": "Ubaare", "pcode": "NA-3806-F12-001", "place": "hamlet", "source": "UNDP - 1997", "source:name": "UNSOA field mission and SPOT5 images data capture"}}, {"type": "node", "id": 1404230243, "lat": 2.7305666, "lon": 44.1283359, "tags": {"name": "Bocole", "pcode": "NA-3806-G14-004", "place": "hamlet", "source": "UNDP - 1997"}}, {"type": "node", "id": 1404230259, "lat": 2.7944973, "lon": 44.0446863, "tags": {"name": "Ibooto", "pcode": "NA-3806-E12-002", "place": "hamlet", "source": "UNDP - 1997", "source:name": "UNSOA field mission and SPOT5 images data capture"}}, {"type": "node", "id": 1404230397, "lat": 2.7138774, "lon": 44.1299119, "tags": {"name": "Cambuul Xaraar", "pcode": "NA-3806-G14-002", "place": "village", "source": "UNDP - 1997", "source:ref": "UNSOA I: E044N02_05, SPOT5 image based data capture using different Ancillary Sources coming from UNSOA field mission."}}, {"type": "node", "id": 1404230544, "lat": 2.76093, "lon": 44.014179, "tags": {"name": "Samaanley", "pcode": "NA-3806-F12-002", "place": "village", "source": "UNDP - 1997"}}, {"type": "node", "id": 1404230568, "lat": 2.7534578, "lon": 44.1327739, "tags": {"alt_name": "Barkadle Wiin", "name": "Barkadale", "pcode": "NA-3806-F14-001", "place": "hamlet", "source": "UNDP - 2006", "source:name": "UNSOA field mission and SPOT5 images data capture"}}, {"type": "node", "id": 1404230681, "lat": 2.626405, "lon": 43.9268871, "tags": {"alt_name": "Kashid", "name": "Kashite", "pcode": "NA-3806-J10-001", "place": "hamlet", "source": "UNDP - 2006, UNDP - 1997"}}, {"type": "node", "id": 1404230694, "lat": 2.7776324, "lon": 43.9655242, "tags": {"name": "Korow", "pcode": "NA-3806-F11-001", "place": "village", "source": "UNDP - 1997", "source:name": "UNSOA field mission and SPOT5 images data capture"}}, {"type": "node", "id": 1404230761, "lat": 2.50086, "lon": 44.11495, "tags": {"name": "Makay Eddi", "pcode": "NA-3806-M14-002", "place": "isolated_dwelling", "source": "UNDP - 2006"}}, {"type": "node", "id": 1404230847, "lat": 2.8347121, "lon": 44.1715005, "tags": {"name": "Aw Mayow", "pcode": "NA-3806-D15-001", "place": "hamlet", "source": "UNDP - 1997", "source:name": "UNSOA field mission and SPOT5 images data capture"}}, {"type": "node", "id": 1404230854, "lat": 2.7039227, "lon": 44.0971132, "tags": {"alt_name": "Ballow Shuungay", "name": "Yoma Balaaw", "pcode": "NA-3806-H14-006", "place": "hamlet", "source": "UNDP - 2006", "source:ref": "UNSOA I: E044N02_05, SPOT5 image based data capture using different Ancillary Sources coming from UNSOA field mission."}}, {"type": "node", "id": 1404230864, "lat": 2.7468849, "lon": 44.0409183, "tags": {"alt_name": "Bansole", "name": "Bansoole", "pcode": "NA-3806-G12-003", "place": "hamlet", "source": "UNDP - 1997, FSAU", "source:ref": "UNSOA I: E044N02_05, SPOT5 image based data capture using different Ancillary Sources coming from UNSOA field mission."}}, {"type": "node", "id": 1404230933, "lat": 2.7883872, "lon": 43.9385002, "tags": {"name": "Gariro", "pcode": "NA-3806-F10-001", "place": "hamlet", "source": "UNDP - 1997", "source:name": "UNSOA field mission and SPOT5 images data capture", "source:ref": "UNSOA field mission and SPOT5 images data capture"}}, {"type": "node", "id": 1404230958, "lat": 2.8168011, "lon": 43.9869813, "tags": {"alt_name": "Baryoole", "name": "Baryaalo", "pcode": "NA-3806-E11-004", "place": "hamlet", "source": "UNDP - 2006, UNDP - 1997", "source:name": "UNSOA field mission and SPOT5 images data capture"}}, {"type": "node", "id": 1404230973, "lat": 2.721602, "lon": 44.1668622, "tags": {"alt_name": "Ajin", "name": "Caje", "pcode": "NA-3806-G15-001", "place": "village", "source": "UNDP - 2006", "source:ref": "UNSOA I: E044N02_05, SPOT5 image based data capture using different Ancillary Sources coming from UNSOA field mission."}}, {"type": "node", "id": 1404231017, "lat": 2.7686295, "lon": 43.7986956, "tags": {"name": "Xudow", "pcode": "NA-3806-F07-005", "place": "isolated_dwelling", "source": "UNDP - 1997", "source:name": "UNSOA field mission and SPOT5 images data capture", "source:ref": "UNSOA field mission and SPOT5 images data capture"}}, {"type": "node", "id": 1404231151, "lat": 2.7536637, "lon": 43.849223, "tags": {"name": "Shillow", "pcode": "NA-3806-F08-002", "place": "isolated_dwelling", "source": "UNDP - 1997", "source:name": "UNSOA field mission and SPOT5 images data capture", "source:ref": "UNSOA field mission and SPOT5 images data capture"}}, {"type": "node", "id": 1404231308, "lat": 2.78696, "lon": 43.95504, "tags": {"name": "Koboogobta", "pcode": "NA-3806-F11-004", "place": "locality", "source": "UNDP - 1997"}}, {"type": "node", "id": 1404231413, "lat": 2.82929, "lon": 44.1797, "tags": {"alt_name": "Dhiigdar", "name": "Dhiigtaar", "pcode": "NA-3806-E15-006", "place": "hamlet", "source": "UNDP - 2006, UNDP - 1997", "source:name": "UNSOA field mission and SPOT5 images data capture"}}, {"type": "node", "id": 1404231431, "lat": 2.58438, "lon": 44.03487, "tags": {"alt_name": "Beledul-Aamin", "name": "Golol Dheere", "pcode": "NA-3806-K12-001", "place": "hamlet", "source": "UNDP - 1997", "source:ref": "UNSOA I: E044N02_05, SPOT5 image based data capture using different Ancillary Sources coming from UNSOA field mission."}}, {"type": "node", "id": 1404231533, "lat": 2.76607, "lon": 44.129879, "tags": {"alt_name": "Kurow Ay Dhubey", "name": "Krow Ay Dhuubay", "pcode": "NA-3806-F14-006", "place": "village", "source": "UNDP - 1997, FSAU", "source:name": "UNSOA field mission and SPOT5 images data capture"}}, {"type": "node", "id": 1404231556, "lat": 2.53074, "lon": 44.11319, "tags": {"name": "Degta", "pcode": "NA-3806-M14-008", "place": "isolated_dwelling", "source": "UNDP - 2006"}}, {"type": "node", "id": 1404231560, "lat": 2.81939, "lon": 43.932541, "tags": {"name": "Kiyaanno", "pcode": "NA-3806-E10-003", "place": "locality", "source": "UNDP - 1997"}}, {"type": "node", "id": 1404231589, "lat": 2.64064, "lon": 44.11353, "tags": {"alt_name": "Hebadow", "name": "Habedow", "pcode": "NA-3806-J14-004", "place": "locality", "source": "UNDP - 2006, UNDP - 1997"}}, {"type": "node", "id": 1404231695, "lat": 2.7313695, "lon": 44.0934844, "tags": {"name": "Aliyow-Geele", "pcode": "NA-3806-G14-005", "place": "hamlet", "source": "UNDP - 2006"}}, {"type": "node", "id": 1404231777, "lat": 2.756251, "lon": 43.8592441, "tags": {"name": "Kaysannay", "pcode": "NA-3806-F08-003", "place": "hamlet", "source": "UNDP - 1997", "source:name": "UNSOA field mission and SPOT5 images data capture", "source:ref": "UNSOA field mission and SPOT5 images data capture"}}, {"type": "node", "id": 1404231805, "lat": 2.80117, "lon": 44.10232, "tags": {"alt_name": "Maalim-Fooge", "name": "Krow", "pcode": "NA-3806-E14-006", "place": "hamlet", "source": "UNDP - 2006", "source:name": "UNSOA field mission and SPOT5 images data capture"}}, {"type": "node", "id": 1404231894, "lat": 2.76414, "lon": 43.84619, "tags": {"name": "Buulo Towsiile", "pcode": "NA-3806-F08-004", "place": "locality", "source": "UNDP - 2006"}}, {"type": "node", "id": 1404231906, "lat": 2.4863727, "lon": 44.1266769, "tags": {"name": "Aroostole", "pcode": "NA-3806-N14-001", "place": "hamlet", "source": "UNDP - 2006"}}, {"type": "node", "id": 1404231958, "lat": 2.83636, "lon": 44.12401, "tags": {"name": "Dudumiya", "pcode": "NA-3806-D14-002", "place": "hamlet", "source": "UNDP - 2006, UNDP - 1997", "source:name": "UNSOA field mission and SPOT5 images data capture"}}, {"type": "node", "id": 1404231972, "lat": 2.81674, "lon": 43.95906, "tags": {"fixme": "is in the right position??", "name": "Koba Qabta", "pcode": "NA-3806-E11-003", "place": "village", "source": "UNDP - 2006"}}, {"type": "node", "id": 1404232101, "lat": 2.6711682, "lon": 44.1112235, "tags": {"alt_name": "Aw-Birikaan-Aliyoow", "name": "Barkaan Caliyow", "pcode": "NA-3806-H14-001", "place": "village", "source": "UNDP - 2006, UNDP - 1997", "source:ref": "UNSOA I: E044N02_05, SPOT5 image based data capture using different Ancillary Sources coming from UNSOA field mission."}}, {"type": "node", "id": 1404232317, "lat": 2.8102277, "lon": 43.9599212, "tags": {"name": "Korow 2Aad", "pcode": "NA-3806-E11-001", "place": "hamlet", "source": "UNDP - 2006", "source:ref": "UNSOA field mission and SPOT5 images data capture"}}, {"type": "node", "id": 1404232373, "lat": 2.82081, "lon": 44.17268, "tags": {"alt_name": "Aw Dhuroow; Aw-Dhurow", "name": "Aw Dhuroov", "pcode": "NA-3806-E15-003", "place": "hamlet", "source": "UNDP - 2006, UNDP - 1997", "source:name": "UNSOA field mission and SPOT5 images data capture"}}, {"type": "node", "id": 1404232435, "lat": 2.6463644, "lon": 44.0127374, "tags": {"name": "Aabaan Weyn", "pcode": "NA-3806-J12-003", "place": "village", "source": "UNDP - 1997"}}, {"type": "node", "id": 1404232856, "lat": 2.56075, "lon": 44.137428, "tags": {"name": "Koranbod", "pcode": "NA-3806-L15-002", "place": "village", "source": "UNDP - 1997"}}, {"type": "node", "id": 1404232886, "lat": 2.685611, "lon": 44.0364388, "tags": {"name": "Ruqiya", "pcode": "NA-3806-H12-001", "place": "village", "source": "UNDP - 2006, UNDP - 1997", "source:ref": "UNSOA I: E044N02_05, SPOT5 image based data capture using different Ancillary Sources coming from UNSOA field mission."}}, {"type": "node", "id": 1404233100, "lat": 2.512, "lon": 44.11066, "tags": {"name": "Balow Wiini", "pcode": "NA-3806-M14-005", "place": "isolated_dwelling", "source": "UNDP - 2006"}}, {"type": "node", "id": 1404233131, "lat": 2.7277345, "lon": 44.1380106, "tags": {"alt_name": "Fuud-Doora", "name": "Fuud Dooro", "pcode": "NA-3806-G15-003", "place": "hamlet", "source": "UNDP - 2006, UNDP - 1997", "source:ref": "UNSOA I: E044N02_05, SPOT5 image based data capture using different Ancillary Sources coming from UNSOA field mission."}}, {"type": "node", "id": 1404233167, "lat": 2.8144523, "lon": 43.8888204, "tags": {"alt_name": "Galool Oonle", "name": "Goloonle", "pcode": "NA-3806-E09-001", "place": "hamlet", "source": "UNDP - 2006, UNDP - 1997", "source:name": "UNSOA field mission and SPOT5 images data capture"}}, {"type": "node", "id": 1404233205, "lat": 2.61515, "lon": 44.13572, "tags": {"alt_name": "Babelow", "name": "Bebelow", "pcode": "NA-3806-K14-001", "place": "village", "source": "UNDP - 2006, UNDP - 1997", "source:ref": "UNSOA I: E044N02_05, SPOT5 image based data capture using different Ancillary Sources coming from UNSOA field mission."}}, {"type": "node", "id": 1404233214, "lat": 2.5776, "lon": 44.1329, "tags": {"name": "Cugni Fara", "pcode": "NA-3806-L14-005", "place": "village", "source": "UNDP - 1997"}}, {"type": "node", "id": 1404233218, "lat": 2.80163, "lon": 44.08742, "tags": {"name": "Buurey-Deerow", "pcode": "NA-3806-E13-004", "place": "village", "source": "UNDP - 2006"}}, {"type": "node", "id": 1404233224, "lat": 2.82897, "lon": 44.17041, "tags": {"name": "Tubaaka", "pcode": "NA-3806-E15-005", "place": "hamlet", "source": "UNDP - 2006"}}, {"type": "node", "id": 1404233261, "lat": 2.7659725, "lon": 44.1297766, "tags": {"fixme": "check !!", "name": "Kor-Unbood", "pcode": "NA-3806-F14-005", "place": "village", "source": "UNDP - 2006"}}, {"type": "node", "id": 1404233265, "lat": 2.7476431, "lon": 44.1354995, "tags": {"alt_name": "Barkadle; Barkatle Yarey", "name": "Gogolis", "pcode": "NA-3806-G14-010", "place": "village", "source": "UNDP - 2006, UNDP - 1997", "source:ref": "UNSOA I: E044N02_05, SPOT5 image based data capture using different Ancillary Sources coming from UNSOA field mission."}}, {"type": "node", "id": 1404233330, "lat": 2.6247454, "lon": 44.0121414, "tags": {"name": "Yuubka", "pcode": "NA-3806-J12-001", "place": "village", "source": "UNDP - 2006, UNDP - 1997", "source:ref": "UNSOA I: E044N02_05, SPOT5 image based data capture using different Ancillary Sources coming from UNSOA field mission."}}, {"type": "node", "id": 1404233345, "lat": 2.734245, "lon": 44.1489223, "tags": {"alt_name": "Oroow", "name": "Orow", "pcode": "NA-3806-G15-004", "place": "hamlet", "source": "UNDP - 2006, UNDP - 1997", "source:ref": "UNSOA I: E044N02_05, SPOT5 image based data capture using different Ancillary Sources coming from UNSOA field mission."}}, {"type": "node", "id": 1404233374, "lat": 2.6740204, "lon": 43.9190175, "tags": {"name": "Bukaar Eber", "pcode": "NA-3806-H10-003", "place": "hamlet", "source": "UNDP - 2006"}}, {"type": "node", "id": 1404233430, "lat": 2.55917, "lon": 44.07903, "tags": {"name": "Misnagata", "pcode": "NA-3806-L13-001", "place": "village", "source": "UNDP - 2006"}}, {"type": "node", "id": 1404233469, "lat": 2.827822, "lon": 44.0208215, "tags": {"name": "Daabale", "pcode": "NA-3806-E12-004", "place": "hamlet", "source": "UNDP - 1997", "source:name": "UNSOA field mission and SPOT5 images data capture"}}, {"type": "node", "id": 1404233500, "lat": 2.8054369, "lon": 44.034936, "tags": {"name": "Aw Riinow", "pcode": "NA-3806-E12-003", "place": "hamlet", "source": "UNDP - 1997", "source:name": "UNSOA field mission and SPOT5 images data capture"}}, {"type": "node", "id": 1404233648, "lat": 2.5925832, "lon": 43.9289449, "tags": {"name": "Ceel Matarro", "pcode": "NA-3806-K10-001", "place": "village", "source": "UNDP - 1997"}}, {"type": "node", "id": 1404233656, "lat": 2.49805, "lon": 44.09133, "tags": {"name": "Buulala", "pcode": "NA-3806-N14-003", "place": "hamlet", "source": "UNDP - 2006"}}, {"type": "node", "id": 1404233675, "lat": 2.52725, "lon": 44.08465, "tags": {"name": "Fiilka", "pcode": "NA-3806-M13-002", "place": "isolated_dwelling", "source": "UNDP - 2006"}}, {"type": "node", "id": 1404233726, "lat": 2.79598, "lon": 44.07559, "tags": {"name": "Wadajir", "pcode": "NA-3806-E13-003", "place": "suburb", "source": "UNDP - 2006"}}, {"type": "node", "id": 1404233730, "lat": 2.8140855, "lon": 44.0776304, "tags": {"alt_name": "Masuusu; Masusoow", "name": "Mas uusu", "pcode": "NA-3806-E13-008", "place": "hamlet", "source": "UNDP - 2006, UNDP - 1997", "source:name": "UNSOA field mission and SPOT5 images data capture"}}, {"type": "node", "id": 1404234105, "lat": 2.7878294, "lon": 44.1516837, "tags": {"name": "Daylaale", "pcode": "NA-3806-F15-003", "place": "isolated_dwelling", "source": "UNDP - 1997", "source:name": "UNSOA field mission and SPOT5 images data capture"}}, {"type": "node", "id": 6119298061, "lat": 2.7558936, "lon": 44.0137437, "tags": {"name": "Godka", "place": "hamlet", "source:name": "UNSOA field mission and SPOT5 images data capture"}}, {"type": "node", "id": 6119298065, "lat": 2.7648337, "lon": 44.1569844, "tags": {"name": "Maroodey", "place": "hamlet", "source:name": "UNSOA field mission and SPOT5 images data capture"}}, {"type": "node", "id": 6119298066, "lat": 2.8181115, "lon": 44.0542477, "tags": {"place": "hamlet", "source:ref": "UNSOA field mission and SPOT5 images data capture"}}, {"type": "node", "id": 6119298067, "lat": 2.819751, "lon": 44.0500769, "tags": {"name": "Aw Yaay", "place": "hamlet", "source:name": "UNSOA field mission and SPOT5 images data capture"}}, {"type": "node", "id": 6119298068, "lat": 2.8242704, "lon": 44.153755, "tags": {"place": "hamlet", "source:ref": "UNSOA field mission and SPOT5 images data capture"}}, {"type": "node", "id": 6119298069, "lat": 2.8298721, "lon": 44.1518641, "tags": {"name": "Buulaal", "place": "village", "source:name": "UNSOA field mission and SPOT5 images data capture"}}, {"type": "node", "id": 6119298070, "lat": 2.8348978, "lon": 44.0985256, "tags": {"name": "Golay", "place": "village", "source:name": "UNSOA field mission and SPOT5 images data capture"}}, {"type": "node", "id": 6119298072, "lat": 2.8282353, "lon": 44.054524, "tags": {"place": "hamlet"}}, {"type": "node", "id": 6119393119, "lat": 2.8263, "lon": 44.12242, "tags": {"name": "Buulo Amiin", "place": "locality", "source:name": "UNSOA field mission and SPOT5 images data capture", "source:ref": "UNSOA field mission and SPOT5 images data capture"}}, {"type": "node", "id": 6119393123, "lat": 2.7508, "lon": 44.0161, "tags": {"name": "Godka", "place": "locality", "source:name": "UNSOA field mission and SPOT5 images data capture", "source:ref": "UNSOA field mission and SPOT5 images data capture"}}, {"type": "node", "id": 6119393126, "lat": 2.83333, "lon": 44.08333, "tags": {"name": "Bur Ghedude", "place": "locality", "source:name": "UNSOA field mission and SPOT5 images data capture", "source:ref": "UNSOA field mission and SPOT5 images data capture"}}, {"type": "node", "id": 6119430693, "lat": 2.7599563, "lon": 44.0152059, "tags": {"name": "Sarmaanley", "place": "isolated_dwelling", "source:name": "UNSOA field mission and SPOT5 images data capture", "source:ref": "UNSOA field mission and SPOT5 images data capture"}}, {"type": "node", "id": 6121178333, "lat": 2.8245842, "lon": 44.0616093, "tags": {"place": "locality", "source:ref": "UNSOA field mission and SPOT5 images data capture"}}, {"type": "node", "id": 6121178334, "lat": 2.7736913, "lon": 44.1266625, "tags": {"place": "hamlet", "source:ref": "UNSOA field mission and SPOT5 images data capture"}}, {"type": "node", "id": 6121178394, "lat": 2.804168, "lon": 44.0456121, "tags": {"place": "hamlet", "source:ref": "UNSOA field mission and SPOT5 images data capture"}}, {"type": "node", "id": 6121178443, "lat": 2.8047067, "lon": 44.0463411, "tags": {"place": "hamlet", "source:ref": "UNSOA field mission and SPOT5 images data capture"}}, {"type": "node", "id": 6121178445, "lat": 2.8056052, "lon": 44.0917482, "tags": {"place": "hamlet", "source:ref": "UNSOA field mission and SPOT5 images data capture"}}, {"type": "node", "id": 6123588740, "lat": 2.8075724, "lon": 43.9627737, "tags": {"place": "hamlet"}}, {"type": "node", "id": 6127895201, "lat": 2.8376641, "lon": 43.9845745, "tags": {"place": "isolated_dwelling", "source:ref": "UNSOA field mission and SPOT5 images data capture"}}, {"type": "node", "id": 6127895227, "lat": 2.8377355, "lon": 43.9852455, "tags": {"place": "isolated_dwelling", "source:ref": "UNSOA field mission and SPOT5 images data capture"}}, {"type": "node", "id": 6127895229, "lat": 2.8369074, "lon": 43.9851741, "tags": {"place": "isolated_dwelling", "source:ref": "UNSOA field mission and SPOT5 images data capture"}}, {"type": "node", "id": 6127903036, "lat": 2.836731, "lon": 43.7993908, "tags": {"place": "hamlet"}}, {"type": "node", "id": 6127903050, "lat": 2.835509, "lon": 43.8007217, "tags": {"place": "hamlet", "source:ref": "UNSOA field mission and SPOT5 images data capture"}}, {"type": "node", "id": 6127903365, "lat": 2.8303648, "lon": 43.9592499, "tags": {"place": "isolated_dwelling", "source:ref": "UNSOA field mission and SPOT5 images data capture"}}, {"type": "node", "id": 6137068392, "lat": 2.8056047, "lon": 44.0917477, "tags": {"place": "hamlet", "source:ref": "UNSOA field mission and SPOT5 images data capture"}}, {"type": "node", "id": 6137068394, "lat": 2.8047072, "lon": 44.0463406, "tags": {"place": "hamlet", "source:ref": "UNSOA field mission and SPOT5 images data capture"}}, {"type": "node", "id": 6137068395, "lat": 2.8282349, "lon": 44.0545237, "tags": {"place": "hamlet"}}, {"type": "node", "id": 6216370979, "lat": 2.8051961, "lon": 43.9783157, "tags": {"place": "isolated_dwelling"}}, {"type": "node", "id": 6286397446, "lat": 2.55, "lon": 43.883333, "tags": {"name": "Uel Biad", "place": "locality", "source": "UNSOA III: E043N02_08, SPOT5 image based data capture using different Ancillary Sources coming from UNSOA field mission", "source:date": "2007-02-17"}}, {"type": "node", "id": 6286397447, "lat": 2.55, "lon": 43.916667, "tags": {"name": "Elai", "place": "locality", "source": "UNSOA III: E043N02_08, SPOT5 image based data capture using different Ancillary Sources coming from UNSOA field mission", "source:date": "2007-02-17"}}, {"type": "node", "id": 6286397449, "lat": 2.5515, "lon": 43.9302, "tags": {"name": "Masaarre Aruur", "place": "locality", "source": "UNSOA III: E043N02_08, SPOT5 image based data capture using different Ancillary Sources coming from UNSOA field mission", "source:date": "2007-02-17"}}, {"type": "node", "id": 6286397450, "lat": 2.6466435, "lon": 43.8315076, "tags": {"name": "Bulh Geydinle", "place": "locality", "source": "UNSOA III: E043N02_08, SPOT5 image based data capture using different Ancillary Sources coming from UNSOA field mission", "source:date": "2007-02-17"}}, {"type": "node", "id": 6288401356, "lat": 2.5721546, "lon": 44.1528726, "tags": {"place": "hamlet"}}, {"type": "node", "id": 6300989775, "lat": 2.6925578, "lon": 44.0306121, "tags": {"place": "hamlet"}}, {"type": "node", "id": 6300989798, "lat": 2.693091, "lon": 44.027423, "tags": {"place": "hamlet"}}, {"type": "node", "id": 6300990964, "lat": 2.7291156, "lon": 44.0078267, "tags": {"place": "hamlet"}}, {"type": "node", "id": 6301333217, "lat": 2.5517366, "lon": 44.0676695, "tags": {"place": "hamlet"}}, {"type": "node", "id": 6301333380, "lat": 2.5644001, "lon": 44.0574959, "tags": {"place": "hamlet"}}, {"type": "node", "id": 6301334904, "lat": 2.6192326, "lon": 44.0680316, "tags": {"name": "Dooday", "place": "hamlet", "source:ref": "UNSOA I: E044N02_05, SPOT5 image based data capture using different Ancillary Sources coming from UNSOA field mission."}}, {"type": "node", "id": 6301334962, "lat": 2.6259606, "lon": 44.0625894, "tags": {"place": "hamlet"}}, {"type": "node", "id": 6301335033, "lat": 2.6252318, "lon": 44.0391254, "tags": {"place": "hamlet"}}, {"type": "node", "id": 6301520311, "lat": 2.7168798, "lon": 44.1337752, "tags": {"name": "Cambuul Lebi", "pcode": "NA-3806-G14-003", "place": "hamlet", "source": "UNDP - 1997", "source:ref": "UNSOA I: E044N02_05, SPOT5 image based data capture using different Ancillary Sources coming from UNSOA field mission."}}, {"type": "node", "id": 6301524026, "lat": 2.6406972, "lon": 44.1077095, "tags": {"name": "Garangarow", "place": "hamlet", "source:ref": "UNSOA I: E044N02_05, SPOT5 image based data capture using different Ancillary Sources coming from UNSOA field mission."}}, {"type": "node", "id": 6301524559, "lat": 2.5942844, "lon": 44.0837386, "tags": {"place": "hamlet"}}, {"type": "node", "id": 6301524571, "lat": 2.6101923, "lon": 44.0749463, "tags": {"place": "hamlet"}}, {"type": "node", "id": 6303060040, "lat": 2.5642098, "lon": 44.1699529, "tags": {"place": "hamlet", "source:ref": "UNSOA I: E044N02_05, SPOT5 image based data capture using different Ancillary Sources coming from UNSOA field mission."}}, {"type": "node", "id": 6303639961, "lat": 2.6772217, "lon": 44.1647816, "tags": {"place": "hamlet", "source:ref": "UNSOA I: E044N02_05, SPOT5 image based data capture using different Ancillary Sources coming from UNSOA field mission."}}, {"type": "node", "id": 6305576045, "lat": 2.6493917, "lon": 43.932454, "tags": {"name": "Bulo Hirso", "place": "isolated_dwelling", "source": "UNSOA III: E043N02_08, SPOT5 image based data capture using different Ancillary Sources coming from UNSOA field mission", "source:date": "2007-02-17"}}, {"type": "node", "id": 6306174741, "lat": 2.6016636, "lon": 44.1402233, "tags": {"name": "Babelow", "place": "hamlet", "source:ref": "UNSOA I: E044N02_05, SPOT5 image based data capture using different Ancillary Sources coming from UNSOA field mission."}}, {"type": "node", "id": 6306174742, "lat": 2.6067171, "lon": 44.1383323, "tags": {"place": "hamlet"}}, {"type": "node", "id": 6306174764, "lat": 2.6368443, "lon": 44.1116363, "tags": {"place": "hamlet"}}, {"type": "node", "id": 6306174765, "lat": 2.6360136, "lon": 44.1152734, "tags": {"place": "hamlet", "source:ref": "UNSOA I: E044N02_05, SPOT5 image based data capture using different Ancillary Sources coming from UNSOA field mission."}}, {"type": "node", "id": 6306174766, "lat": 2.6522184, "lon": 44.0820971, "tags": {"place": "hamlet"}}, {"type": "node", "id": 6306174783, "lat": 2.6451288, "lon": 44.09767, "tags": {"place": "hamlet"}}, {"type": "node", "id": 6306174903, "lat": 2.6488317, "lon": 44.0960446, "tags": {"place": "hamlet"}}, {"type": "node", "id": 6306174925, "lat": 2.6444911, "lon": 44.1034716, "tags": {"name": "Hebadow", "place": "hamlet", "source:ref": "UNSOA I: E044N02_05, SPOT5 image based data capture using different Ancillary Sources coming from UNSOA field mission."}}, {"type": "node", "id": 6307728398, "lat": 2.5640517, "lon": 44.0236276, "tags": {"place": "hamlet"}}, {"type": "node", "id": 6307728513, "lat": 2.5565597, "lon": 44.0209079, "tags": {"place": "hamlet"}}, {"type": "node", "id": 6307728771, "lat": 2.550784, "lon": 44.0178515, "tags": {"place": "isolated_dwelling"}}, {"type": "node", "id": 6307729606, "lat": 2.7075722, "lon": 44.0562057, "tags": {"place": "hamlet"}}, {"type": "node", "id": 6307729623, "lat": 2.71008, "lon": 44.0544569, "tags": {"place": "hamlet"}}, {"type": "node", "id": 6307729950, "lat": 2.7144819, "lon": 44.0405443, "tags": {"place": "hamlet"}}, {"type": "node", "id": 6307729966, "lat": 2.7121295, "lon": 44.0419739, "tags": {"place": "isolated_dwelling"}}, {"type": "node", "id": 6307729990, "lat": 2.7185596, "lon": 44.0298396, "tags": {"place": "hamlet"}}, {"type": "node", "id": 6307977305, "lat": 2.7378429, "lon": 44.0073909, "tags": {"place": "isolated_dwelling"}}, {"type": "node", "id": 6307977510, "lat": 2.7325395, "lon": 44.012188, "tags": {"place": "hamlet"}}, {"type": "node", "id": 6307980430, "lat": 2.7386587, "lon": 43.9140996, "tags": {"place": "hamlet"}}, {"type": "node", "id": 6307982495, "lat": 2.7244538, "lon": 43.9483903, "tags": {"place": "isolated_dwelling"}}, {"type": "node", "id": 6307982496, "lat": 2.7141818, "lon": 43.9976612, "tags": {"place": "isolated_dwelling"}}, {"type": "node", "id": 6307983353, "lat": 2.6512833, "lon": 43.9875412, "tags": {"place": "hamlet"}}, {"type": "node", "id": 6308256595, "lat": 2.7068783, "lon": 44.0827462, "tags": {"place": "hamlet"}}, {"type": "node", "id": 6308258714, "lat": 2.6018566, "lon": 44.0422556, "tags": {"name": "Beled Amiin", "place": "hamlet", "source:ref": "UNSOA I: E044N02_05, SPOT5 image based data capture using different Ancillary Sources coming from UNSOA field mission."}}, {"type": "node", "id": 6308260275, "lat": 2.5781459, "lon": 44.0597919, "tags": {"place": "isolated_dwelling"}}, {"type": "node", "id": 6308260276, "lat": 2.5755548, "lon": 44.0634558, "tags": {"place": "isolated_dwelling"}}, {"type": "node", "id": 6308301390, "lat": 2.7209682, "lon": 43.9422776, "tags": {"place": "isolated_dwelling"}}, {"type": "node", "id": 6308301391, "lat": 2.7217345, "lon": 43.942692, "tags": {"place": "isolated_dwelling"}}, {"type": "node", "id": 6308301392, "lat": 2.7216541, "lon": 43.9412409, "tags": {"place": "isolated_dwelling"}}, {"type": "node", "id": 6308456148, "lat": 2.7076231, "lon": 43.9559314, "tags": {"place": "isolated_dwelling"}}, {"type": "node", "id": 6308456149, "lat": 2.7104537, "lon": 43.958804, "tags": {"place": "isolated_dwelling"}}, {"type": "node", "id": 6308456279, "lat": 2.6441482, "lon": 43.937915, "tags": {"place": "isolated_dwelling"}}, {"type": "node", "id": 6308456683, "lat": 2.6456567, "lon": 43.9411712, "tags": {"place": "hamlet"}}, {"type": "node", "id": 6310224346, "lat": 2.5087184, "lon": 43.9954644, "tags": {"place": "isolated_dwelling"}}, {"type": "node", "id": 6310224347, "lat": 2.5103288, "lon": 43.995274, "tags": {"place": "isolated_dwelling"}}, {"type": "node", "id": 6310225586, "lat": 2.5230356, "lon": 43.9845049, "tags": {"place": "isolated_dwelling"}}, {"type": "node", "id": 6310225587, "lat": 2.5282126, "lon": 43.9888474, "tags": {"place": "isolated_dwelling"}}, {"type": "node", "id": 6310225804, "lat": 2.5614124, "lon": 43.9886087, "tags": {"place": "isolated_dwelling"}}, {"type": "node", "id": 6310226204, "lat": 2.5832477, "lon": 43.9553231, "tags": {"place": "hamlet", "source": "UNSOA III: E043N02_08, SPOT5 image based data capture using different Ancillary Sources coming from UNSOA field mission", "source:date": "2007-02-17"}}, {"type": "node", "id": 6310226205, "lat": 2.5846275, "lon": 43.9584114, "tags": {"place": "hamlet", "source": "UNSOA III: E043N02_08, SPOT5 image based data capture using different Ancillary Sources coming from UNSOA field mission", "source:date": "2007-02-17"}}, {"type": "node", "id": 6310226400, "lat": 2.6045882, "lon": 43.950014, "tags": {"place": "isolated_dwelling", "source": "UNSOA III: E043N02_08, SPOT5 image based data capture using different Ancillary Sources coming from UNSOA field mission", "source:date": "2007-02-17"}}, {"type": "node", "id": 6310226401, "lat": 2.6046668, "lon": 43.9506538, "tags": {"place": "hamlet", "source": "UNSOA III: E043N02_08, SPOT5 image based data capture using different Ancillary Sources coming from UNSOA field mission", "source:date": "2007-02-17"}}, {"type": "node", "id": 6310226402, "lat": 2.6084858, "lon": 43.9526409, "tags": {"place": "isolated_dwelling", "source": "UNSOA III: E043N02_08, SPOT5 image based data capture using different Ancillary Sources coming from UNSOA field mission", "source:date": "2007-02-17"}}, {"type": "node", "id": 6310226403, "lat": 2.6142607, "lon": 43.9350319, "tags": {"place": "isolated_dwelling", "source": "UNSOA III: E043N02_08, SPOT5 image based data capture using different Ancillary Sources coming from UNSOA field mission", "source:date": "2007-02-17"}}, {"type": "node", "id": 6310226457, "lat": 2.6902764, "lon": 43.9703915, "tags": {"place": "isolated_dwelling", "source": "UNSOA III: E043N02_08, SPOT5 image based data capture using different Ancillary Sources coming from UNSOA field mission", "source:date": "2007-02-17"}}, {"type": "node", "id": 6310226458, "lat": 2.6999516, "lon": 43.963387, "tags": {"place": "isolated_dwelling", "source": "UNSOA III: E043N02_08, SPOT5 image based data capture using different Ancillary Sources coming from UNSOA field mission", "source:date": "2007-02-17"}}, {"type": "node", "id": 6310226489, "lat": 2.6855771, "lon": 43.9418746, "tags": {"place": "isolated_dwelling", "source": "UNSOA III: E043N02_08, SPOT5 image based data capture using different Ancillary Sources coming from UNSOA field mission", "source:date": "2007-02-17"}}, {"type": "node", "id": 6310226490, "lat": 2.6848536, "lon": 43.9441034, "tags": {"place": "isolated_dwelling", "source": "UNSOA III: E043N02_08, SPOT5 image based data capture using different Ancillary Sources coming from UNSOA field mission", "source:date": "2007-02-17"}}, {"type": "node", "id": 6310226786, "lat": 2.7285346, "lon": 43.9340658, "tags": {"place": "hamlet", "source": "UNSOA III: E043N02_08, SPOT5 image based data capture using different Ancillary Sources coming from UNSOA field mission", "source:date": "2007-02-17"}}, {"type": "node", "id": 6310226787, "lat": 2.7122876, "lon": 43.9466415, "tags": {"place": "isolated_dwelling"}}, {"type": "node", "id": 6310226788, "lat": 2.7146984, "lon": 43.9464412, "tags": {"place": "isolated_dwelling", "source": "UNSOA III: E043N02_08, SPOT5 image based data capture using different Ancillary Sources coming from UNSOA field mission", "source:date": "2007-02-17"}}, {"type": "node", "id": 6310226811, "lat": 2.7189776, "lon": 43.9453688, "tags": {"place": "isolated_dwelling"}}, {"type": "node", "id": 6310226844, "lat": 2.7366957, "lon": 43.9102478, "tags": {"place": "isolated_dwelling", "source": "UNSOA III: E043N02_08, SPOT5 image based data capture using different Ancillary Sources coming from UNSOA field mission", "source:date": "2007-02-17"}}, {"type": "node", "id": 6310228435, "lat": 2.7105666, "lon": 43.8486464, "tags": {"place": "isolated_dwelling", "source": "UNSOA III: E043N02_08, SPOT5 image based data capture using different Ancillary Sources coming from UNSOA field mission", "source:date": "2007-02-17"}}, {"type": "node", "id": 6310421152, "lat": 2.6559587, "lon": 43.9194694, "tags": {"place": "isolated_dwelling"}}, {"type": "node", "id": 6310422376, "lat": 2.7113861, "lon": 43.8772273, "tags": {"place": "isolated_dwelling"}}, {"type": "node", "id": 6310565351, "lat": 2.5286547, "lon": 43.9582085, "tags": {"place": "hamlet"}}, {"type": "node", "id": 6310871337, "lat": 2.728206, "lon": 43.9361326, "tags": {"place": "hamlet"}}, {"type": "node", "id": 6310871596, "lat": 2.7304565, "lon": 43.9351, "tags": {"place": "isolated_dwelling"}}, {"type": "node", "id": 6310872515, "lat": 2.7202944, "lon": 43.9439379, "tags": {"place": "isolated_dwelling"}}, {"type": "node", "id": 6311103291, "lat": 2.7331397, "lon": 44.0254837, "tags": {"name": "Golwiin", "place": "locality", "source:ref": "UNSOA I: E044N02_05, SPOT5 image based data capture using different Ancillary Sources coming from UNSOA field mission."}}, {"type": "node", "id": 6311103324, "lat": 2.5321623, "lon": 44.0766603, "tags": {"name": "Surkun", "place": "hamlet", "source:ref": "UNSOA I: E044N02_05, SPOT5 image based data capture using different Ancillary Sources coming from UNSOA field mission."}}, {"type": "node", "id": 6311103353, "lat": 2.583931, "lon": 44.0514958, "tags": {"name": "Golooley", "place": "locality", "source:ref": "UNSOA I: E044N02_05, SPOT5 image based data capture using different Ancillary Sources coming from UNSOA field mission."}}, {"type": "node", "id": 6311103359, "lat": 2.6248138, "lon": 44.0423441, "tags": {"name": "Aabaan Yare", "place": "locality", "source:ref": "UNSOA I: E044N02_05, SPOT5 image based data capture using different Ancillary Sources coming from UNSOA field mission."}}, {"type": "node", "id": 6311103370, "lat": 2.6275522, "lon": 44.1277242, "tags": {"place": "hamlet", "source:ref": "UNSOA I: E044N02_05, SPOT5 image based data capture using different Ancillary Sources coming from UNSOA field mission."}}, {"type": "node", "id": 6311103985, "lat": 2.6667858, "lon": 44.1166118, "tags": {"name": "Urughei", "place": "locality", "source:ref": "UNSOA I: E044N02_05, SPOT5 image based data capture using different Ancillary Sources coming from UNSOA field mission."}}, {"type": "node", "id": 6311104011, "lat": 2.718498, "lon": 44.016788, "tags": {"name": "Corou Barrei", "place": "locality", "source:ref": "UNSOA I: E044N02_05, SPOT5 image based data capture using different Ancillary Sources coming from UNSOA field mission."}}, {"type": "node", "id": 6311104024, "lat": 2.6836761, "lon": 44.1170087, "tags": {"name": "Hararec", "place": "locality", "source:ref": "UNSOA I: E044N02_05, SPOT5 image based data capture using different Ancillary Sources coming from UNSOA field mission."}}, {"type": "node", "id": 6311104029, "lat": 2.6976403, "lon": 44.0620691, "tags": {"name": "Dooy Ruq", "place": "locality", "source:ref": "UNSOA I: E044N02_05, SPOT5 image based data capture using different Ancillary Sources coming from UNSOA field mission."}}, {"type": "node", "id": 6311104030, "lat": 2.7005017, "lon": 44.0849027, "tags": {"name": "Ambul", "place": "locality", "source:ref": "UNSOA I: E044N02_05, SPOT5 image based data capture using different Ancillary Sources coming from UNSOA field mission."}}, {"type": "node", "id": 6315968393, "lat": 2.5515088, "lon": 44.0252289, "tags": {"place": "isolated_dwelling"}}, {"type": "node", "id": 6315968970, "lat": 2.5007545, "lon": 44.0231422, "tags": {"place": "hamlet"}}, {"type": "node", "id": 6315970192, "lat": 2.5432343, "lon": 44.0703088, "tags": {"place": "hamlet"}}, {"type": "node", "id": 6315970697, "lat": 2.5256509, "lon": 44.0792996, "tags": {"place": "isolated_dwelling"}}, {"type": "node", "id": 6315971725, "lat": 2.5532318, "lon": 44.1753763, "tags": {"place": "hamlet"}}, {"type": "node", "id": 6315971810, "lat": 2.559735, "lon": 44.1757572, "tags": {"place": "hamlet"}}, {"type": "node", "id": 6315972583, "lat": 2.5890943, "lon": 44.1600502, "tags": {"place": "isolated_dwelling"}}, {"type": "node", "id": 6315973480, "lat": 2.5979071, "lon": 44.1453034, "tags": {"place": "hamlet"}}, {"type": "node", "id": 6315975074, "lat": 2.720285, "lon": 44.0388519, "tags": {"place": "isolated_dwelling"}}, {"type": "node", "id": 6315975234, "lat": 2.7094677, "lon": 44.0171729, "tags": {"place": "isolated_dwelling"}}, {"type": "node", "id": 6315975308, "lat": 2.7232535, "lon": 44.0310091, "tags": {"place": "hamlet"}}, {"type": "node", "id": 6315976865, "lat": 2.6584612, "lon": 44.0578204, "tags": {"place": "village"}}, {"type": "node", "id": 6315977248, "lat": 2.6633831, "lon": 44.0531373, "tags": {"place": "hamlet"}}, {"type": "node", "id": 6316475675, "lat": 2.5621359, "lon": 44.1557774, "tags": {"place": "isolated_dwelling"}}, {"type": "node", "id": 6316475676, "lat": 2.5633349, "lon": 44.1558579, "tags": {"place": "isolated_dwelling"}}, {"type": "node", "id": 6316480558, "lat": 2.6908163, "lon": 44.0196848, "tags": {"place": "hamlet"}}, {"type": "node", "id": 6317739123, "lat": 2.6497333, "lon": 44.0488189, "tags": {"place": "hamlet"}}, {"type": "node", "id": 6330407301, "lat": 2.6243235, "lon": 43.9288411, "tags": {"place": "isolated_dwelling"}}, {"type": "node", "id": 6330407335, "lat": 2.6535982, "lon": 43.9909235, "tags": {"place": "isolated_dwelling"}}, {"type": "node", "id": 6330407336, "lat": 2.6537054, "lon": 43.9915672, "tags": {"place": "isolated_dwelling"}}, {"type": "node", "id": 6330407367, "lat": 2.659474, "lon": 43.9865367, "tags": {"place": "isolated_dwelling"}}, {"type": "node", "id": 6330407368, "lat": 2.658409, "lon": 43.9866963, "tags": {"place": "isolated_dwelling"}}, {"type": "node", "id": 6330590796, "lat": 2.7414692, "lon": 43.9132225, "tags": {"place": "isolated_dwelling"}}, {"type": "node", "id": 6330613684, "lat": 2.5838586, "lon": 44.1527626, "tags": {"place": "hamlet"}}, {"type": "node", "id": 6330666324, "lat": 2.6662151, "lon": 43.9777377, "tags": {"place": "isolated_dwelling"}}, {"type": "node", "id": 6330666325, "lat": 2.6668233, "lon": 43.978191, "tags": {"place": "isolated_dwelling"}}, {"type": "node", "id": 6330666326, "lat": 2.6667215, "lon": 43.978655, "tags": {"place": "isolated_dwelling"}}, {"type": "node", "id": 7192721874, "lat": 2.7408342, "lon": 43.8769591, "tags": {"name": "Quunya Harraagow", "pcode": "NA-3806-G09-002", "place": "hamlet", "source": "UNDP - 1997"}}, {"type": "node", "id": 7656447941, "lat": 2.6359467, "lon": 43.999009, "tags": {"alt_name": "Reebay", "name": "Reebbay", "pcode": "NA-3806-J11-001", "place": "village", "source": "UNSOA III: E043N02_08, SPOT5 image based data capture using different Ancillary Sources coming from UNSOA field mission", "source:date": "2007-02-17"}}, {"type": "node", "id": 7656447952, "lat": 2.5047203, "lon": 43.9967841, "tags": {"place": "village"}}, {"type": "node", "id": 7663784989, "lat": 2.6214807, "lon": 43.9496925, "tags": {"name": "Dheenka", "place": "village", "source": "UNSOA III: E043N02_08, SPOT5 image based data capture using different Ancillary Sources coming from UNSOA field mission", "source:date": "2007-02-17"}}, {"type": "node", "id": 7671047350, "lat": 2.665339, "lon": 44.1407678, "tags": {"place": "village"}}, {"type": "node", "id": 7677722290, "lat": 2.6631045, "lon": 44.0159726, "tags": {"place": "hamlet"}}, {"type": "node", "id": 7680538287, "lat": 2.6907279, "lon": 44.1273969, "tags": {"place": "hamlet"}}, {"type": "node", "id": 7687144488, "lat": 2.6187235, "lon": 44.0360892, "tags": {"place": "hamlet"}}, {"type": "node", "id": 7687144508, "lat": 2.6151438, "lon": 44.0307999, "tags": {"place": "isolated_dwelling"}}, {"type": "node", "id": 7691824199, "lat": 2.6971219, "lon": 44.1697048, "tags": {"place": "isolated_dwelling"}}, {"type": "node", "id": 7695432389, "lat": 2.6982766, "lon": 44.1381606, "tags": {"place": "hamlet"}}, {"type": "node", "id": 7699221616, "lat": 2.5762033, "lon": 44.1669032, "tags": {"place": "hamlet"}}, {"type": "node", "id": 7701440554, "lat": 2.7359823, "lon": 43.9125681, "tags": {"name": "Kunyabuurow", "pcode": "NA-3806-G10-003", "place": "village", "source": "UNDP - 1997"}}, {"type": "node", "id": 7701440555, "lat": 2.7047724, "lon": 43.9249814, "tags": {"name": "Darabqooy", "place": "hamlet"}}, {"type": "node", "id": 7701440556, "lat": 2.7133861, "lon": 43.903631, "tags": {"place": "hamlet"}}, {"type": "node", "id": 7701440557, "lat": 2.7145221, "lon": 43.8796708, "tags": {"place": "hamlet"}}, {"type": "node", "id": 7701440558, "lat": 2.7347391, "lon": 43.8572556, "tags": {"alt_name": "Jembecada", "name": "Jemeecada", "place": "hamlet"}}, {"type": "node", "id": 7701440559, "lat": 2.7452092, "lon": 43.8285559, "tags": {"name": "Dukaanka", "pcode": "NA-3806-G08-002", "place": "village", "source": "UNDP - 1997"}}, {"type": "node", "id": 7701440560, "lat": 2.7494417, "lon": 43.8001996, "tags": {"place": "hamlet"}}, {"type": "node", "id": 7701440561, "lat": 2.5205516, "lon": 43.8138601, "tags": {"place": "hamlet"}}, {"type": "node", "id": 7701440564, "lat": 2.7101791, "lon": 43.8463604, "tags": {"place": "hamlet"}}, {"type": "node", "id": 7701568542, "lat": 2.6980636, "lon": 43.9645037, "tags": {"place": "hamlet"}}, {"type": "node", "id": 7701568543, "lat": 2.7083559, "lon": 43.9597669, "tags": {"place": "hamlet"}}, {"type": "node", "id": 7701568544, "lat": 2.7094182, "lon": 43.9572725, "tags": {"place": "hamlet"}}, {"type": "node", "id": 7701568545, "lat": 2.7167833, "lon": 43.9503658, "tags": {"place": "hamlet"}}, {"type": "node", "id": 7701568546, "lat": 2.7197251, "lon": 43.9471203, "tags": {"place": "hamlet"}}, {"type": "node", "id": 7701568547, "lat": 2.7207097, "lon": 43.9409311, "tags": {"place": "hamlet"}}, {"type": "node", "id": 7701568548, "lat": 2.7168235, "lon": 43.9398327, "tags": {"name": "Xaliimay", "pcode": "NA-3806-G10-001", "place": "hamlet", "source": "UNDP - 1997"}}, {"type": "node", "id": 7701568549, "lat": 2.7166815, "lon": 43.8770342, "tags": {"name": "Mataanyaha", "place": "village", "source": "UNSOA III: E043N02_08, SPOT5 image based data capture using different Ancillary Sources coming from UNSOA field mission", "source:date": "2007-02-17"}}, {"type": "node", "id": 7701647882, "lat": 2.6129869, "lon": 43.9345622, "tags": {"place": "hamlet"}}, {"type": "node", "id": 7701647883, "lat": 2.5999166, "lon": 43.936201, "tags": {"place": "hamlet"}}, {"type": "node", "id": 7701661477, "lat": 2.642278, "lon": 43.9443523, "tags": {"place": "hamlet"}}, {"type": "node", "id": 7701666709, "lat": 2.6453057, "lon": 43.943789, "tags": {"alt_name": "Ikirray", "name": "Ikirey Aw Subow", "pcode": "NA-3806-J10-002", "place": "hamlet", "source": "UNDP - 2006, UNDP - 1997"}}, {"type": "node", "id": 7701666710, "lat": 2.6534937, "lon": 43.9350343, "tags": {"alt_name": "Ikiroy Laafta", "name": "Ikirray", "place": "hamlet", "source:date": "2007-02-17"}}, {"type": "node", "id": 7701666711, "lat": 2.651779, "lon": 43.9168489, "tags": {"place": "hamlet"}}, {"type": "node", "id": 7701666712, "lat": 2.6545735, "lon": 43.9180693, "tags": {"place": "hamlet"}}, {"type": "node", "id": 7701666713, "lat": 2.6542091, "lon": 43.9138743, "tags": {"name": "Hagaray", "pcode": "NA-3806-J10-005", "place": "village"}}, {"type": "node", "id": 7701666714, "lat": 2.6650068, "lon": 43.9132896, "tags": {"name": "Shibelle", "pcode": "NA-3806-J10-006", "place": "village", "source": "UNDP - 2006"}}, {"type": "node", "id": 7701666715, "lat": 2.6708128, "lon": 43.9140058, "tags": {"place": "hamlet"}}, {"type": "node", "id": 7701666716, "lat": 2.6829125, "lon": 43.9248419, "tags": {"place": "hamlet", "source": "UNSOA III: E043N02_08, SPOT5 image based data capture using different Ancillary Sources coming from UNSOA field mission", "source:date": "2007-02-17"}}, {"type": "node", "id": 7701666717, "lat": 2.6924078, "lon": 43.9329261, "tags": {"place": "hamlet"}}, {"type": "node", "id": 7701666718, "lat": 2.6880888, "lon": 43.940978, "tags": {"alt_name": "Ballow", "name": "Balow", "pcode": "NA-3806-H10-004", "place": "hamlet", "source": "UNDP - 2006, UNDP - 1997", "source:date": "2007-02-17"}}, {"type": "node", "id": 7701666719, "lat": 2.6888658, "lon": 43.9608157, "tags": {"alt_name": "Mora Fara", "name": "Ballow", "place": "hamlet"}}, {"type": "node", "id": 7701687844, "lat": 2.533194, "lon": 43.9825577, "tags": {"place": "hamlet"}}, {"type": "node", "id": 7701687846, "lat": 2.5450511, "lon": 43.9822251, "tags": {"name": "Jameeca", "place": "village"}}, {"type": "node", "id": 7701687847, "lat": 2.5485077, "lon": 43.98826, "tags": {"name": "Sodori", "place": "village"}}, {"type": "node", "id": 7701687848, "lat": 2.5643545, "lon": 43.9764154, "tags": {"place": "hamlet"}}, {"type": "node", "id": 7701690907, "lat": 2.6032016, "lon": 43.9512724, "tags": {"place": "hamlet"}}, {"type": "node", "id": 7701690908, "lat": 2.6063527, "lon": 43.947241, "tags": {"place": "hamlet"}}, {"type": "node", "id": 7701690909, "lat": 2.6093858, "lon": 43.9469567, "tags": {"place": "hamlet"}}, {"type": "node", "id": 7701690910, "lat": 2.6142998, "lon": 43.9565831, "tags": {"place": "village"}}, {"type": "node", "id": 7701729957, "lat": 2.7409012, "lon": 43.9961779, "tags": {"place": "hamlet"}}, {"type": "node", "id": 7701729958, "lat": 2.6417421, "lon": 43.9937586, "tags": {"alt_name": "Galool Buul; Gallool", "name": "Gallool", "place": "village", "source": "UNSOA III: E043N02_08, SPOT5 image based data capture using different Ancillary Sources coming from UNSOA field mission", "source:date": "2007-02-17"}}, {"type": "node", "id": 7701729959, "lat": 2.6494265, "lon": 43.9895529, "tags": {"alt_name": "Kuunyi Dheefle; Kuunya Dhoollo", "name": "Kuunya Dheetle", "pcode": "NA-3806-J11-003", "place": "village", "source": "UNSOA III: E043N02_08, SPOT5 image based data capture using different Ancillary Sources coming from UNSOA field mission", "source:date": "2007-02-17"}}, {"type": "node", "id": 7701729960, "lat": 2.6549299, "lon": 43.9894348, "tags": {"place": "hamlet"}}, {"type": "node", "id": 7701729961, "lat": 2.6600902, "lon": 43.9837056, "tags": {"place": "hamlet"}}, {"type": "node", "id": 7701729962, "lat": 2.6586005, "lon": 43.9827776, "tags": {"name": "Galool Alimow", "pcode": "NA-3806-J11-004", "place": "hamlet", "source": "UNDP - 2006"}}, {"type": "node", "id": 7701729963, "lat": 2.6636618, "lon": 43.9751306, "tags": {"alt_name": "Galow Amale", "name": "Galoollo", "place": "village", "source": "UNSOA III: E043N02_08, SPOT5 image based data capture using different Ancillary Sources coming from UNSOA field mission", "source:date": "2007-02-17"}}, {"type": "node", "id": 7701729964, "lat": 2.6672962, "lon": 43.9774199, "tags": {"place": "hamlet"}}, {"type": "node", "id": 7701729967, "lat": 2.6677906, "lon": 43.9682561, "tags": {"alt_name": "Cadey Kuudka; Adaykuud", "name": "Caday Kud", "place": "village", "source": "UNSOA III: E043N02_08, SPOT5 image based data capture using different Ancillary Sources coming from UNSOA field mission", "source:date": "2007-02-17"}}, {"type": "node", "id": 7701729968, "lat": 2.6731224, "lon": 43.9504355, "tags": {"alt_name": "Kunya Qorow; Kuunyow Qarrow", "name": "Kuunyow Qorrow", "place": "village"}}, {"type": "node", "id": 7701729971, "lat": 2.6727205, "lon": 43.9261749, "tags": {"name": "Gardo-Maale", "place": "village"}}, {"type": "node", "id": 7701729972, "lat": 2.5154898, "lon": 43.9830244, "tags": {"place": "hamlet"}}, {"type": "node", "id": 7701729973, "lat": 2.5169957, "lon": 43.9816377, "tags": {"place": "hamlet"}}, {"type": "node", "id": 7701729974, "lat": 2.5202515, "lon": 43.9643025, "tags": {"place": "hamlet"}}, {"type": "node", "id": 7701729975, "lat": 2.5213448, "lon": 43.9845666, "tags": {"place": "hamlet"}}, {"type": "node", "id": 7701733204, "lat": 2.5527414, "lon": 44.1788176, "tags": {"place": "hamlet"}}, {"type": "node", "id": 7701733222, "lat": 2.55494, "lon": 44.1778895, "tags": {"place": "isolated_dwelling"}}, {"type": "node", "id": 7701818228, "lat": 2.7494422, "lon": 43.881948, "tags": {"place": "hamlet"}}, {"type": "node", "id": 7713621957, "lat": 2.7718609, "lon": 44.1575396, "tags": {"place": "hamlet"}}, {"type": "node", "id": 7713907625, "lat": 2.7901053, "lon": 44.151848, "tags": {"place": "hamlet"}}, {"type": "node", "id": 7714071184, "lat": 2.8263841, "lon": 44.1829401, "tags": {"place": "isolated_dwelling"}}, {"type": "node", "id": 7714086698, "lat": 2.5827761, "lon": 44.1601199, "tags": {"place": "isolated_dwelling"}}, {"type": "node", "id": 7716142429, "lat": 2.8084082, "lon": 44.1277456, "tags": {"place": "isolated_dwelling"}}, {"type": "node", "id": 7716210890, "lat": 2.6288356, "lon": 44.0052786, "tags": {"place": "hamlet"}}, {"type": "node", "id": 7716210891, "lat": 2.6271369, "lon": 44.0079877, "tags": {"place": "hamlet"}}, {"type": "node", "id": 7716599560, "lat": 2.6521929, "lon": 43.9137711, "tags": {"place": "hamlet"}}, {"type": "node", "id": 7720769688, "lat": 2.6722757, "lon": 44.1312835, "tags": {"place": "hamlet"}}, {"type": "node", "id": 7724473544, "lat": 2.6377392, "lon": 44.0625465, "tags": {"place": "isolated_dwelling"}}, {"type": "node", "id": 7724473571, "lat": 2.6455816, "lon": 44.0635309, "tags": {"place": "hamlet"}}, {"type": "node", "id": 7724473572, "lat": 2.6485745, "lon": 44.0567877, "tags": {"place": "hamlet"}}, {"type": "node", "id": 7724473573, "lat": 2.6492443, "lon": 44.0521663, "tags": {"place": "hamlet"}}, {"type": "node", "id": 7727381712, "lat": 2.6559721, "lon": 44.0667173, "tags": {"place": "hamlet"}}, {"type": "node", "id": 7727381825, "lat": 2.6570519, "lon": 44.0746808, "tags": {"place": "hamlet"}}, {"type": "node", "id": 7730949822, "lat": 2.6549754, "lon": 44.0816867, "tags": {"place": "hamlet"}}, {"type": "node", "id": 7733187949, "lat": 2.6799787, "lon": 44.0689838, "tags": {"place": "isolated_dwelling"}}, {"type": "node", "id": 7733187950, "lat": 2.6813826, "lon": 44.0693995, "tags": {"place": "isolated_dwelling"}}, {"type": "node", "id": 7733246437, "lat": 2.8182508, "lon": 44.0478158, "tags": {"place": "hamlet"}}, {"type": "node", "id": 7733387872, "lat": 2.7716466, "lon": 43.7964821, "tags": {"place": "hamlet"}}, {"type": "node", "id": 7733387873, "lat": 2.7665517, "lon": 43.809488, "tags": {"place": "hamlet"}}, {"type": "node", "id": 7733387874, "lat": 2.7949007, "lon": 43.7938213, "tags": {"place": "hamlet"}}, {"type": "node", "id": 7733387878, "lat": 2.8330815, "lon": 43.7892937, "tags": {"place": "hamlet"}}, {"type": "node", "id": 7733441603, "lat": 2.8260961, "lon": 43.9826073, "tags": {"place": "hamlet"}}, {"type": "node", "id": 7733441604, "lat": 2.8243146, "lon": 43.9783935, "tags": {"place": "isolated_dwelling"}}, {"type": "node", "id": 7733441607, "lat": 2.8088998, "lon": 43.9794892, "tags": {"place": "isolated_dwelling"}}, {"type": "node", "id": 7733441608, "lat": 2.8066401, "lon": 43.9782165, "tags": {"place": "hamlet"}}, {"type": "node", "id": 7733441609, "lat": 2.8142886, "lon": 43.9836922, "tags": {"place": "hamlet"}}, {"type": "node", "id": 7733441610, "lat": 2.8106827, "lon": 43.9834321, "tags": {"place": "hamlet"}}, {"type": "node", "id": 7733498494, "lat": 2.7815886, "lon": 43.9186513, "tags": {"place": "hamlet"}}, {"type": "node", "id": 7733498495, "lat": 2.7816435, "lon": 43.9286372, "tags": {"place": "isolated_dwelling"}}, {"type": "node", "id": 7733498496, "lat": 2.7876566, "lon": 43.9429441, "tags": {"place": "hamlet"}}, {"type": "node", "id": 7733498497, "lat": 2.7531267, "lon": 43.8773532, "tags": {"place": "hamlet"}}, {"type": "node", "id": 7733498498, "lat": 2.7568098, "lon": 43.8792121, "tags": {"place": "hamlet"}}, {"type": "node", "id": 7733498499, "lat": 2.7670011, "lon": 43.8821787, "tags": {"place": "hamlet"}}, {"type": "node", "id": 7733498500, "lat": 2.7920074, "lon": 43.8791692, "tags": {"place": "isolated_dwelling"}}, {"type": "node", "id": 7733516970, "lat": 2.7610642, "lon": 43.8125539, "tags": {"place": "hamlet"}}, {"type": "node", "id": 7734057654, "lat": 2.821345, "lon": 44.1307899, "tags": {"place": "hamlet"}}, {"type": "node", "id": 7736149351, "lat": 2.7614822, "lon": 44.0954626, "tags": {"place": "isolated_dwelling"}}, {"type": "node", "id": 7736149370, "lat": 2.7636361, "lon": 44.0981716, "tags": {"place": "isolated_dwelling"}}, {"type": "node", "id": 7737211912, "lat": 2.8188696, "lon": 44.079144, "tags": {"place": "isolated_dwelling"}}, {"type": "node", "id": 7737256073, "lat": 2.8242624, "lon": 44.0707219, "tags": {"place": "hamlet"}}, {"type": "node", "id": 7740190585, "lat": 2.6981842, "lon": 44.0539741, "tags": {"place": "hamlet"}}, {"type": "node", "id": 7740190586, "lat": 2.6949182, "lon": 44.0525687, "tags": {"place": "isolated_dwelling"}}, {"type": "node", "id": 7740190587, "lat": 2.6962659, "lon": 44.0540063, "tags": {"place": "hamlet"}}, {"type": "node", "id": 7740190589, "lat": 2.7108301, "lon": 44.0798628, "tags": {"place": "hamlet"}}, {"type": "node", "id": 7740285365, "lat": 2.7599122, "lon": 44.0116811, "tags": {"place": "isolated_dwelling", "source:name": "UNSOA field mission and SPOT5 images data capture", "source:ref": "UNSOA field mission and SPOT5 images data capture"}}, {"type": "node", "id": 7740976571, "lat": 2.7962188, "lon": 44.0452382, "tags": {"place": "isolated_dwelling"}}, {"type": "node", "id": 7740976572, "lat": 2.796835, "lon": 44.0465015, "tags": {"place": "isolated_dwelling"}}, {"type": "node", "id": 7742867675, "lat": 2.7786336, "lon": 44.0106082, "tags": {"place": "isolated_dwelling"}}, {"type": "node", "id": 7743278491, "lat": 2.8320929, "lon": 43.8043651, "tags": {"place": "isolated_dwelling", "source:ref": "UNSOA field mission and SPOT5 images data capture"}}, {"type": "node", "id": 7760865367, "lat": 2.7954392, "lon": 44.0896046, "tags": {"place": "hamlet"}}, {"type": "node", "id": 7760865375, "lat": 2.7990693, "lon": 44.0882045, "tags": {"place": "hamlet"}}, {"type": "node", "id": 7760865684, "lat": 2.8052979, "lon": 44.0692171, "tags": {"place": "hamlet"}}, {"type": "node", "id": 7769193372, "lat": 2.6983436, "lon": 44.1762614, "tags": {"place": "hamlet"}}, {"type": "node", "id": 7769582441, "lat": 2.811398, "lon": 44.0802759, "tags": {"place": "hamlet"}}, {"type": "node", "id": 7783758843, "lat": 2.5287645, "lon": 44.1749015, "tags": {"place": "hamlet"}}, {"type": "node", "id": 7783758844, "lat": 2.6457129, "lon": 44.1713369, "tags": {"place": "hamlet"}}, {"type": "node", "id": 7783758845, "lat": 2.7245958, "lon": 44.034799, "tags": {"place": "hamlet"}}, {"type": "node", "id": 7783758846, "lat": 2.540603, "lon": 44.1686869, "tags": {"place": "hamlet"}}, {"type": "node", "id": 7783758849, "lat": 2.6580272, "lon": 44.065564, "tags": {"place": "hamlet"}}, {"type": "node", "id": 7783758850, "lat": 2.7323225, "lon": 44.0140736, "tags": {"place": "isolated_dwelling"}}, {"type": "node", "id": 7783758851, "lat": 2.5367176, "lon": 44.1075969, "tags": {"place": "hamlet"}}, {"type": "node", "id": 7783758852, "lat": 2.7241082, "lon": 44.038074, "tags": {"place": "hamlet"}}, {"type": "node", "id": 7783758853, "lat": 2.5475002, "lon": 44.1793084, "tags": {"place": "hamlet"}}, {"type": "node", "id": 7783758854, "lat": 2.5820741, "lon": 44.0290698, "tags": {"place": "isolated_dwelling"}}, {"type": "node", "id": 7783758855, "lat": 2.6312538, "lon": 44.0187581, "tags": {"place": "isolated_dwelling"}}, {"type": "node", "id": 7783758860, "lat": 2.6773396, "lon": 44.0364754, "tags": {"place": "hamlet"}}, {"type": "node", "id": 7783758861, "lat": 2.6435882, "lon": 44.1705993, "tags": {"place": "isolated_dwelling"}}, {"type": "node", "id": 7783758862, "lat": 2.6539064, "lon": 44.0424514, "tags": {"place": "hamlet", "source:ref": "UNSOA I: E044N02_05, SPOT5 image based data capture using different Ancillary Sources coming from UNSOA field mission."}}, {"type": "node", "id": 7783758865, "lat": 2.5822161, "lon": 44.0323555, "tags": {"place": "hamlet"}}, {"type": "node", "id": 7786952499, "lat": 2.7300694, "lon": 44.0127245, "tags": {"place": "hamlet"}}, {"type": "node", "id": 7786952510, "lat": 2.7294612, "lon": 44.0130329, "tags": {"place": "isolated_dwelling"}}, {"type": "node", "id": 7786952511, "lat": 2.7288557, "lon": 44.012534, "tags": {"place": "isolated_dwelling"}}, {"type": "node", "id": 7786952512, "lat": 2.7288664, "lon": 44.0102863, "tags": {"place": "isolated_dwelling"}}, {"type": "node", "id": 7786952513, "lat": 2.7280975, "lon": 44.0118957, "tags": {"place": "isolated_dwelling"}}, {"type": "node", "id": 7798271180, "lat": 2.7819047, "lon": 43.9635515, "tags": {"place": "hamlet"}}, {"type": "node", "id": 7802003837, "lat": 2.5763641, "lon": 43.9683822, "tags": {"place": "hamlet"}}, {"type": "node", "id": 7807650596, "lat": 2.4932246, "lon": 43.9777967, "tags": {"place": "hamlet"}}, {"type": "node", "id": 7861678145, "lat": 2.7892279, "lon": 43.9134767, "tags": {"place": "hamlet"}}, {"type": "node", "id": 7868003654, "lat": 2.497906, "lon": 44.0201689, "tags": {"place": "isolated_dwelling"}}, {"type": "node", "id": 7868525622, "lat": 2.6476742, "lon": 43.9840624, "tags": {"place": "hamlet"}}, {"type": "node", "id": 7868725389, "lat": 2.5974489, "lon": 43.9372927, "tags": {"place": "hamlet"}}, {"type": "node", "id": 8428792091, "lat": 2.7060745, "lon": 44.0486634, "tags": {"place": "isolated_dwelling"}}, {"type": "node", "id": 8429256638, "lat": 2.6380232, "lon": 44.0629461, "tags": {"place": "isolated_dwelling"}}, {"type": "node", "id": 8429256639, "lat": 2.6402604, "lon": 44.0651214, "tags": {"place": "isolated_dwelling"}}, {"type": "node", "id": 8429256730, "lat": 2.6428621, "lon": 44.0629327, "tags": {"place": "isolated_dwelling"}}, {"type": "node", "id": 8429256731, "lat": 2.6423155, "lon": 44.0623614, "tags": {"place": "hamlet"}}, {"type": "node", "id": 8429256772, "lat": 2.6497614, "lon": 44.0554225, "tags": {"place": "isolated_dwelling"}}, {"type": "node", "id": 8429307263, "lat": 2.6346766, "lon": 44.0651563, "tags": {"place": "isolated_dwelling"}}, {"type": "node", "id": 8429307301, "lat": 2.6355715, "lon": 44.0638259, "tags": {"place": "isolated_dwelling"}}, {"type": "node", "id": 8432208840, "lat": 2.5202689, "lon": 44.0195292, "tags": {"place": "isolated_dwelling"}}, {"type": "node", "id": 8432208841, "lat": 2.5217601, "lon": 44.017421, "tags": {"place": "hamlet"}}, {"type": "node", "id": 8434140809, "lat": 2.6203339, "lon": 44.0278307, "tags": {"place": "isolated_dwelling"}}, {"type": "node", "id": 8434234748, "lat": 2.5450511, "lon": 44.0673315, "tags": {"place": "hamlet"}}, {"type": "node", "id": 8434249521, "lat": 2.5617982, "lon": 44.0331012, "tags": {"place": "hamlet"}}, {"type": "node", "id": 8434258192, "lat": 2.6307862, "lon": 44.0190236, "tags": {"place": "isolated_dwelling"}}, {"type": "node", "id": 9037351275, "lat": 2.8039558, "lon": 43.8853812, "tags": {"place": "isolated_dwelling"}}, {"type": "node", "id": 9037843512, "lat": 2.8300677, "lon": 43.9160201, "tags": {"place": "isolated_dwelling"}}, {"type": "node", "id": 9037843592, "lat": 2.8183847, "lon": 43.9123535, "tags": {"place": "hamlet"}}, {"type": "node", "id": 9047908866, "lat": 2.8211093, "lon": 43.925904, "tags": {"place": "hamlet"}}]}