{"version": 0.6, "generator": "Overpass API 0.7.62.1 084b4234", "osm3s": {"timestamp_osm_base": "2024-09-30T22:18:58Z", "copyright": "The data included in this document is from www.openstreetmap.org. The data is made available under ODbL."}, "elements": [{"type": "node", "id": 1150880936, "lat": 8.25, "lon": 40.13333, "tags": {"is_in:country": "Ethiopia", "is_in:country_code": "ET", "name": "Debre Selam", "place": "village", "source": "GeoDatabase", "wikidata": "Q3020930", "wikipedia": "en:Debre Selam"}}, {"type": "node", "id": 1150882324, "lat": 8.3, "lon": 40.06666, "tags": {"is_in:country": "Ethiopia", "is_in:country_code": "ET", "name": "T'At'Esa Yebuna Na Yemuz Tekil", "place": "locality", "source": "GeoDatabase"}}, {"type": "node", "id": 1150883581, "lat": 8.25, "lon": 40.0, "tags": {"is_in:country": "Ethiopia", "is_in:country_code": "ET", "name": "Arba Gugu Awraja", "place": "locality", "source": "GeoDatabase"}}, {"type": "node", "id": 1150888128, "lat": 8.1, "lon": 40.16667, "tags": {"is_in:country": "Ethiopia", "is_in:country_code": "ET", "name": "Oda Roba", "place": "locality", "source": "GeoDatabase"}}, {"type": "node", "id": 1150893004, "lat": 8.43333, "lon": 40.23333, "tags": {"is_in:country": "Ethiopia", "is_in:country_code": "ET", "name": "Bekeksa", "place": "locality", "source": "GeoDatabase"}}, {"type": "node", "id": 1150893623, "lat": 8.4, "lon": 40.01667, "tags": {"is_in:country": "Ethiopia", "is_in:country_code": "ET", "name": "Belbelo", "place": "locality", "source": "GeoDatabase"}}, {"type": "node", "id": 1150895002, "lat": 8.33333, "lon": 40.2, "tags": {"is_in:country": "Ethiopia", "is_in:country_code": "ET", "name": "Ch'Ulul Shet'", "place": "locality", "source": "GeoDatabase"}}, {"type": "node", "id": 1150898327, "lat": 8.31667, "lon": 39.91667, "tags": {"is_in:country": "Ethiopia", "is_in:country_code": "ET", "name": "Angula", "place": "locality", "source": "GeoDatabase"}}, {"type": "node", "id": 1150901020, "lat": 8.35, "lon": 40.03333, "tags": {"is_in:country": "Ethiopia", "is_in:country_code": "ET", "name": "Gara Adamo", "place": "locality", "source": "GeoDatabase"}}, {"type": "node", "id": 1150902115, "lat": 8.2, "lon": 39.96667, "tags": {"is_in:country": "Ethiopia", "is_in:country_code": "ET", "name": "Monte Gugu", "place": "locality", "source": "GeoDatabase"}}, {"type": "node", "id": 1150903367, "lat": 8.41667, "lon": 40.15, "tags": {"is_in:country": "Ethiopia", "is_in:country_code": "ET", "name": "Gebri'El Bete Kristiyan", "place": "locality", "source": "GeoDatabase"}}, {"type": "node", "id": 1150905656, "lat": 8.18333, "lon": 40.06666, "tags": {"is_in:country": "Ethiopia", "is_in:country_code": "ET", "name": "Gelolcha", "place": "locality", "source": "GeoDatabase"}}, {"type": "node", "id": 1150913423, "lat": 8.43333, "lon": 40.3, "tags": {"is_in:country": "Ethiopia", "is_in:country_code": "ET", "name": "Belasca", "place": "locality", "source": "GeoDatabase"}}, {"type": "node", "id": 1150915074, "lat": 8.18333, "lon": 40.2, "tags": {"is_in:country": "Ethiopia", "is_in:country_code": "ET", "name": "Milki", "place": "locality", "source": "GeoDatabase"}}, {"type": "node", "id": 1150916635, "lat": 8.38333, "lon": 39.93333, "tags": {"is_in:country": "Ethiopia", "is_in:country_code": "ET", "name": "Debre Sahil", "place": "locality", "source": "GeoDatabase"}}, {"type": "node", "id": 1150920175, "lat": 8.11667, "lon": 40.06666, "tags": {"is_in:country": "Ethiopia", "is_in:country_code": "ET", "name": "Weregu Medhane `Alem Bete Kristiyan", "place": "locality", "source": "GeoDatabase"}}, {"type": "node", "id": 1150921506, "lat": 8.03333, "lon": 39.98333, "tags": {"is_in:country": "Ethiopia", "is_in:country_code": "ET", "name": "Hokecho", "place": "locality", "source": "GeoDatabase"}}, {"type": "node", "id": 1150924457, "lat": 8.1, "lon": 40.26667, "tags": {"is_in:country": "Ethiopia", "is_in:country_code": "ET", "name": "Jalo Elemo", "place": "locality", "source": "GeoDatabase"}}, {"type": "node", "id": 1150931278, "lat": 8.31667, "lon": 39.95, "tags": {"is_in:country": "Ethiopia", "is_in:country_code": "ET", "name": "Welargi Silase Bete Kristiyan", "place": "locality", "source": "GeoDatabase"}}, {"type": "node", "id": 1150936054, "lat": 8.23333, "lon": 40.25, "tags": {"is_in:country": "Ethiopia", "is_in:country_code": "ET", "name": "Sinchile", "place": "locality", "source": "GeoDatabase"}}, {"type": "node", "id": 1150936313, "lat": 8.01667, "lon": 40.01667, "tags": {"is_in:country": "Ethiopia", "is_in:country_code": "ET", "name": "Buna Shet'", "place": "locality", "source": "GeoDatabase"}}, {"type": "node", "id": 1150937464, "lat": 8.41667, "lon": 40.01667, "tags": {"is_in:country": "Ethiopia", "is_in:country_code": "ET", "name": "Giyorgis Bete Kristiyan", "place": "locality", "source": "GeoDatabase"}}, {"type": "node", "id": 1150942235, "lat": 8.08333, "lon": 39.93333, "tags": {"is_in:country": "Ethiopia", "is_in:country_code": "ET", "name": "Lagabura", "place": "locality", "source": "GeoDatabase"}}, {"type": "node", "id": 1150943827, "lat": 8.25, "lon": 40.16667, "tags": {"is_in:country": "Ethiopia", "is_in:country_code": "ET", "name": "T'Lul Shet'", "place": "locality", "source": "GeoDatabase"}}, {"type": "node", "id": 1150945675, "lat": 8.01667, "lon": 40.05, "tags": {"is_in:country": "Ethiopia", "is_in:country_code": "ET", "name": "Molet' Shet'", "place": "locality", "source": "GeoDatabase"}}, {"type": "node", "id": 1150957539, "lat": 8.08333, "lon": 40.3, "tags": {"is_in:country": "Ethiopia", "is_in:country_code": "ET", "name": "Awarsa Shet'", "place": "locality", "source": "GeoDatabase"}}, {"type": "node", "id": 1150957986, "lat": 8.13333, "lon": 40.21667, "tags": {"is_in:country": "Ethiopia", "is_in:country_code": "ET", "name": "Gura Terara", "place": "locality", "source": "GeoDatabase"}}, {"type": "node", "id": 1150958667, "lat": 8.4, "lon": 40.3, "tags": {"is_in:country": "Ethiopia", "is_in:country_code": "ET", "name": "Derba Shet'", "place": "locality", "source": "GeoDatabase"}}, {"type": "node", "id": 1150959227, "lat": 8.13333, "lon": 40.01667, "tags": {"is_in:country": "Ethiopia", "is_in:country_code": "ET", "name": "Ghoja", "place": "locality", "source": "GeoDatabase"}}, {"type": "node", "id": 1150962774, "lat": 8.03333, "lon": 40.3, "tags": {"is_in:country": "Ethiopia", "is_in:country_code": "ET", "name": "Goni", "place": "locality", "source": "GeoDatabase"}}, {"type": "node", "id": 1150968753, "lat": 8.21667, "lon": 40.3, "tags": {"is_in:country": "Ethiopia", "is_in:country_code": "ET", "name": "Gololcha Shet'", "place": "locality", "source": "GeoDatabase"}}, {"type": "node", "id": 1150974235, "lat": 8.36667, "lon": 40.11667, "tags": {"is_in:country": "Ethiopia", "is_in:country_code": "ET", "name": "Daro", "place": "locality", "source": "GeoDatabase"}}, {"type": "node", "id": 1150976523, "lat": 8.43333, "lon": 40.05, "tags": {"is_in:country": "Ethiopia", "is_in:country_code": "ET", "name": "Dunuga", "place": "locality", "source": "GeoDatabase"}}, {"type": "node", "id": 1150980245, "lat": 8.1, "lon": 40.1, "tags": {"is_in:country": "Ethiopia", "is_in:country_code": "ET", "name": "Gara Scek Adare", "place": "locality", "source": "GeoDatabase"}}, {"type": "node", "id": 1150981415, "lat": 8.3167401, "lon": 40.0370808, "tags": {"is_in:country": "Ethiopia", "is_in:country_code": "ET", "name": "Minni", "place": "village", "source": "GeoDatabase"}}, {"type": "node", "id": 1150981614, "lat": 8.35, "lon": 40.21667, "tags": {"is_in:country": "Ethiopia", "is_in:country_code": "ET", "name": "Gure", "place": "locality", "source": "GeoDatabase"}}, {"type": "node", "id": 1151002126, "lat": 8.25, "lon": 39.91667, "tags": {"is_in:country": "Ethiopia", "is_in:country_code": "ET", "name": "Monti Gugu", "place": "locality", "source": "GeoDatabase"}}, {"type": "node", "id": 1151004002, "lat": 8.1, "lon": 39.93333, "tags": {"is_in:country": "Ethiopia", "is_in:country_code": "ET", "name": "K'Ut'A", "place": "locality", "source": "GeoDatabase"}}, {"type": "node", "id": 1151004564, "lat": 8.31667, "lon": 39.96667, "tags": {"is_in:country": "Ethiopia", "is_in:country_code": "ET", "name": "Welargi Terara", "place": "locality", "source": "GeoDatabase"}}, {"type": "node", "id": 2081709948, "lat": 8.2263924, "lon": 40.0519146, "tags": {"place": "village"}}, {"type": "node", "id": 2081715204, "lat": 8.1281814, "lon": 40.131404, "tags": {"place": "village"}}, {"type": "node", "id": 2081715467, "lat": 8.0808239, "lon": 40.1012621, "tags": {"place": "village"}}, {"type": "node", "id": 2330972005, "lat": 8.1226914, "lon": 39.9884659, "tags": {"place": "village"}}, {"type": "node", "id": 4231056230, "lat": 8.2510782, "lon": 40.1241633}, {"type": "node", "id": 4231056231, "lat": 8.2498164, "lon": 40.1226066}, {"type": "node", "id": 4231056232, "lat": 8.2479969, "lon": 40.1214946}, {"type": "node", "id": 4231056233, "lat": 8.2476154, "lon": 40.1208719}, {"type": "node", "id": 4231056234, "lat": 8.2478649, "lon": 40.1195079}, {"type": "node", "id": 4231056235, "lat": 8.2462362, "lon": 40.1195079}, {"type": "node", "id": 4231056236, "lat": 8.2466764, "lon": 40.1207829}, {"type": "node", "id": 4231056237, "lat": 8.2473073, "lon": 40.1219394}, {"type": "node", "id": 4231056238, "lat": 8.2483197, "lon": 40.1236148}, {"type": "node", "id": 4231056239, "lat": 8.2488333, "lon": 40.1256311}, {"type": "node", "id": 4231056240, "lat": 8.250462, "lon": 40.1254977}, {"type": "way", "id": 423507297, "nodes": [4231056230, 4231056231, 4231056232, 4231056233, 4231056234, 4231056235, 4231056236, 4231056237, 4231056238, 4231056239, 4231056240, 4231056230], "tags": {"place": "neighbourhood"}}]}