{"version": 0.6, "generator": "Overpass API 0.7.62.1 084b4234", "osm3s": {"timestamp_osm_base": "2024-09-30T19:03:00Z", "copyright": "The data included in this document is from www.openstreetmap.org. The data is made available under ODbL."}, "elements": [{"type": "node", "id": 44931302, "lat": 2.8429711, "lon": 35.0421277, "tags": {"is_in": "Turkana,Kenya", "name": "Kosipirr", "place": "village"}}, {"type": "node", "id": 2111272426, "lat": 2.5668147, "lon": 34.9886793}, {"type": "node", "id": 2111272430, "lat": 2.5693384, "lon": 34.9938931}, {"type": "node", "id": 2111272431, "lat": 2.569593, "lon": 34.9885248}, {"type": "node", "id": 2111272441, "lat": 2.5734624, "lon": 34.988287}, {"type": "node", "id": 2111272442, "lat": 2.5749558, "lon": 34.9943178}, {"type": "node", "id": 2111272444, "lat": 2.5761497, "lon": 34.9889293}, {"type": "node", "id": 2111272445, "lat": 2.5777816, "lon": 34.9929973}, {"type": "node", "id": 9816712626, "lat": 2.5717734, "lon": 34.8443638, "tags": {"name": "Lopong", "place": "village", "source": "ubos_2014"}}, {"type": "node", "id": 9816712629, "lat": 2.588302, "lon": 34.7968032, "tags": {"name": "Murukekosowan", "place": "village", "source": "ubos_2014"}}, {"type": "node", "id": 9816712630, "lat": 2.6108967, "lon": 34.7838953, "tags": {"name": "Kaitirwa", "place": "village", "source": "ubos_2014"}}, {"type": "node", "id": 9816712632, "lat": 2.6181488, "lon": 34.8228758, "tags": {"name": "Forest Reserve", "place": "village", "source": "ubos_2014"}}, {"type": "node", "id": 10865395194, "lat": 2.8375587, "lon": 35.0344854, "tags": {"name": "Namoruputh", "place": "village"}}, {"type": "node", "id": 10871441342, "lat": 2.5705047, "lon": 34.9888625, "tags": {"name": "Lorengippi", "place": "village"}}, {"type": "node", "id": 10871441343, "lat": 2.5674302, "lon": 34.9917915}, {"type": "node", "id": 10871441344, "lat": 2.5765226, "lon": 34.995044}, {"type": "way", "id": 201176475, "nodes": [2111272444, 2111272445, 10871441344, 2111272442, 2111272430, 10871441343, 2111272426, 2111272431, 2111272441, 2111272444], "tags": {"name": "Lorengippi", "place": "village"}}]}