{"version": 0.6, "generator": "Overpass API 0.7.62.1 084b4234", "osm3s": {"timestamp_osm_base": "2024-09-30T19:57:44Z", "copyright": "The data included in this document is from www.openstreetmap.org. The data is made available under ODbL."}, "elements": [{"type": "node", "id": 1404221456, "lat": 10.9897357, "lon": 50.0815001, "tags": {"name": "Markadaan", "pcode": "NC-3906-A13-002", "place": "village", "source": "UNDP - 2006"}}, {"type": "node", "id": 1404221474, "lat": 11.0807, "lon": 49.90764, "tags": {"alt_name": "Kayaho", "name": "Kayaxa", "pcode": "NC-3902-Y09-001", "place": "village", "source": "UNDP - 2006, UNDP - 1997"}}, {"type": "node", "id": 1404221699, "lat": 11.17431, "lon": 49.82712, "tags": {"name": "Dhasaan", "pcode": "NC-3902-V08-004", "place": "village", "source": "UNDP - 2006"}}, {"type": "node", "id": 1404222055, "lat": 11.1509, "lon": 50.072701, "tags": {"fixme": "Please, check location!", "name": "Daradhur", "pcode": "NC-3902-W13-001", "place": "village", "source": "UNDP - 1997"}}, {"type": "node", "id": 1404222224, "lat": 10.99396, "lon": 50.01849, "tags": {"alt_name": "Qural", "name": "Qurac", "pcode": "NC-3906-A12-003", "place": "village", "source": "UNDP - 2006, UNDP - 1997"}}, {"type": "node", "id": 1404222560, "lat": 11.1252658, "lon": 49.872005, "tags": {"name": "Marsheed", "pcode": "NC-3902-W09-003", "place": "village", "source": "UNDP - 2006"}}, {"type": "node", "id": 1404222900, "lat": 11.122121, "lon": 49.8687901, "tags": {"name": "Garaar", "pcode": "NC-3902-X09-003", "place": "village", "source": "UNDP - 2006, UNDP - 1997"}}, {"type": "node", "id": 1404223331, "lat": 11.11611, "lon": 49.87251, "tags": {"name": "Afcad", "pcode": "NC-3902-X09-001", "place": "village", "source": "UNDP - 2006, UNDP - 1997"}}, {"type": "node", "id": 1404223596, "lat": 11.16959, "lon": 49.83075, "tags": {"name": "Xankookib", "pcode": "NC-3902-V08-005", "place": "village", "source": "UNDP - 2006"}}, {"type": "node", "id": 1404224649, "lat": 11.0295427, "lon": 49.9414706, "tags": {"alt_name": "Gaatir Oodan", "name": "Gaatir-Oodan", "pcode": "NC-3902-Z10-001", "place": "village", "source": "UNDP - 2006, UNDP - 1997"}}, {"type": "node", "id": 1404225093, "lat": 10.98044, "lon": 50.09139, "tags": {"name": "Haraaryo", "pcode": "NC-3906-A14-001", "place": "village", "source": "UNDP - 2006, UNDP - 1997"}}, {"type": "node", "id": 1404225158, "lat": 11.0829701, "lon": 49.9082637, "tags": {"alt_name": "Sheebaab", "name": "Shebaab", "pcode": "NC-3902-X09-002", "place": "village", "source": "UNDP - 2006, UNDP - 1997"}}, {"type": "node", "id": 1404225985, "lat": 10.97526, "lon": 50.14004, "tags": {"name": "Maygaag", "pcode": "NC-3906-A15-001", "place": "village", "source": "UNDP - 2006"}}, {"type": "node", "id": 1404226344, "lat": 10.9953611, "lon": 50.0027146, "tags": {"name": "Dandamale", "pcode": "NC-3906-A12-001", "place": "village", "source": "UNDP - 2006, UNDP - 1997"}}, {"type": "node", "id": 1404226812, "lat": 10.97443, "lon": 50.1008423, "tags": {"name": "Haraaryo Kow", "pcode": "NC-3906-A14-002", "place": "village", "source": "UNDP - 2006"}}, {"type": "node", "id": 1404229316, "lat": 11.00195, "lon": 49.96606, "tags": {"alt_name": "Daray Madoobe", "name": "Daray-Madobe", "pcode": "NC-3902-Z11-001", "place": "village", "source": "UNDP - 2006, UNDP - 1997"}}, {"type": "node", "id": 1404229974, "lat": 10.9921776, "lon": 50.0566798, "tags": {"name": "Talal", "pcode": "NC-3906-A13-001", "place": "village", "source": "UNDP - 2006"}}, {"type": "node", "id": 1404230632, "lat": 10.9868125, "lon": 50.0396209, "tags": {"name": "Dhasaq", "pcode": "NC-3906-A12-002", "place": "village", "source": "UNDP - 2006"}}, {"type": "node", "id": 1404230690, "lat": 11.12806, "lon": 49.875561, "tags": {"alt_name": "Dadar", "fixme": "Please, check location!", "name": "Dhaadaar", "pcode": "NC-3902-W09-001", "place": "village", "source": "UNDP - 1997"}}, {"type": "node", "id": 1404231337, "lat": 11.16484, "lon": 49.81994, "tags": {"name": "Boholle", "pcode": "NC-3902-W08-001", "place": "village", "source": "UNDP - 2006"}}, {"type": "node", "id": 1404231861, "lat": 10.9751451, "lon": 50.1241464, "tags": {"name": "Dharin", "pcode": "NC-3906-A14-003", "place": "village", "source": "UNDP - 2006"}}, {"type": "node", "id": 1404232232, "lat": 11.1746593, "lon": 49.8220035, "tags": {"name": "Biitaalei", "pcode": "NC-3902-V08-001", "place": "village", "source": "UNDP - 1997"}}, {"type": "node", "id": 1404233228, "lat": 11.1254, "lon": 49.88007, "tags": {"alt_name": "Qallocan", "name": "Qaloocan", "pcode": "NC-3902-W09-002", "place": "village", "source": "UNDP - 2006, UNDP - 1997"}}, {"type": "node", "id": 1404233388, "lat": 11.0771, "lon": 50.152, "tags": {"fixme": "Please, check location!", "name": "Berda Uen", "pcode": "NC-3902-Y15-001", "place": "village", "source": "UNDP - 1997"}}, {"type": "node", "id": 1404233983, "lat": 11.1679851, "lon": 49.8254194, "tags": {"name": "Dasaan 2", "pcode": "NC-3902-V08-002", "place": "village", "source": "UNDP - 1997"}}]}