{"version": 0.6, "generator": "Overpass API 0.7.62.1 084b4234", "osm3s": {"timestamp_osm_base": "2024-09-30T23:23:26Z", "copyright": "The data included in this document is from www.openstreetmap.org. The data is made available under ODbL."}, "elements": [{"type": "node", "id": 1150881111, "lat": 8.35778, "lon": 44.77528, "tags": {"is_in:country_code": "ET", "is_in:county": "Ethiopia", "name": "Khagardedzhedle", "place": "locality", "source": "GeoDatabase"}}, {"type": "node", "id": 1150883596, "lat": 8.32222, "lon": 44.59806, "tags": {"is_in:country_code": "ET", "is_in:county": "Ethiopia", "name": "Gos", "place": "locality", "source": "GeoDatabase"}}, {"type": "node", "id": 1150886950, "lat": 8.06611, "lon": 44.53028, "tags": {"is_in:country_code": "ET", "is_in:county": "Ethiopia", "name": "Gardor", "place": "locality", "source": "GeoDatabase"}}, {"type": "node", "id": 1150898321, "lat": 8.4075, "lon": 44.53305, "tags": {"is_in:country_code": "ET", "is_in:county": "Ethiopia", "name": "Kus B'Yamado", "place": "locality", "source": "GeoDatabase"}}, {"type": "node", "id": 1150911356, "lat": 8.36972, "lon": 44.60778, "tags": {"is_in:country_code": "ET", "is_in:county": "Ethiopia", "name": "Gala Gud", "place": "locality", "source": "GeoDatabase"}}, {"type": "node", "id": 1150912038, "lat": 8.40972, "lon": 44.53611, "tags": {"is_in:country_code": "ET", "is_in:county": "Ethiopia", "name": "Kus Biyaad", "place": "locality", "source": "GeoDatabase"}}, {"type": "node", "id": 1150949416, "lat": 8.2244676, "lon": 44.6950623, "tags": {"alt_name": "Deror", "name": "Daror", "place": "town", "source": "GeoDatabase", "wikidata": "Q1166547"}}, {"type": "node", "id": 10559673558, "lat": 8.1176161, "lon": 44.8259445, "tags": {"name": "Idamada Dooxo Gorayo", "place": "hamlet"}}, {"type": "node", "id": 10562177013, "lat": 8.4009845, "lon": 44.9195999, "tags": {"name": "Raqda", "place": "hamlet"}}]}