{"version": 0.6, "generator": "Overpass API 0.7.62.1 084b4234", "osm3s": {"timestamp_osm_base": "2024-09-30T23:34:41Z", "copyright": "The data included in this document is from www.openstreetmap.org. The data is made available under ODbL."}, "elements": [{"type": "node", "id": 1150883000, "lat": 8.61111, "lon": 44.21833, "tags": {"is_in:country_code": "ET", "is_in:county": "Ethiopia", "name": "Afmerka", "place": "locality", "source": "GeoDatabase"}}, {"type": "node", "id": 1150899475, "lat": 8.57361, "lon": 43.95111, "tags": {"is_in:country_code": "ET", "is_in:county": "Ethiopia", "name": "Dabelweyne", "place": "locality", "source": "GeoDatabase"}}, {"type": "node", "id": 1150902274, "lat": 8.57861, "lon": 44.24278, "tags": {"is_in:country_code": "ET", "is_in:county": "Ethiopia", "name": "Burada Moyale", "place": "locality", "source": "GeoDatabase"}}, {"type": "node", "id": 1150903642, "lat": 8.31139, "lon": 44.14139, "tags": {"is_in:country_code": "ET", "is_in:county": "Ethiopia", "name": "Dohada Malamo", "place": "locality", "source": "GeoDatabase"}}, {"type": "node", "id": 1150907992, "lat": 8.47611, "lon": 43.94694, "tags": {"is_in:country_code": "ET", "is_in:county": "Ethiopia", "name": "Dabo Durua", "place": "locality", "source": "GeoDatabase"}}, {"type": "node", "id": 1150924186, "lat": 8.29361, "lon": 44.27528, "tags": {"is_in:country_code": "ET", "is_in:county": "Ethiopia", "name": "Sugumaha", "place": "locality", "source": "GeoDatabase"}}, {"type": "node", "id": 1150935785, "lat": 8.44389, "lon": 44.12722, "tags": {"is_in:country_code": "ET", "is_in:county": "Ethiopia", "name": "Garadugh", "place": "locality", "source": "GeoDatabase"}}, {"type": "node", "id": 1150940182, "lat": 8.68639, "lon": 44.19667, "tags": {"is_in:country_code": "ET", "is_in:county": "Ethiopia", "name": "Khansakha-Au-Yakhie", "place": "locality", "source": "GeoDatabase"}}, {"type": "node", "id": 1150944353, "lat": 8.35083, "lon": 44.16083, "tags": {"is_in:country_code": "ET", "is_in:county": "Ethiopia", "name": "Dudadad", "place": "locality", "source": "GeoDatabase"}}, {"type": "node", "id": 1150953539, "lat": 8.51333, "lon": 44.23639, "tags": {"is_in:country_code": "ET", "is_in:county": "Ethiopia", "name": "Darkekdalak", "place": "locality", "source": "GeoDatabase"}}, {"type": "node", "id": 1150968474, "lat": 8.35167, "lon": 44.33472, "tags": {"is_in:country_code": "ET", "is_in:county": "Ethiopia", "name": "Targudud", "place": "locality", "source": "GeoDatabase"}}, {"type": "node", "id": 1150979544, "lat": 8.61222, "lon": 44.155, "tags": {"is_in:country_code": "ET", "is_in:county": "Ethiopia", "name": "Buro \u0628\u0631\u0639\u0648", "name:ar": "\u0628\u0631\u0639\u0648", "place": "locality", "source": "GeoDatabase"}}, {"type": "node", "id": 11876838211, "lat": 8.6845269, "lon": 44.0757377}, {"type": "node", "id": 11876838212, "lat": 8.6845081, "lon": 44.0757354}, {"type": "node", "id": 11876838213, "lat": 8.6845061, "lon": 44.0757558}, {"type": "node", "id": 11876838214, "lat": 8.6845245, "lon": 44.0757589}, {"type": "node", "id": 11876875256, "lat": 8.6526356, "lon": 44.089441}, {"type": "node", "id": 11876875257, "lat": 8.6524871, "lon": 44.0896829}, {"type": "node", "id": 11876875258, "lat": 8.6524114, "lon": 44.0896669}, {"type": "node", "id": 11876875259, "lat": 8.6524656, "lon": 44.0894792}, {"type": "node", "id": 11876875260, "lat": 8.6526021, "lon": 44.0894124}, {"type": "node", "id": 11876875261, "lat": 8.6310695, "lon": 44.0738161}, {"type": "node", "id": 11876875262, "lat": 8.630969, "lon": 44.0739432}, {"type": "node", "id": 11876875263, "lat": 8.6307544, "lon": 44.0737843}, {"type": "node", "id": 11876875264, "lat": 8.6307985, "lon": 44.0737435}, {"type": "way", "id": 1279386565, "nodes": [11876838211, 11876838212, 11876838213, 11876838214, 11876838211], "tags": {"place": "isolated_dwelling"}}, {"type": "way", "id": 1279386888, "nodes": [11876875256, 11876875257, 11876875258, 11876875259, 11876875260, 11876875256], "tags": {"place": "isolated_dwelling", "temporary": "yes"}}, {"type": "way", "id": 1279386889, "nodes": [11876875261, 11876875262, 11876875263, 11876875264, 11876875261], "tags": {"place": "isolated_dwelling", "temporary": "yes"}}]}