{"version": 0.6, "generator": "Overpass API 0.7.62.1 084b4234", "osm3s": {"timestamp_osm_base": "2024-09-30T17:29:51Z", "copyright": "The data included in this document is from www.openstreetmap.org. The data is made available under ODbL."}, "elements": [{"type": "node", "id": 44910867, "lat": -1.7, "lon": 37.45, "tags": {"name": "Utangwa", "place": "village"}}, {"type": "node", "id": 44910972, "lat": -1.8533886, "lon": 37.3511793, "tags": {"name": "Upete", "place": "village"}}, {"type": "node", "id": 44913804, "lat": -1.8666, "lon": 37.4, "tags": {"name": "Wautu", "place": "village"}}, {"type": "node", "id": 44914877, "lat": -1.55, "lon": 37.4666, "tags": {"name": "Tawa", "place": "village"}}, {"type": "node", "id": 44915203, "lat": -1.5666, "lon": 37.4833, "tags": {"name": "Songeni", "place": "village"}}, {"type": "node", "id": 44924164, "lat": -1.8178943, "lon": 37.5364803, "tags": {"name": "Nziu", "place": "village"}}, {"type": "node", "id": 44924167, "lat": -1.7666, "lon": 37.45, "tags": {"name": "Nzuuni", "place": "village"}}, {"type": "node", "id": 44924228, "lat": -1.7666, "lon": 37.5, "tags": {"name": "Ukia", "place": "village"}}, {"type": "node", "id": 44924550, "lat": -1.8, "lon": 37.3666, "tags": {"name": "Nunguni", "place": "village", "wikidata": "Q7069836"}}, {"type": "node", "id": 44926341, "lat": -1.85, "lon": 37.3166, "tags": {"name": "Mukaa", "place": "village", "wikidata": "Q6933371"}}, {"type": "node", "id": 44929018, "lat": -1.6166858, "lon": 37.4654177, "tags": {"name": "Mbooni Mission", "place": "village"}}, {"type": "node", "id": 44929132, "lat": -1.6166, "lon": 37.4666, "tags": {"name": "Mbooni", "place": "village", "wikidata": "Q6799755"}}, {"type": "node", "id": 44929136, "lat": -1.6666, "lon": 37.45, "tags": {"name": "Mbooni", "place": "village", "wikidata": "Q6799755"}}, {"type": "node", "id": 44929633, "lat": -1.7833, "lon": 37.2833, "tags": {"name": "Mapepie", "place": "village", "wikidata": "Q6753795"}}, {"type": "node", "id": 44929854, "lat": -1.6166, "lon": 37.4166, "tags": {"name": "Mavindu", "place": "village", "wikidata": "Q6794229"}}, {"type": "node", "id": 44930353, "lat": -1.5212477, "lon": 37.2660878, "tags": {"addr:city": "Machakos", "addr:street": "Chumvi-Machakos-Kitui Road", "name": "Machakos", "name:ko": "\ub9c8\ucc28\ucf54\uc2a4", "place": "town", "population": "114109", "source:population": "French Wikipedia", "wikidata": "Q693093", "wikipedia": "en:Machakos"}}, {"type": "node", "id": 44930759, "lat": -1.5666, "lon": 37.3166, "tags": {"alt_name": "Makabeti", "name": "Makabete", "place": "village", "wikidata": "Q6738584"}}, {"type": "node", "id": 44931450, "lat": -1.8166, "lon": 37.3166, "tags": {"name": "Kyangala", "place": "village"}}, {"type": "node", "id": 44931521, "lat": -1.8333, "lon": 37.35, "tags": {"name": "Kyandui", "place": "village"}}, {"type": "node", "id": 44931529, "lat": -1.6333, "lon": 37.3333, "tags": {"name": "Kyangala", "place": "village"}}, {"type": "node", "id": 44931538, "lat": -1.65, "lon": 37.3, "tags": {"name": "Kyamuyu", "place": "village"}}, {"type": "node", "id": 44931643, "lat": -1.9, "lon": 37.4166, "tags": {"name": "Kyathani", "place": "village"}}, {"type": "node", "id": 44933082, "lat": -1.6666, "lon": 37.5, "tags": {"name": "Kithungo", "place": "village"}}, {"type": "node", "id": 44933088, "lat": -1.8833, "lon": 37.35, "tags": {"name": "Kitheine", "place": "village"}}, {"type": "node", "id": 44933099, "lat": -1.6666, "lon": 37.5, "tags": {"name": "Kithungu", "place": "village"}}, {"type": "node", "id": 44933104, "lat": -1.4999764, "lon": 37.5174943, "tags": {"name": "Kiteta", "place": "village"}}, {"type": "node", "id": 44933150, "lat": -1.8166, "lon": 37.3666, "tags": {"name": "Kithangathini", "place": "village"}}, {"type": "node", "id": 44933155, "lat": -1.5333, "lon": 37.5, "tags": {"name": "Kiteta", "place": "village"}}, {"type": "node", "id": 44933161, "lat": -1.85, "lon": 37.3666, "tags": {"name": "Kitaingo", "place": "village", "wikidata": "Q6417742"}}, {"type": "node", "id": 44933169, "lat": -1.75, "lon": 37.35, "tags": {"name": "Kitandi", "place": "village"}}, {"type": "node", "id": 44933172, "lat": -1.5166, "lon": 37.4333, "tags": {"name": "Kivumbu", "place": "village"}}, {"type": "node", "id": 44933187, "lat": -1.7003571, "lon": 37.3499753, "tags": {"name": "Kola", "place": "village"}}, {"type": "node", "id": 44933196, "lat": -1.7166, "lon": 37.3666, "tags": {"addr:city": "Kivani", "addr:street": "Machakos-Wote Road", "name": "Kivani", "place": "village"}}, {"type": "node", "id": 44990580, "lat": -1.6617002, "lon": 37.4474088, "tags": {"name": "Kikima", "place": "village"}}, {"type": "node", "id": 44990662, "lat": -1.8, "lon": 37.3833, "tags": {"name": "Kikoko", "place": "village"}}, {"type": "node", "id": 44992125, "lat": -1.8, "lon": 37.3333, "tags": {"name": "Kilome", "place": "village"}}, {"type": "node", "id": 44992658, "lat": -1.7666, "lon": 37.55, "tags": {"addr:city": "Kilala", "addr:street": "Machakos-Wote Road", "name": "Kilala", "place": "town"}}, {"type": "node", "id": 44995785, "lat": -1.55, "lon": 37.3666, "tags": {"name": "Kiatineni", "place": "village"}}, {"type": "node", "id": 44997141, "lat": -1.5166, "lon": 37.2, "tags": {"name": "Katelembu", "place": "village", "wikidata": "Q6375917"}}, {"type": "node", "id": 44997232, "lat": -1.7833, "lon": 37.3833, "tags": {"name": "Katulye", "place": "village", "wikidata": "Q15045695"}}, {"type": "node", "id": 44998697, "lat": -1.5149253, "lon": 37.3531021, "tags": {"name": "Kaani", "place": "village"}}, {"type": "node", "id": 44998816, "lat": -1.7333, "lon": 37.5166, "tags": {"name": "Iuani", "place": "village", "wikidata": "Q15045681"}}, {"type": "node", "id": 44998961, "lat": -1.7833, "lon": 37.4, "tags": {"name": "Inyokoni", "place": "village", "wikidata": "Q15045676"}}, {"type": "node", "id": 44999005, "lat": -1.5833, "lon": 37.3833, "tags": {"name": "Itetani", "place": "village", "wikidata": "Q6094436"}}, {"type": "node", "id": 44999013, "lat": -1.55, "lon": 37.2666, "tags": {"name": "Iluvya", "place": "village", "wikidata": "Q15045678"}}, {"type": "node", "id": 44999024, "lat": -1.65, "lon": 37.45, "tags": {"name": "Ithemboni", "place": "village"}}, {"type": "node", "id": 44999130, "lat": -1.7833, "lon": 37.35, "tags": {"name": "Ithemboni", "place": "village", "wikidata": "Q15045679"}}, {"type": "node", "id": 44999187, "lat": -1.6833, "lon": 37.3333, "tags": {"name": "Iiuni", "place": "village", "wikidata": "Q5995032"}}, {"type": "node", "id": 44999324, "lat": -1.6333, "lon": 37.3833, "tags": {"name": "Kali", "place": "village"}}, {"type": "node", "id": 44999365, "lat": -1.8666, "lon": 37.5166, "tags": {"name": "Kalamba", "place": "village"}}, {"type": "node", "id": 44999593, "lat": -1.6, "lon": 37.3666, "tags": {"name": "Kakalia", "place": "village", "wikidata": "Q15045685"}}, {"type": "node", "id": 45001459, "lat": -1.6833, "lon": 37.3166, "tags": {"name": "Lanzoni", "place": "village", "wikidata": "Q5983395"}}, {"type": "node", "id": 45004453, "lat": -1.8333, "lon": 37.3166, "tags": {"name": "Enzai", "place": "village"}}, {"type": "node", "id": 297488383, "lat": -1.8512207, "lon": 37.2638132, "tags": {"name": "Salama", "place": "village"}}, {"type": "node", "id": 582803984, "lat": -1.5222479, "lon": 37.3349834, "tags": {"name": "Kaseve", "place": "locality"}}, {"type": "node", "id": 2141391531, "lat": -1.8495587, "lon": 37.5320542, "tags": {"place": "village"}}, {"type": "node", "id": 2141391562, "lat": -1.8788271, "lon": 37.5233657, "tags": {"place": "village"}}, {"type": "node", "id": 2411747391, "lat": -1.7923187, "lon": 37.3638421, "tags": {"place": "village"}}, {"type": "node", "id": 2411749420, "lat": -1.8069563, "lon": 37.3904818, "tags": {"place": "village"}}, {"type": "node", "id": 3784476337, "lat": -1.4817647, "lon": 37.3404782}, {"type": "node", "id": 3784476459, "lat": -1.480089, "lon": 37.3343787}, {"type": "node", "id": 3784476460, "lat": -1.4803364, "lon": 37.3326612}, {"type": "node", "id": 3784476461, "lat": -1.4806565, "lon": 37.3317297}, {"type": "node", "id": 3784476462, "lat": -1.4813985, "lon": 37.3315114}, {"type": "node", "id": 3784476463, "lat": -1.4819951, "lon": 37.3318607}, {"type": "node", "id": 3784476464, "lat": -1.4826353, "lon": 37.3324284}, {"type": "node", "id": 3784476465, "lat": -1.4831736, "lon": 37.3329087}, {"type": "node", "id": 3784476466, "lat": -1.4843522, "lon": 37.333258}, {"type": "node", "id": 3784476467, "lat": -1.4852397, "lon": 37.3342477}, {"type": "node", "id": 3784476468, "lat": -1.4855307, "lon": 37.3350919}, {"type": "node", "id": 3784476469, "lat": -1.4856471, "lon": 37.3359652}, {"type": "node", "id": 3784476470, "lat": -1.4852106, "lon": 37.3366492}, {"type": "node", "id": 3784476471, "lat": -1.4847887, "lon": 37.3367657}, {"type": "node", "id": 3784476472, "lat": -1.4842067, "lon": 37.3366638}, {"type": "node", "id": 3784476473, "lat": -1.4839011, "lon": 37.3363145}, {"type": "node", "id": 3784476474, "lat": -1.4835374, "lon": 37.3359361}, {"type": "node", "id": 3784476475, "lat": -1.4833773, "lon": 37.3365037}, {"type": "node", "id": 3784476476, "lat": -1.4832609, "lon": 37.337115}, {"type": "node", "id": 3784476477, "lat": -1.4831882, "lon": 37.3377117}, {"type": "node", "id": 3784476478, "lat": -1.4835228, "lon": 37.3381338}, {"type": "node", "id": 3784476479, "lat": -1.4837702, "lon": 37.3389489}, {"type": "node", "id": 3784476480, "lat": -1.4847437, "lon": 37.3386436}, {"type": "node", "id": 3784476481, "lat": -1.485458, "lon": 37.3388179}, {"type": "node", "id": 3784476482, "lat": -1.4852688, "lon": 37.3394292}, {"type": "node", "id": 3784476483, "lat": -1.4845691, "lon": 37.3399681}, {"type": "node", "id": 3784476484, "lat": -1.4838998, "lon": 37.3407031}, {"type": "node", "id": 3784476485, "lat": -1.4832378, "lon": 37.3409942}, {"type": "node", "id": 3784476486, "lat": -1.4826558, "lon": 37.341147}, {"type": "node", "id": 3784476487, "lat": -1.4823066, "lon": 37.3412344}, {"type": "node", "id": 3784476488, "lat": -1.4819938, "lon": 37.3411761}, {"type": "node", "id": 3784476489, "lat": -1.4817186, "lon": 37.3393855}, {"type": "node", "id": 3784476490, "lat": -1.4815731, "lon": 37.339109}, {"type": "node", "id": 3784476491, "lat": -1.4802782, "lon": 37.3382648}, {"type": "node", "id": 3784476492, "lat": -1.479216, "lon": 37.3374643}, {"type": "node", "id": 3784476493, "lat": -1.479216, "lon": 37.3370277}, {"type": "node", "id": 3784476494, "lat": -1.4801036, "lon": 37.336198}, {"type": "node", "id": 3784476495, "lat": -1.4810202, "lon": 37.3354412}, {"type": "node", "id": 3784476496, "lat": -1.4814713, "lon": 37.3351792}, {"type": "node", "id": 3784476497, "lat": -1.481675, "lon": 37.3347717}, {"type": "node", "id": 4788607148, "lat": -1.5222786, "lon": 37.4253417, "tags": {"name": "Kavumbu Trading Centre", "place": "village"}}, {"type": "node", "id": 6346892927, "lat": -1.5086867, "lon": 37.2527871}, {"type": "node", "id": 6346892928, "lat": -1.5214894, "lon": 37.2488167}, {"type": "node", "id": 6346892929, "lat": -1.5406425, "lon": 37.2516062}, {"type": "node", "id": 6346892930, "lat": -1.5456292, "lon": 37.2663273}, {"type": "node", "id": 6346892931, "lat": -1.526008, "lon": 37.2820462}, {"type": "node", "id": 6346892932, "lat": -1.5137345, "lon": 37.2770577}, {"type": "node", "id": 6346892933, "lat": -1.5028654, "lon": 37.2725171}, {"type": "node", "id": 6346892934, "lat": -1.4963114, "lon": 37.2722728}, {"type": "node", "id": 6346892935, "lat": -1.4936449, "lon": 37.2539884}, {"type": "node", "id": 6593067623, "lat": -1.5215416, "lon": 37.2488243}, {"type": "node", "id": 8988392827, "lat": -1.5951625, "lon": 37.5048311, "tags": {"name": "Utuneni", "place": "locality"}}, {"type": "node", "id": 9996872965, "lat": -1.516364, "lon": 37.2781265}, {"type": "node", "id": 10311822983, "lat": -1.512394, "lon": 37.2764977}, {"type": "node", "id": 11639218911, "lat": -1.6877022, "lon": 37.184633, "tags": {"alt_name": "Konza Technology City", "name": "Konza Technopolis", "place": "town"}}, {"type": "way", "id": 375061589, "nodes": [3784476459, 3784476460, 3784476461, 3784476462, 3784476463, 3784476464, 3784476465, 3784476466, 3784476467, 3784476468, 3784476469, 3784476470, 3784476471, 3784476472, 3784476473, 3784476474, 3784476475, 3784476476, 3784476477, 3784476478, 3784476479, 3784476480, 3784476481, 3784476482, 3784476483, 3784476484, 3784476485, 3784476486, 3784476487, 3784476488, 3784476337, 3784476489, 3784476490, 3784476491, 3784476492, 3784476493, 3784476494, 3784476495, 3784476496, 3784476497, 3784476459], "tags": {"place": "village"}}, {"type": "way", "id": 677837974, "nodes": [6346892927, 6346892928, 6593067623, 6346892929, 6346892930, 6346892931, 9996872965, 6346892932, 10311822983, 6346892933, 6346892934, 6346892935, 6346892927], "tags": {"name": "Machakos", "place": "city", "wikidata": "Q693093", "wikipedia": "en:Machakos"}}]}