{"version": 0.6, "generator": "Overpass API 0.7.62.1 084b4234", "osm3s": {"timestamp_osm_base": "2024-09-30T20:33:43Z", "copyright": "The data included in this document is from www.openstreetmap.org. The data is made available under ODbL."}, "elements": [{"type": "node", "id": 1404221535, "lat": 4.68153, "lon": 46.62342, "tags": {"alt_name": "Elbur", "name": "Ceel Buur", "name:en": "El Buur", "name:fa": "\u0627\u0644\u0628\u0648\u0631", "name:fr": "El Buur", "name:it": "El Bur", "name:pt": "Ceelbuur", "name:ro": "Ceelbuur", "name:ru": "\u042d\u043b\u044c-\u0411\u0443\u0440", "name:tr": "El Buur", "name:ur": "\u0627\u0644\u0628\u0631\u060c \u0634\u06c1\u0631", "name:zu": "El Buur", "pcode": "NB-3816-H03-002", "place": "town", "source": "UNDP - 2006, UNDP - 1997, FSAU", "wikidata": "Q2737496", "wikipedia": "en:El Buur"}}, {"type": "node", "id": 1404222295, "lat": 4.620586, "lon": 46.453279, "tags": {"name": "Dab Xarar", "pcode": "NB-3815-K32-002", "place": "village", "source": "UNDP - 1997"}}, {"type": "node", "id": 1404227611, "lat": 4.5992, "lon": 46.427299, "tags": {"name": "Dab Nar", "pcode": "NB-3815-K32-001", "place": "village", "source": "UNDP - 1997"}}, {"type": "node", "id": 1404230561, "lat": 4.67405, "lon": 46.59457, "tags": {"name": "Ceel-Shiil", "pcode": "NB-3816-H03-001", "place": "hamlet", "source": "UNDP - 2006"}}, {"type": "node", "id": 1404231499, "lat": 4.5319, "lon": 46.630299, "tags": {"name": "Capanne", "pcode": "NB-3816-M03-001", "place": "village", "source": "UNDP - 1997"}}, {"type": "node", "id": 1404232262, "lat": 4.6275, "lon": 46.632301, "tags": {"name": "Aual Giohar", "pcode": "NB-3816-J03-001", "place": "hamlet", "source": "UNDP - 1997"}}, {"type": "node", "id": 1404232898, "lat": 4.62187, "lon": 46.45463, "tags": {"name": "Dac", "pcode": "NB-3815-K33-001", "place": "village", "source": "UNDP - 2006"}}, {"type": "node", "id": 1404232953, "lat": 4.5012, "lon": 46.682301, "tags": {"name": "Jarad", "pcode": "NB-3816-M05-002", "place": "village", "source": "UNDP - 1997"}}, {"type": "node", "id": 1404233238, "lat": 4.6274, "lon": 46.479301, "tags": {"name": "Cehan", "pcode": "NB-3815-J33-001", "place": "hamlet", "source": "UNDP - 1997"}}, {"type": "node", "id": 1404233585, "lat": 4.50016, "lon": 46.683731, "tags": {"name": "Barkadii Xaaji Xasan", "pcode": "NB-3816-M05-001", "place": "village", "source": "UNDP - 1997"}}, {"type": "node", "id": 10132833480, "lat": 4.652727, "lon": 46.6740471, "tags": {"place": "isolated_dwelling"}}, {"type": "node", "id": 10132833481, "lat": 4.6531468, "lon": 46.6693854, "tags": {"place": "isolated_dwelling"}}, {"type": "node", "id": 10132833588, "lat": 4.6543551, "lon": 46.6631439, "tags": {"place": "isolated_dwelling"}}, {"type": "node", "id": 10132833622, "lat": 4.6613967, "lon": 46.6525733, "tags": {"place": "isolated_dwelling"}}, {"type": "node", "id": 10132833623, "lat": 4.6620116, "lon": 46.6511598, "tags": {"place": "isolated_dwelling"}}, {"type": "node", "id": 10132833637, "lat": 4.6565446, "lon": 46.6500762, "tags": {"place": "isolated_dwelling"}}]}