{"version": 0.6, "generator": "Overpass API 0.7.62.1 084b4234", "osm3s": {"timestamp_osm_base": "2024-09-30T20:25:30Z", "copyright": "The data included in this document is from www.openstreetmap.org. The data is made available under ODbL."}, "elements": [{"type": "node", "id": 1404222314, "lat": 6.7811, "lon": 47.9506, "tags": {"name": "El Engir", "pcode": "NB-3808-F32-001", "place": "village", "source": "UNDP - 1997"}}, {"type": "node", "id": 1404222317, "lat": 6.723343, "lon": 47.998646, "tags": {"name": "Cijeremalayac", "pcode": "NB-3808-G33-001", "place": "village", "source": "INGO - 2010", "verified": "no"}}, {"type": "node", "id": 1404223392, "lat": 6.679969, "lon": 48.114353, "tags": {"name": "Higlalemac", "pcode": "NB-3905-H03-002", "place": "hamlet", "source": "INGO - 2010", "verified": "no"}}, {"type": "node", "id": 1404223847, "lat": 6.752435, "lon": 47.974687, "tags": {"name": "Afbulo", "pcode": "NB-3808-F33-001", "place": "village", "source": "INGO - 2010", "verified": "no"}}, {"type": "node", "id": 1404224432, "lat": 6.7303, "lon": 48.121101, "tags": {"name": "Sciander", "pcode": "NB-3905-G03-001", "place": "village", "source": "UNDP - 1997"}}, {"type": "node", "id": 1404225499, "lat": 6.5623221, "lon": 47.9996476, "tags": {"name": "Fayuka", "pcode": "NB-3808-L33-001", "place": "hamlet", "source": "UNDP - 2006"}}, {"type": "node", "id": 1404225739, "lat": 6.6889506, "lon": 48.1061986, "tags": {"name": "Higlaale", "pcode": "NB-3905-H03-001", "place": "village", "source": "UNDP - 1997"}}, {"type": "node", "id": 1404226295, "lat": 6.69477, "lon": 48.055303, "tags": {"name": "Cali Kabwn", "pcode": "NB-3905-H02-001", "place": "hamlet", "source": "INGO - 2010", "verified": "no"}}, {"type": "node", "id": 1404228836, "lat": 6.8483, "lon": 47.8650562, "tags": {"name": "Sarjimaale", "pcode": "NB-3808-D31-001", "place": "village", "source": "INGO - 2010", "verified": "no"}}, {"type": "node", "id": 1404229005, "lat": 6.5807868, "lon": 47.9338597, "tags": {"name": "Sh Abdulahi", "pcode": "NB-3808-L32-001", "place": "hamlet", "source": "INGO - 2010", "verified": "no"}}, {"type": "node", "id": 1404229949, "lat": 6.518025, "lon": 48.082464, "tags": {"name": "Ciinl", "pcode": "NB-3905-M02-001", "place": "hamlet", "source": "INGO - 2010", "verified": "no"}}, {"type": "node", "id": 1404230078, "lat": 6.615525, "lon": 47.974348, "tags": {"name": "Galgalad", "pcode": "NB-3808-K33-001", "place": "village", "source": "UNDP - 2006"}}, {"type": "node", "id": 1404231157, "lat": 6.8048954, "lon": 47.9154555, "tags": {"name": "Jaandheer", "pcode": "NB-3808-E32-001", "place": "village", "source": "INGO - 2010", "verified": "no"}}, {"type": "node", "id": 1404231203, "lat": 6.7017707, "lon": 48.04102, "tags": {"name": "Jilable", "pcode": "NB-3905-H01-001", "place": "village", "source": "INGO - 2010", "verified": "no"}}, {"type": "node", "id": 1404231850, "lat": 6.736468, "lon": 47.967803, "tags": {"name": "Cinjirecade", "pcode": "NB-3808-G33-002", "place": "village", "source": "INGO - 2010", "verified": "no"}}, {"type": "node", "id": 2208327708, "lat": 6.6507279, "lon": 48.3009945, "tags": {"name": "Mudug \u0645\u062f\u062c", "name:ar": "\u0645\u062f\u062c", "name:en": "Mudug", "name:fr": "Mudug", "name:ru": "\u041c\u0443\u0434\u0443\u0433", "place": "state", "ref": "MD", "state_code": "MD"}}]}