{"version": 0.6, "generator": "Overpass API 0.7.62.1 084b4234", "osm3s": {"timestamp_osm_base": "2024-09-30T19:57:44Z", "copyright": "The data included in this document is from www.openstreetmap.org. The data is made available under ODbL."}, "elements": [{"type": "node", "id": 1404221472, "lat": 10.75332, "lon": 49.64913, "tags": {"name": "Ufeyn-Sare", "pcode": "NC-3906-F04-001", "place": "village", "source": "UNDP - 2006, UNDP - 1997"}}, {"type": "node", "id": 1404222886, "lat": 10.65613, "lon": 49.49867, "tags": {"alt_name": "Kob Dhexaad", "name": "Kobdhexaad", "pcode": "NC-3905-J33-001", "place": "village", "source": "UNDP - 2006, UNDP - 1997, FSAU"}}, {"type": "node", "id": 1404223233, "lat": 10.49943, "lon": 49.343922, "tags": {"fixme": "Please, check location!", "name": "Ciiradhame", "pcode": "NC-3905-N30-001", "place": "hamlet", "source": "UNDP - 1997"}}, {"type": "node", "id": 1404224817, "lat": 10.4702, "lon": 49.717201, "tags": {"fixme": "Please, check location!", "name": "Scillale Hodmane", "pcode": "NC-3906-N05-001", "place": "hamlet", "source": "UNDP - 1997"}}, {"type": "node", "id": 1404230695, "lat": 10.5302, "lon": 49.5214, "tags": {"fixme": "Please, check location!", "name": "Bur Meirale", "pcode": "NC-3906-M01-001", "place": "hamlet", "source": "UNDP - 1997"}}, {"type": "node", "id": 1404230720, "lat": 10.5696, "lon": 49.477501, "tags": {"fixme": "Please, check location!", "name": "Scillale Bio Madda", "pcode": "NC-3905-L33-001", "place": "hamlet", "source": "UNDP - 1997"}}]}