{"version": 0.6, "generator": "Overpass API 0.7.62.1 084b4234", "osm3s": {"timestamp_osm_base": "2024-09-30T23:05:45Z", "copyright": "The data included in this document is from www.openstreetmap.org. The data is made available under ODbL."}, "elements": [{"type": "node", "id": 316863118, "lat": 8.6503175, "lon": 39.7541373, "tags": {"name": "Bole", "place": "town", "source": "landsat"}}, {"type": "node", "id": 1150880671, "lat": 8.7, "lon": 39.73333, "tags": {"is_in:country": "Ethiopia", "is_in:country_code": "ET", "name": "K'Awa Gebeya", "place": "locality", "source": "GeoDatabase"}}, {"type": "node", "id": 1150883720, "lat": 8.7, "lon": 39.98333, "tags": {"is_in:country": "Ethiopia", "is_in:country_code": "ET", "name": "Kalata", "place": "locality", "source": "GeoDatabase"}}, {"type": "node", "id": 1150884394, "lat": 8.48333, "lon": 39.81666, "tags": {"is_in:country": "Ethiopia", "is_in:country_code": "ET", "name": "Nono Shet'", "place": "locality", "source": "GeoDatabase"}}, {"type": "node", "id": 1150887300, "lat": 8.46667, "lon": 40.0, "tags": {"is_in:country": "Ethiopia", "is_in:country_code": "ET", "name": "Sengo Medhane `Alem Bete Kristiyan", "place": "locality", "source": "GeoDatabase"}}, {"type": "node", "id": 1150887465, "lat": 8.66667, "lon": 39.95, "tags": {"is_in:country": "Ethiopia", "is_in:country_code": "ET", "name": "Denhu", "place": "locality", "source": "GeoDatabase"}}, {"type": "node", "id": 1150887980, "lat": 8.41667, "lon": 39.75, "tags": {"is_in:country": "Ethiopia", "is_in:country_code": "ET", "name": "Werenso", "place": "locality", "source": "GeoDatabase"}}, {"type": "node", "id": 1150888843, "lat": 8.3823834, "lon": 39.6851958, "tags": {"name": "Arboye", "place": "town", "source": "GeoDatabase"}}, {"type": "node", "id": 1150891267, "lat": 8.65, "lon": 39.83333, "tags": {"is_in:country": "Ethiopia", "is_in:country_code": "ET", "name": "Dafe Jema", "place": "locality", "source": "GeoDatabase"}}, {"type": "node", "id": 1150892958, "lat": 8.75, "lon": 39.88333, "tags": {"is_in:country": "Ethiopia", "is_in:country_code": "ET", "name": "Gutu", "place": "locality", "source": "GeoDatabase"}}, {"type": "node", "id": 1150893623, "lat": 8.4, "lon": 40.01667, "tags": {"is_in:country": "Ethiopia", "is_in:country_code": "ET", "name": "Belbelo", "place": "locality", "source": "GeoDatabase"}}, {"type": "node", "id": 1150893917, "lat": 8.53333, "lon": 39.75, "tags": {"is_in:country": "Ethiopia", "is_in:country_code": "ET", "name": "Gara Ilco", "place": "locality", "source": "GeoDatabase"}}, {"type": "node", "id": 1150894550, "lat": 8.58333, "lon": 39.68333, "tags": {"is_in:country": "Ethiopia", "is_in:country_code": "ET", "name": "Lech'Ech'A Shet'", "place": "locality", "source": "GeoDatabase"}}, {"type": "node", "id": 1150898386, "lat": 8.45, "lon": 39.93333, "tags": {"is_in:country": "Ethiopia", "is_in:country_code": "ET", "name": "Sorbaye Shet'", "place": "locality", "source": "GeoDatabase"}}, {"type": "node", "id": 1150898709, "lat": 8.55, "lon": 40.06666, "tags": {"is_in:country": "Ethiopia", "is_in:country_code": "ET", "name": "Irecha Mika'El Bete Kristiyan", "place": "locality", "source": "GeoDatabase"}}, {"type": "node", "id": 1150899164, "lat": 8.71667, "lon": 39.85, "tags": {"is_in:country": "Ethiopia", "is_in:country_code": "ET", "name": "Monte Sadeca", "place": "locality", "source": "GeoDatabase"}}, {"type": "node", "id": 1150903263, "lat": 8.48333, "lon": 39.95, "tags": {"is_in:country": "Ethiopia", "is_in:country_code": "ET", "name": "Gora Shet'", "place": "locality", "source": "GeoDatabase"}}, {"type": "node", "id": 1150903567, "lat": 8.61667, "lon": 39.71667, "tags": {"is_in:country": "Ethiopia", "is_in:country_code": "ET", "name": "Nura Hida Tekil", "place": "locality", "source": "GeoDatabase"}}, {"type": "node", "id": 1150909923, "lat": 8.52472, "lon": 40.03333, "tags": {"is_in:country": "Ethiopia", "is_in:country_code": "ET", "name": "Teferi Birhan", "place": "locality", "source": "GeoDatabase"}}, {"type": "node", "id": 1150911051, "lat": 8.56667, "lon": 39.81666, "tags": {"is_in:country": "Ethiopia", "is_in:country_code": "ET", "name": "Dule", "place": "locality", "source": "GeoDatabase"}}, {"type": "node", "id": 1150912395, "lat": 8.63333, "lon": 39.96667, "tags": {"is_in:country": "Ethiopia", "is_in:country_code": "ET", "name": "Dale Shet'", "place": "locality", "source": "GeoDatabase"}}, {"type": "node", "id": 1150914634, "lat": 8.53333, "lon": 39.78333, "tags": {"is_in:country": "Ethiopia", "is_in:country_code": "ET", "name": "K'Et'Et'Esa", "place": "locality", "source": "GeoDatabase"}}, {"type": "node", "id": 1150916635, "lat": 8.38333, "lon": 39.93333, "tags": {"is_in:country": "Ethiopia", "is_in:country_code": "ET", "name": "Debre Sahil", "place": "locality", "source": "GeoDatabase"}}, {"type": "node", "id": 1150920853, "lat": 8.41667, "lon": 39.86667, "tags": {"is_in:country": "Ethiopia", "is_in:country_code": "ET", "name": "Aware Wenz", "place": "locality", "source": "GeoDatabase"}}, {"type": "node", "id": 1150923002, "lat": 8.48333, "lon": 39.78333, "tags": {"is_in:country": "Ethiopia", "is_in:country_code": "ET", "name": "Sirri", "place": "locality", "source": "GeoDatabase"}}, {"type": "node", "id": 1150924721, "lat": 8.3842983, "lon": 39.7286005, "tags": {"is_in:country": "Ethiopia", "is_in:country_code": "ET", "name": "Qarsa", "place": "locality", "source": "GeoDatabase"}}, {"type": "node", "id": 1150930742, "lat": 8.43333, "lon": 39.88333, "tags": {"is_in:country": "Ethiopia", "is_in:country_code": "ET", "name": "Bila Wegara", "place": "locality", "source": "GeoDatabase"}}, {"type": "node", "id": 1150933779, "lat": 8.6275, "lon": 40.03333, "tags": {"is_in:country": "Ethiopia", "is_in:country_code": "ET", "name": "Tinsae Berhan", "place": "locality", "source": "GeoDatabase"}}, {"type": "node", "id": 1150935068, "lat": 8.75, "lon": 39.83333, "tags": {"is_in:country": "Ethiopia", "is_in:country_code": "ET", "name": "Katelu", "place": "locality", "source": "GeoDatabase"}}, {"type": "node", "id": 1150937464, "lat": 8.41667, "lon": 40.01667, "tags": {"is_in:country": "Ethiopia", "is_in:country_code": "ET", "name": "Giyorgis Bete Kristiyan", "place": "locality", "source": "GeoDatabase"}}, {"type": "node", "id": 1150943306, "lat": 8.6, "lon": 39.91667, "tags": {"is_in:country": "Ethiopia", "is_in:country_code": "ET", "name": "K'Ere Bota", "place": "locality", "source": "GeoDatabase"}}, {"type": "node", "id": 1150944142, "lat": 8.75, "lon": 40.06666, "tags": {"is_in:country": "Ethiopia", "is_in:country_code": "ET", "name": "Huk'E Shet'", "place": "locality", "source": "GeoDatabase"}}, {"type": "node", "id": 1150944267, "lat": 8.63333, "lon": 39.66667, "tags": {"is_in:country": "Ethiopia", "is_in:country_code": "ET", "name": "Algo", "place": "locality", "source": "GeoDatabase"}}, {"type": "node", "id": 1150950059, "lat": 8.51667, "lon": 40.03333, "tags": {"is_in:country": "Ethiopia", "is_in:country_code": "ET", "name": "Assaco", "place": "locality", "source": "GeoDatabase"}}, {"type": "node", "id": 1150955870, "lat": 8.61667, "lon": 39.96667, "tags": {"is_in:country": "Ethiopia", "is_in:country_code": "ET", "name": "K'Ersa Shet'", "place": "locality", "source": "GeoDatabase"}}, {"type": "node", "id": 1150956461, "lat": 8.68333, "lon": 40.01667, "tags": {"is_in:country": "Ethiopia", "is_in:country_code": "ET", "name": "Ch'Ulul Shet'", "place": "locality", "source": "GeoDatabase"}}, {"type": "node", "id": 1150957755, "lat": 8.3662942, "lon": 39.7619096, "tags": {"is_in:country": "Ethiopia", "is_in:country_code": "ET", "name": "Ferekesa", "place": "village"}}, {"type": "node", "id": 1150967094, "lat": 8.46667, "lon": 39.78333, "tags": {"is_in:country": "Ethiopia", "is_in:country_code": "ET", "name": "Melela", "place": "locality", "source": "GeoDatabase"}}, {"type": "node", "id": 1150967894, "lat": 8.66667, "lon": 39.85, "tags": {"is_in:country": "Ethiopia", "is_in:country_code": "ET", "name": "Sife Shet'", "place": "locality", "source": "GeoDatabase"}}, {"type": "node", "id": 1150969961, "lat": 8.6, "lon": 39.7, "tags": {"is_in:country": "Ethiopia", "is_in:country_code": "ET", "name": "Odohoma Shet'", "place": "locality", "source": "GeoDatabase"}}, {"type": "node", "id": 1150973567, "lat": 8.58333, "lon": 39.85, "tags": {"is_in:country": "Ethiopia", "is_in:country_code": "ET", "name": "Abomsa", "place": "locality", "source": "GeoDatabase", "wikidata": "Q2821705", "wikipedia": "en:Abomsa"}}, {"type": "node", "id": 1150976523, "lat": 8.43333, "lon": 40.05, "tags": {"is_in:country": "Ethiopia", "is_in:country_code": "ET", "name": "Dunuga", "place": "locality", "source": "GeoDatabase"}}, {"type": "node", "id": 1150978505, "lat": 8.75, "lon": 39.85, "tags": {"is_in:country": "Ethiopia", "is_in:country_code": "ET", "name": "Korogassa", "place": "locality", "source": "GeoDatabase"}}, {"type": "node", "id": 1150980096, "lat": 8.4, "lon": 39.71667, "tags": {"is_in:country": "Ethiopia", "is_in:country_code": "ET", "name": "Giyorgis Bete Kristiyan", "place": "locality", "source": "GeoDatabase"}}, {"type": "node", "id": 1151004312, "lat": 8.46667, "lon": 39.91667, "tags": {"is_in:country": "Ethiopia", "is_in:country_code": "ET", "name": "Hele", "place": "locality", "source": "GeoDatabase"}}, {"type": "node", "id": 1908173413, "lat": 8.3742184, "lon": 39.9062039, "tags": {"name": "Abba Jimma", "place": "town"}}, {"type": "node", "id": 1908180027, "lat": 8.4891492, "lon": 39.834127, "tags": {"name": "Abomsa", "name:en": "Abomsa", "place": "town", "wikidata": "Q2821705", "wikipedia": "en:Abomsa"}}, {"type": "node", "id": 1908193665, "lat": 8.5731699, "lon": 39.677893, "tags": {"place": "village"}}, {"type": "node", "id": 1908437118, "lat": 8.3841355, "lon": 39.8176172, "tags": {"name": "Angada", "place": "village"}}]}